{
"type": "FeatureCollection",
"name": "2020_Electrical",
"crs": { "type": "name", "properties": { "name": "urn:ogc:def:crs:OGC:1.3:CRS84" } },
"features": [
{ "type": "Feature", "properties": { "ccd_name": "Repairing street light pole (damaged / fallen)", "com_location": "Shalimar Residency, Sathe Vasti, Lohegaon, Dhanori Road, Pune" }, "geometry": { "type": "Point", "coordinates": [ 73.9210755, 18.5974788 ] } },
{ "type": "Feature", "properties": { "ccd_name": "Removing street light pole (pole obstructing road)", "com_location": "Bharat Ratna Dr Babasaheb Ambedkar Setu, Bund Garden, Sangamvadi, Pune," }, "geometry": { "type": "Point", "coordinates": [ 73.883442, 18.5441879 ] } },
{ "type": "Feature", "properties": { "ccd_name": "Making street light functional", "com_location": "AMbA mAtA maMdira chauka sukhasAgara nagara kAtraja puNe 46" }, "geometry": { "type": "Point", "coordinates": [ 73.8679198, 18.4354071 ] } },
{ "type": "Feature", "properties": { "ccd_name": "Making street light functional", "com_location": "ram Indu park, lane 4, Baner, Pune, Maharashtra" }, "geometry": { "type": "Point", "coordinates": [ 73.779945, 18.564411 ] } },
{ "type": "Feature", "properties": { "ccd_name": "Making street light functional", "com_location": "Road no 10, Munjaba vasti Dhanori., Pune, Maharashtra" }, "geometry": { "type": "Point", "coordinates": [ 73.8988168, 18.5907141 ] } },
{ "type": "Feature", "properties": { "ccd_name": "Making street light functional", "com_location": "sr no 6 baner hind rd, pune" }, "geometry": { "type": "Point", "coordinates": [ 73.7799838, 18.5663052 ] } },
{ "type": "Feature", "properties": { "ccd_name": "Making street light functional", "com_location": "deshpande lane at Ravi polyclinics , off J m road , behind Adidas show room, Pune, Maharashtra" }, "geometry": { "type": "Point", "coordinates": [ 73.845969, 18.5224723 ] } },
{ "type": "Feature", "properties": { "ccd_name": "Making street light functional", "com_location": "Manas dreems plat no102 ganaraj mangal karyalay near anjor socity baner road pune" }, "geometry": { "type": "Point", "coordinates": [ 73.77598, 18.564474 ] } },
{ "type": "Feature", "properties": { "ccd_name": "Making street light functional", "com_location": " siddhivinAyaka sosAyaTI se saptagirI sosAyaTI \r\n\r\n saptagirI sahakArI gRRiha nirmANa saMsthA maryAdita, sarve naM 51, vAghajI nagara ke pAsa, jAMbhulavADI roDa AMbegAMva khurda puNe" }, "geometry": { "type": "Point", "coordinates": [ 73.8470507, 18.4401754 ] } },
{ "type": "Feature", "properties": { "ccd_name": "Making street light functional", "com_location": "sa.na. 35 ka lonI na.1 pragatI nagara ,kALepaDaLa, Pune, Maharashtra" }, "geometry": { "type": "Point", "coordinates": [ 73.8290088, 18.5665564 ] } },
{ "type": "Feature", "properties": { "ccd_name": "Making street light functional", "com_location": "Ramchandra nagar galli no 2 khandve nagar , Pune, Maharashtra" }, "geometry": { "type": "Point", "coordinates": [ 73.9545461, 18.5751907 ] } },
{ "type": "Feature", "properties": { "ccd_name": "Other (ELECTRICAL)", "com_location": "Ashish apartment model colony , Pune, Maharashtra" }, "geometry": { "type": "Point", "coordinates": [ 73.8370924, 18.5296221 ] } },
{ "type": "Feature", "properties": { "ccd_name": "Making street light functional", "com_location": "Ambegaon khrud saptagirI sosAyaTI yeThe marotI maMdira te gaNapatI maMdira paryanta , Pune, Maharashtra" }, "geometry": { "type": "Point", "coordinates": [ 73.9531189, 18.5646495 ] } },
{ "type": "Feature", "properties": { "ccd_name": "Making street light functional", "com_location": "sarve naMbara 666 chaitrabana vasAhata ,shaMkara maMdirAjavaLa, appara iMdirAnagara ,bibavevADI , Pune, Maharashtra" }, "geometry": { "type": "Point", "coordinates": [ 73.8640944, 18.4690213 ] } },
{ "type": "Feature", "properties": { "ccd_name": "Making street light functional", "com_location": "in Balaji mandir lane Balaji mandir pashan, Pune, Maharashtra" }, "geometry": { "type": "Point", "coordinates": [ 73.790899, 18.542077 ] } },
{ "type": "Feature", "properties": { "ccd_name": "Making street light functional", "com_location": "Katraj - Kondhwa Rd,  Shiv Parvati Mangal Karyalay samor Kheteshwar mandir (Ashram) Road , Pune, Maharashtra" }, "geometry": { "type": "Point", "coordinates": [ 73.8153333, 18.458721 ] } },
{ "type": "Feature", "properties": { "ccd_name": "Making street light functional", "com_location": "dhayri phata shivparvati lane kudale patil plaza building , Pune, Maharashtra" }, "geometry": { "type": "Point", "coordinates": [ 73.813923, 18.4612703 ] } },
{ "type": "Feature", "properties": { "ccd_name": "Making street light functional", "com_location": "Survey no. 161/8/9 opposite brick castle \r\nBhosale nagar Hadapsar Pune- 411028" }, "geometry": { "type": "Point", "coordinates": [ 73.9326066, 18.5035161 ] } },
{ "type": "Feature", "properties": { "ccd_name": "Making street light functional", "com_location": "Happy colony lane no 03 ankrrushi society  khourd, Pune, Maharashtra" }, "geometry": { "type": "Point", "coordinates": [ 73.81544, 18.495623 ] } },
{ "type": "Feature", "properties": { "ccd_name": "Signal not working", "com_location": "Lat-long: 18.518577\t73.856213\r\n, Pune, Maharashtra" }, "geometry": { "type": "Point", "coordinates": [ 73.8786239, 18.5246091 ] } },
{ "type": "Feature", "properties": { "ccd_name": "Making street light functional", "com_location": "lohegaon santh nagar 1 survey number 67 e lane opposite shubham mangal karyalaye pune " }, "geometry": { "type": "Point", "coordinates": [ 73.853851, 18.483667 ] } },
{ "type": "Feature", "properties": { "ccd_name": "Making street light functional", "com_location": "Bibavewadi bhagili hospital, Pune, Maharashtra" }, "geometry": { "type": "Point", "coordinates": [ 73.8580849, 18.4746372 ] } },
{ "type": "Feature", "properties": { "ccd_name": "Repairing and maintenance of Signal", "com_location": "Law ka leja roDa AyaDiyA shorUma chaukAtIla signala, Pune, Maharashtra" }, "geometry": { "type": "Point", "coordinates": [ 73.8786239, 18.5246091 ] } },
{ "type": "Feature", "properties": { "ccd_name": "Making street light functional", "com_location": " ghorapaDe peTha Da kTara vijaya kadama chauka , Pune, Maharashtra" }, "geometry": { "type": "Point", "coordinates": [ 73.8662917, 18.5019469 ] } },
{ "type": "Feature", "properties": { "ccd_name": "Making street light functional", "com_location": "kalpana appartment opposite poona collage bhawani peth, Pune, Maharashtra" }, "geometry": { "type": "Point", "coordinates": [ 73.8745299, 18.5064153 ] } },
{ "type": "Feature", "properties": { "ccd_name": "Making street light functional", "com_location": "Kool homes Kausar Baugh Kondhwa, Pune, Maharashtra" }, "geometry": { "type": "Point", "coordinates": [ 73.8949109, 18.4716368 ] } },
{ "type": "Feature", "properties": { "ccd_name": "Making street light functional", "com_location": " outside and Inside of  Lake view park Society , Sutarwadi , Pashan, Pume , Pune, Maharashtra" }, "geometry": { "type": "Point", "coordinates": [ 73.7820627, 18.5380236 ] } },
{ "type": "Feature", "properties": { "ccd_name": "Making street light functional", "com_location": " 624/1b, Bibvewadi, Canara Bank Pokalevasti, Shelar path to Kalbhorchawl Pune 411037" }, "geometry": { "type": "Point", "coordinates": [ 73.7954835, 18.6059738 ] } },
{ "type": "Feature", "properties": { "ccd_name": "Making street light functional", "com_location": "The light in front of Welworth classic vrundawan nagar lane no 2 wadgaon Sheri, Pune, Maharashtra" }, "geometry": { "type": "Point", "coordinates": [ 73.9158035, 18.5547717 ] } },
{ "type": "Feature", "properties": { "ccd_name": "No electricity in public toilet(s)", "com_location": " opp.  WADIA college gate., Pune, Maharashtra" }, "geometry": { "type": "Point", "coordinates": [ 73.8806824, 18.5333787 ] } },
{ "type": "Feature", "properties": { "ccd_name": "Making street light functional", "com_location": " at krushna Kamal society nanaware wasti, Pune, Maharashtra" }, "geometry": { "type": "Point", "coordinates": [ 73.7853841, 18.5449335 ] } },
{ "type": "Feature", "properties": { "ccd_name": "Making street light functional", "com_location": "Lane Number 2, Raghoba Patil Nagar, Shree Swami Samarth Colony, Nagar, Kharadi, Pune, " }, "geometry": { "type": "Point", "coordinates": [ 73.9338332, 18.5402712 ] } },
{ "type": "Feature", "properties": { "ccd_name": "Making street light functional", "com_location": "somnath nagar, Grewal society s.no-43/1/2, nr shivraj school, nagar road nr CTR co-411014, Pune, Maharashtra" }, "geometry": { "type": "Point", "coordinates": [ 73.921189, 18.556147 ] } },
{ "type": "Feature", "properties": { "ccd_name": "Other (ELECTRICAL)", "com_location": "49/1/1, Ganesh Colony, Near Gananjay Society,\r\nKothrud, Pune 411038" }, "geometry": { "type": "Point", "coordinates": [ 73.8036563, 18.4999793 ] } },
{ "type": "Feature", "properties": { "ccd_name": "Making street light functional", "com_location": "Suyog Aditya Society Bibwewadi Gaonthan, Pune, Maharashtra" }, "geometry": { "type": "Point", "coordinates": [ 73.8172545, 18.5094996 ] } },
{ "type": "Feature", "properties": { "ccd_name": "Other (ELECTRICAL)", "com_location": "prabhat road lane no5, makrand bhave path, dikshit path, Pune, Maharashtra" }, "geometry": { "type": "Point", "coordinates": [ 73.8375581, 18.5140971 ] } },
{ "type": "Feature", "properties": { "ccd_name": "Making street light functional", "com_location": "Sadafulee society Behind D Mart off Baner Road, Balewadi, Pune 45" }, "geometry": { "type": "Point", "coordinates": [ 73.769959, 18.5665014 ] } },
{ "type": "Feature", "properties": { "ccd_name": "Making street light functional", "com_location": "girIjAshaMkara sosAyaTI chavhANa nagara dhanakavaDI puNe 43 " }, "geometry": { "type": "Point", "coordinates": [ 73.8524705, 18.4655885 ] } },
{ "type": "Feature", "properties": { "ccd_name": "Making street light functional", "com_location": "Om galaxy society Rakshak Nagar,near Kharadi Bypass Pune 14" }, "geometry": { "type": "Point", "coordinates": [ 73.9414913, 18.5501421 ] } },
{ "type": "Feature", "properties": { "ccd_name": "Making street light functional", "com_location": "sahkarnagar no-2, plot-29, priti sangam house, ganganath maharaj soc, -411009, last bus stop, Pune, Maharashtra" }, "geometry": { "type": "Point", "coordinates": [ 73.8469719, 18.4880752 ] } },
{ "type": "Feature", "properties": { "ccd_name": "Making street light functional", "com_location": "sanjay park rushabh apartment, Pune, Maharashtra" }, "geometry": { "type": "Point", "coordinates": [ 73.8041015, 18.5563628 ] } },
{ "type": "Feature", "properties": { "ccd_name": "Making street light functional", "com_location": "Baner pashan link road near rolling hill soc to baadshahi hotel , Pune, Maharashtra" }, "geometry": { "type": "Point", "coordinates": [ 73.7912895, 18.5491346 ] } },
{ "type": "Feature", "properties": { "ccd_name": "Making street light functional", "com_location": "gurukrupa colony sr no -47, daimond water park road, lohagaon pune -47" }, "geometry": { "type": "Point", "coordinates": [ 73.9569126, 18.5961568 ] } },
{ "type": "Feature", "properties": { "ccd_name": "Making street light functional", "com_location": " Plot number 39,40, 43, 44, 47, Mitra mandal colony,  parvatI , Pune, Maharashtra" }, "geometry": { "type": "Point", "coordinates": [ 73.854679, 18.4923126 ] } },
{ "type": "Feature", "properties": { "ccd_name": "Making street light functional", "com_location": " Parkhe Shinde Mala Road Baner, Pune, Maharashtra" }, "geometry": { "type": "Point", "coordinates": [ 73.7934988, 18.5589752 ] } },
{ "type": "Feature", "properties": { "ccd_name": "Making street light functional", "com_location": "1/B/2 Napier Road near shetty Garage behind Pulgate Police station camp pune 411001" }, "geometry": { "type": "Point", "coordinates": [ 73.8820035, 18.5057147 ] } },
{ "type": "Feature", "properties": { "ccd_name": "Making street light functional", "com_location": "Infront of Shinde Commercial Complex Shinde Nagar, Pune, Maharashtra" }, "geometry": { "type": "Point", "coordinates": [ 73.7812477, 18.5128065 ] } },
{ "type": "Feature", "properties": { "ccd_name": "Making street light functional", "com_location": "yerawada jail commerce zone it park pune" }, "geometry": { "type": "Point", "coordinates": [ 73.8842536, 18.5641072 ] } },
{ "type": "Feature", "properties": { "ccd_name": "Making street light functional", "com_location": "kalyani nagar kalyani banglow pune" }, "geometry": { "type": "Point", "coordinates": [ 73.899607100000011, 18.5472105 ] } },
{ "type": "Feature", "properties": { "ccd_name": "Making street light functional", "com_location": " at seven loves chowk  j.n.marg state bank union bank munot hospital, Pune, Maharashtra" }, "geometry": { "type": "Point", "coordinates": [ 73.8687773, 18.5025494 ] } },
{ "type": "Feature", "properties": { "ccd_name": "Repairing street light pole (damaged / fallen)", "com_location": "Location: outside Fili Villa bungalow, survey 23/1C Balewadi @PMCPune" }, "geometry": { "type": "Point", "coordinates": [ 73.768838, 18.5711981 ] } },
{ "type": "Feature", "properties": { "ccd_name": "Other (ELECTRICAL)", "com_location": "233, bhavani peth, juna ramoshi gate , police chowki , Pune, Maharashtra" }, "geometry": { "type": "Point", "coordinates": [ 73.868361, 18.5110873 ] } },
{ "type": "Feature", "properties": { "ccd_name": "Making street light functional", "com_location": "krishna hatti chowk to shitlaj devi chowk phulwala chowk guruwar peth 411042 , Pune, Maharashtra" }, "geometry": { "type": "Point", "coordinates": [ 73.8603345, 18.5106198 ] } },
{ "type": "Feature", "properties": { "ccd_name": "Making street light functional", "com_location": "Mangal dham society Eklavya college chya jawal Kothrud, Pune, Maharashtra" }, "geometry": { "type": "Point", "coordinates": [ 73.7985967, 18.501491 ] } },
{ "type": "Feature", "properties": { "ccd_name": "Other (ELECTRICAL)", "com_location": "n: In front of SBI Bavdhan branch, NDA- Pashan Road , Pune, Maharashtra" }, "geometry": { "type": "Point", "coordinates": [ 73.7807796, 18.5169718 ] } },
{ "type": "Feature", "properties": { "ccd_name": "Making street light functional", "com_location": ": a4 Guru Angad Hsg Soc., 3 Aundh Rd. Khadki, 411020, Pune, Maharashtra" }, "geometry": { "type": "Point", "coordinates": [ 73.8373571, 18.5628768 ] } },
{ "type": "Feature", "properties": { "ccd_name": "Making street light functional", "com_location": "gokul  ngr jedhe vajan kata katraj kondhva road , Pune, Maharashtra" }, "geometry": { "type": "Point", "coordinates": [ 73.875687, 18.450668 ] } },
{ "type": "Feature", "properties": { "ccd_name": "Making street light functional", "com_location": "Shahajiraje Bhosale Nagar Kapare vasti Hadapsar, Pune," }, "geometry": { "type": "Point", "coordinates": [ 73.9303516, 18.5080788 ] } },
{ "type": "Feature", "properties": { "ccd_name": "Making street light functional", "com_location": "Thite wasti lane no 4 kharadi , Pune, Maharashtra" }, "geometry": { "type": "Point", "coordinates": [ 73.9282318, 18.5569904 ] } },
{ "type": "Feature", "properties": { "ccd_name": "Making street light functional", "com_location": "nAMde.Da phATTA te (kirakaTavADI)kha.DakavAsalA Daima roDa., Pune, Maharashtra" }, "geometry": { "type": "Point", "coordinates": [ 73.8149657, 18.4469279 ] } },
{ "type": "Feature", "properties": { "ccd_name": "Making street light functional", "com_location": " appAbaLavaMta chauka poTbhare vA.DayAtila, Pune, Maharashtra" }, "geometry": { "type": "Point", "coordinates": [ 73.8786239, 18.5246091 ] } },
{ "type": "Feature", "properties": { "ccd_name": "Making street light functional", "com_location": "s.no 203 sadesatra nali near ganpati madir hadapsar pune 411028" }, "geometry": { "type": "Point", "coordinates": [ 73.9501677, 18.5133271 ] } },
{ "type": "Feature", "properties": { "ccd_name": "A new street light (new demand)", "com_location": "june orbis school chyA ithe , Pune, Maharashtra" }, "geometry": { "type": "Point", "coordinates": [ 73.8267186, 18.5147793 ] } },
{ "type": "Feature", "properties": { "ccd_name": "Making street light functional", "com_location": "solitaire  housing society, kausar bagh, near r c kitchen, Pune, Maharashtra" }, "geometry": { "type": "Point", "coordinates": [ 73.8925654, 18.4747682 ] } },
{ "type": "Feature", "properties": { "ccd_name": "Making street light functional", "com_location": " on Baner Sus Road near Bitwise building in Baner . \r\n, Pune, Maharashtra" }, "geometry": { "type": "Point", "coordinates": [ 73.7702683, 18.5481027 ] } },
{ "type": "Feature", "properties": { "ccd_name": "Making street light functional", "com_location": "Hadapsar sayyed nagar gulam ali nagar galli no 11 Yusufiya Masjid samor, Pune, Maharashtra" }, "geometry": { "type": "Point", "coordinates": [ 73.9298151, 18.4840932 ] } },
{ "type": "Feature", "properties": { "ccd_name": "Making street light functional", "com_location": "lalit  mall hotel jagtaap dairy lane model colony , Pune, Maharashtra" }, "geometry": { "type": "Point", "coordinates": [ 73.8427937, 18.528494 ] } },
{ "type": "Feature", "properties": { "ccd_name": "Making street light functional", "com_location": "metro green to yewalewadi, Pune, Maharashtra" }, "geometry": { "type": "Point", "coordinates": [ 73.9051185, 18.4462026 ] } },
{ "type": "Feature", "properties": { "ccd_name": "Making street light functional", "com_location": "Lane no 2  Veerbhadra Nagar Ganraj mangal karyalay back side Baner pune 411045." }, "geometry": { "type": "Point", "coordinates": [ 73.77598, 18.564474 ] } },
{ "type": "Feature", "properties": { "ccd_name": "Making street light functional", "com_location": "Inside &outside of  Lake view park Society , Sutarwadi , Pashan, Pume -411021., Pune, Maharashtra" }, "geometry": { "type": "Point", "coordinates": [ 73.7820627, 18.5380236 ] } },
{ "type": "Feature", "properties": { "ccd_name": "Making street light functional", "com_location": "Gera Junction, Sahaney Sujan Park, Lullanagar, Pune, Maharashtra 411040, India" }, "geometry": { "type": "Point", "coordinates": [ 73.888783, 18.485613 ] } },
{ "type": "Feature", "properties": { "ccd_name": "Making street light functional", "com_location": "Castle Housing Society Near Robertshaw Controls And Kulkarni Motors Viman Nagar, Pune" }, "geometry": { "type": "Point", "coordinates": [ 73.921226, 18.5660954 ] } },
{ "type": "Feature", "properties": { "ccd_name": "Making street light functional", "com_location": "ICICI bank lane, Gulmohar Park,ITI Road, in front of Plot No 9 Sai Simran Apartment, Pune, Maharashtra" }, "geometry": { "type": "Point", "coordinates": [ 73.8099247, 18.5544932 ] } },
{ "type": "Feature", "properties": { "ccd_name": "Making street light functional", "com_location": "KFP CHESTERFIELD SOCIETY\r\nDN Parande Park, Dhanori, Pune, Maharashtra 411015" }, "geometry": { "type": "Point", "coordinates": [ 73.899331, 18.6072928 ] } },
{ "type": "Feature", "properties": { "ccd_name": "Making street light functional", "com_location": "ramchandra khandwe nagar galli number 4  pune" }, "geometry": { "type": "Point", "coordinates": [ 73.9051185, 18.5873577 ] } },
{ "type": "Feature", "properties": { "ccd_name": "Making street light functional", "com_location": "lohagAva kopara ALI shiLA maMdira , Pune, Maharashtra" }, "geometry": { "type": "Point", "coordinates": [ 73.9283344, 18.5987191 ] } },
{ "type": "Feature", "properties": { "ccd_name": "Making street light functional", "com_location": "karve putala, dahanukar colony , Pune, Maharashtra" }, "geometry": { "type": "Point", "coordinates": [ 73.813736, 18.497744 ] } },
{ "type": "Feature", "properties": { "ccd_name": "Making street light functional", "com_location": " Aeropolis Phase 1 road, opposite Sai Shanti park Porwal road Lohegaon -411047, Pune, Maharashtra" }, "geometry": { "type": "Point", "coordinates": [ 73.9100273, 18.6046897 ] } },
{ "type": "Feature", "properties": { "ccd_name": "Making street light functional", "com_location": "Sukhwani sapron pashan , Pune, Maharashtra" }, "geometry": { "type": "Point", "coordinates": [ 73.7882055, 18.5409185 ] } },
{ "type": "Feature", "properties": { "ccd_name": "Making street light functional", "com_location": " Chintangad Apartment, Gulmohar Park, ITI Road, Aundh \r\n\r\n, Pune, Maharashtra" }, "geometry": { "type": "Point", "coordinates": [ 73.8099247, 18.5544932 ] } },
{ "type": "Feature", "properties": { "ccd_name": "Making street light functional", "com_location": "Ramchandra nagar khandve nagar lohgaon, Pune, Maharashtra" }, "geometry": { "type": "Point", "coordinates": [ 73.9275889, 18.5944704 ] } },
{ "type": "Feature", "properties": { "ccd_name": "Making street light functional", "com_location": "  behind balaji hospital sr no 43/3A parasher hsg society chadannager pune 411014" }, "geometry": { "type": "Point", "coordinates": [ 73.9406922, 18.5626376 ] } },
{ "type": "Feature", "properties": { "ccd_name": "No electricity in public toilet(s)", "com_location": ". Near matoshri garden opp wadia college, Pune, Maharashtra" }, "geometry": { "type": "Point", "coordinates": [ 73.8806824, 18.5333787 ] } },
{ "type": "Feature", "properties": { "ccd_name": "Making street light functional", "com_location": "Gulmohar Villa, Yogita Park, SNO 136/1/3, Balewadi phata, Near Aarti Residency/Windsor Society,Baner, Pune, Maharashtra" }, "geometry": { "type": "Point", "coordinates": [ 73.7838215, 18.5645048 ] } },
{ "type": "Feature", "properties": { "ccd_name": "Making street light functional", "com_location": "Siddharth nagar NIBM kondwa suryakant lonkar school kondwa hads 26, Pune, Maharashtra" }, "geometry": { "type": "Point", "coordinates": [ 73.8945955, 18.4735605 ] } },
{ "type": "Feature", "properties": { "ccd_name": "Making street light functional", "com_location": "dhayri dsk road near morning dew society, Pune, Maharashtra" }, "geometry": { "type": "Point", "coordinates": [ 73.804356, 18.4470468 ] } },
{ "type": "Feature", "properties": { "ccd_name": "Making street light functional", "com_location": "Sai Samarth Park, Vadgaon Budruk Pune 411041 " }, "geometry": { "type": "Point", "coordinates": [ 73.8233661, 18.4608561 ] } },
{ "type": "Feature", "properties": { "ccd_name": "Making street light functional", "com_location": "Pole number AU/107/051 and AU/107/052\r\nStreet on Sai Ram and Sai Krishna society Balewadi, Pune, Maharashtra" }, "geometry": { "type": "Point", "coordinates": [ 73.7817062, 18.5713784 ] } },
{ "type": "Feature", "properties": { "ccd_name": "Making street light functional", "com_location": "medipoint, Pune, Maharashtra" }, "geometry": { "type": "Point", "coordinates": [ 73.8567437, 18.5204303 ] } },
{ "type": "Feature", "properties": { "ccd_name": "New signal required", "com_location": "at Magarpatta main gate, Pune, Maharashtra" }, "geometry": { "type": "Point", "coordinates": [ 73.93268, 18.51526 ] } },
{ "type": "Feature", "properties": { "ccd_name": "Making street light functional", "com_location": "Parkhe Shinde Mala Road Baner , Pune, Maharashtra" }, "geometry": { "type": "Point", "coordinates": [ 73.7934988, 18.5589752 ] } },
{ "type": "Feature", "properties": { "ccd_name": "Making street light functional", "com_location": "Onkar Sadan, 162, Shaniwar Peth, Near Shaniwar Wada, Bajirao Road, Pune" }, "geometry": { "type": "Point", "coordinates": [ 73.8543257, 18.5197879 ] } },
{ "type": "Feature", "properties": { "ccd_name": "Making street light functional", "com_location": "Lane 5 shrinath nagagr nr virbhadra nagar baner 411045 , Pune, Maharashtra" }, "geometry": { "type": "Point", "coordinates": [ 73.7763156, 18.5641551 ] } },
{ "type": "Feature", "properties": { "ccd_name": "Making street light functional", "com_location": "8 mula road khadki pune bhayyawadi near shankar mandir3 " }, "geometry": { "type": "Point", "coordinates": [ 73.8553862, 18.5509255 ] } },
{ "type": "Feature", "properties": { "ccd_name": "Making street light functional", "com_location": "RAJARAM PATIL NAGAR KHARADI PUNE " }, "geometry": { "type": "Point", "coordinates": [ 73.9537885, 18.5589043 ] } },
{ "type": "Feature", "properties": { "ccd_name": "Making street light functional", "com_location": "main Bibwewadi road opposite Canara Bank, Pune, Maharashtra" }, "geometry": { "type": "Point", "coordinates": [ 73.8602178, 18.4829272 ] } },
{ "type": "Feature", "properties": { "ccd_name": "Making street light functional", "com_location": "66/2 near bharti sahkari bank dhayri fata chate coching classs shejaril gali , Pune, Maharashtra" }, "geometry": { "type": "Point", "coordinates": [ 73.8102051, 18.4471543 ] } },
{ "type": "Feature", "properties": { "ccd_name": "Making street light functional", "com_location": "puNe- kalyANI nagara koregAvapArka -AgAkhAna brIjavara " }, "geometry": { "type": "Point", "coordinates": [ 73.9015388, 18.5525887 ] } },
{ "type": "Feature", "properties": { "ccd_name": "Other (ELECTRICAL)", "com_location": "J.M\r\nRoad,Apate Road , Pune, Maharashtra" }, "geometry": { "type": "Point", "coordinates": [ 73.8467508, 18.5211595 ] } },
{ "type": "Feature", "properties": { "ccd_name": "Making street light functional", "com_location": "Sheeba Housing Society 41, Bhau Patil Rd Nagar, Near IT Park Bopodi, Pune, " }, "geometry": { "type": "Point", "coordinates": [ 73.8350831, 18.5709235 ] } },
{ "type": "Feature", "properties": { "ccd_name": "Making street light functional", "com_location": " rolling hill to badshahi hotel .baner pashan Link Road, Pune, Maharashtra" }, "geometry": { "type": "Point", "coordinates": [ 73.7912895, 18.5491346 ] } },
{ "type": "Feature", "properties": { "ccd_name": "Signal not working", "com_location": "Lat-long: 18.480708\t73.825529\r\n, Pune, Maharashtra" }, "geometry": { "type": "Point", "coordinates": [ 73.8786239, 18.5246091 ] } },
{ "type": "Feature", "properties": { "ccd_name": "Making street light functional", "com_location": "jAdhavagaDa orIeMTa vhilA sosAyaTI lena naM 1 kuberA saMkula mAge DI pI roDa gADItaLa haDapasara puNe" }, "geometry": { "type": "Point", "coordinates": [ 73.8786239, 18.5246091 ] } },
{ "type": "Feature", "properties": { "ccd_name": "Other (ELECTRICAL)", "com_location": "Near Pune Club chowk Bund garden Road" }, "geometry": { "type": "Point", "coordinates": [ 73.8792113, 18.5233409 ] } },
{ "type": "Feature", "properties": { "ccd_name": "Making street light functional", "com_location": "Dnyaneshwar Paduka Chowk Jangali Maharaj Rd, Police lane Shivajinagar, Pune" }, "geometry": { "type": "Point", "coordinates": [ 73.8450359, 18.5274317 ] } },
{ "type": "Feature", "properties": { "ccd_name": "Making street light functional", "com_location": "Sr no 74 Lane no 5 Sant nagar Opp world class bakery lohegaon wagholi road , Pune, Maharashtra" }, "geometry": { "type": "Point", "coordinates": [ 73.9344617, 18.5985635 ] } },
{ "type": "Feature", "properties": { "ccd_name": "Other (ELECTRICAL)", "com_location": "Parkhe mla, Pune, Maharashtra" }, "geometry": { "type": "Point", "coordinates": [ 73.8786239, 18.5246091 ] } },
{ "type": "Feature", "properties": { "ccd_name": "Making street light functional", "com_location": "Malwadi wasti water park road galli no 6 ;ohgaon, Pune, Maharashtra" }, "geometry": { "type": "Point", "coordinates": [ 73.9378399, 18.5959114 ] } },
{ "type": "Feature", "properties": { "ccd_name": "Making street light functional", "com_location": "Patil colony lane opp. Abhiruchi Mall, Near MSEDCL office, Sinhagad road, Pune-41" }, "geometry": { "type": "Point", "coordinates": [ 73.8452058, 18.5010312 ] } },
{ "type": "Feature", "properties": { "ccd_name": "Making street light functional", "com_location": "at progressive soc. Near plot no. 6, vaiduwadi, Hadspsar., Pune, Maharashtra" }, "geometry": { "type": "Point", "coordinates": [ 73.9205509, 18.5029882 ] } },
{ "type": "Feature", "properties": { "ccd_name": "Making street light functional", "com_location": "DATTAVIHAR HOUSING SOCIETY DATTANAGAR JAMBURWADI ROAD AMBEGAON BUDRUK PUNE 46" }, "geometry": { "type": "Point", "coordinates": [ 73.8468226, 18.4424495 ] } },
{ "type": "Feature", "properties": { "ccd_name": "Making street light functional", "com_location": "opposite bhgwati asiana entrance inside bhagwati agla socity sutarwadi road pashan pune " }, "geometry": { "type": "Point", "coordinates": [ 73.7889811, 18.5371719 ] } },
{ "type": "Feature", "properties": { "ccd_name": "Making street light functional", "com_location": " from badshahi hotel corner till capital building and blossom and spring society baner pashan link road, Pune, Maharashtra" }, "geometry": { "type": "Point", "coordinates": [ 73.7927075, 18.5511238 ] } },
{ "type": "Feature", "properties": { "ccd_name": "Making street light functional", "com_location": "300/301  ghorapaDe peTha, vakratuMDa apArTameMTa mAge, puNe 42 " }, "geometry": { "type": "Point", "coordinates": [ 73.8630531, 18.5013547 ] } },
{ "type": "Feature", "properties": { "ccd_name": "Making street light functional", "com_location": "dattanagara te AMbegAva bu. , Pune, Maharashtra" }, "geometry": { "type": "Point", "coordinates": [ 73.8786239, 18.5246091 ] } },
{ "type": "Feature", "properties": { "ccd_name": "Making street light functional", "com_location": "on Parkhe Mala Road Baner , Pune, Maharashtra" }, "geometry": { "type": "Point", "coordinates": [ 73.7935148, 18.5588945 ] } },
{ "type": "Feature", "properties": { "ccd_name": "Making street light functional", "com_location": "bhaou patil rd nr bhairavnath mandir , Pune, Maharashtra" }, "geometry": { "type": "Point", "coordinates": [ 73.8322962, 18.5688266 ] } },
{ "type": "Feature", "properties": { "ccd_name": "Making street light functional", "com_location": "pashan road chavan nagar sp pune wirles banglo shivneri banglow    " }, "geometry": { "type": "Point", "coordinates": [ 73.8276943, 18.5419294 ] } },
{ "type": "Feature", "properties": { "ccd_name": "Making street light functional", "com_location": "Someshwar wadi, near Krishna nagar Soc. Tapas elder care centre, Pashan,, Pune, Maharashtra" }, "geometry": { "type": "Point", "coordinates": [ 73.8022046, 18.5466777 ] } },
{ "type": "Feature", "properties": { "ccd_name": "Making street light functional", "com_location": "purti socity dhankhwadi plot no 35, Pune, Maharashtra" }, "geometry": { "type": "Point", "coordinates": [ 73.8511873, 18.4633906 ] } },
{ "type": "Feature", "properties": { "ccd_name": "Making street light functional", "com_location": "Sant nagar lohgaon, Pune, Maharashtra" }, "geometry": { "type": "Point", "coordinates": [ 73.9372971, 18.5947006 ] } },
{ "type": "Feature", "properties": { "ccd_name": "Making street light functional", "com_location": "Gultekdi prabhat press samoril  ani choukatil , Pune, Maharashtra" }, "geometry": { "type": "Point", "coordinates": [ 73.8704877, 18.4877372 ] } },
{ "type": "Feature", "properties": { "ccd_name": "Making street light functional", "com_location": "Keshav Nagar Sadestra Nali,Ashirwad jim road pune" }, "geometry": { "type": "Point", "coordinates": [ 73.9440646, 18.5323976 ] } },
{ "type": "Feature", "properties": { "ccd_name": "Making street light functional", "com_location": "sr no623/8 prasad bibve nagar lane no 4 Shri ganesh krupa society Shriram niwas near Rushikesh Building behind of Aai mata mandir Bibvewadi 37, Pune, Maharashtra" }, "geometry": { "type": "Point", "coordinates": [ 73.8748942, 18.4718282 ] } },
{ "type": "Feature", "properties": { "ccd_name": "Making street light functional", "com_location": "378 kiran society sahakar nagar no 1 pune 9" }, "geometry": { "type": "Point", "coordinates": [ 73.851866, 18.4843681 ] } },
{ "type": "Feature", "properties": { "ccd_name": "Making street light functional", "com_location": " Location: Zagade Park, s.no 93/22b, Ghorpadi Road, Mundhwa, Pune 411036" }, "geometry": { "type": "Point", "coordinates": [ 73.9250305, 18.535419 ] } },
{ "type": "Feature", "properties": { "ccd_name": "Making street light functional", "com_location": "near trimurti hospital chowk before flyover starts near Dhyari phata, Pune, Maharashtra" }, "geometry": { "type": "Point", "coordinates": [ 73.814838, 18.4621292 ] } },
{ "type": "Feature", "properties": { "ccd_name": "Making street light functional", "com_location": "Kalpatru Housing society. Chandan nagar. Pune 411014" }, "geometry": { "type": "Point", "coordinates": [ 73.9320496, 18.5605651 ] } },
{ "type": "Feature", "properties": { "ccd_name": "Making street light functional", "com_location": "Baner Pashan Link Road Crystal Garden Society to badshahi Hotel , Pune, Maharashtra" }, "geometry": { "type": "Point", "coordinates": [ 73.7961989, 18.5501534 ] } },
{ "type": "Feature", "properties": { "ccd_name": "Making street light functional", "com_location": " Baner Sus Road near Bitwise building \r\n, Pune, Maharashtra" }, "geometry": { "type": "Point", "coordinates": [ 73.7648718, 18.5492035 ] } },
{ "type": "Feature", "properties": { "ccd_name": "Making street light functional", "com_location": "Sr no 282 ,pune solapur road ,laxmi colony ,lane no -5 ," }, "geometry": { "type": "Point", "coordinates": [ 73.929814, 18.5018564 ] } },
{ "type": "Feature", "properties": { "ccd_name": "Making street light functional", "com_location": "477, Shukrawar Peth, Opp Digvijay ganpati Mandir, Near Vanraj Mandal, Mamledar Kacheri, Shivaji Road, Pune, Maharashtra" }, "geometry": { "type": "Point", "coordinates": [ 73.8585261, 18.5069516 ] } },
{ "type": "Feature", "properties": { "ccd_name": "Making street light functional", "com_location": "sr no 36 katraj kondhwa road gokulnagar shree swami samantha nagar Gail no.1 pune 46" }, "geometry": { "type": "Point", "coordinates": [ 73.8722976, 18.4481043 ] } },
{ "type": "Feature", "properties": { "ccd_name": "Making street light functional", "com_location": "SR NO 48/3 LANE NO 1 GANESH NAGAR VADGAONSHERI PUNE 14." }, "geometry": { "type": "Point", "coordinates": [ 73.9265656, 18.5506663 ] } },
{ "type": "Feature", "properties": { "ccd_name": "Removing street light pole (pole obstructing road)", "com_location": "106, juna tofkhana shivaji nagar  , Pune, Maharashtra" }, "geometry": { "type": "Point", "coordinates": [ 73.855506, 18.5250558 ] } },
{ "type": "Feature", "properties": { "ccd_name": "No electricity supply", "com_location": "Samrat Ashok Vidya Mandir 117 B , Pune, Maharashtra" }, "geometry": { "type": "Point", "coordinates": [ 73.8156099, 18.4909768 ] } },
{ "type": "Feature", "properties": { "ccd_name": "Making street light functional", "com_location": "@PMCPune Icchatrupti society, 48/1 Vadgaonsheri pune-411014.\r\nLandmark- Near Bramha Kumari Ashram.\r\n\r\n" }, "geometry": { "type": "Point", "coordinates": [ 73.930207, 18.5620899 ] } },
{ "type": "Feature", "properties": { "ccd_name": "Making street light functional", "com_location": "Shree Datta colony,behind new balaji traders, raghoba patil Nagar,old mundhawa raod, sainath nagar, , Pune, Maharashtra" }, "geometry": { "type": "Point", "coordinates": [ 73.9331253, 18.5398644 ] } },
{ "type": "Feature", "properties": { "ccd_name": "Making street light functional", "com_location": "Lohegaon, Pune,Wadgaon Shinde Road." }, "geometry": { "type": "Point", "coordinates": [ 73.9448535, 18.6173555 ] } },
{ "type": "Feature", "properties": { "ccd_name": "Making street light functional", "com_location": "LANE NO.3, IN FRONT OF PRATHMESH APARTMENTS, LOKMANYA COLONY,  PARAMHANS NAGAR, PAUD ROAD, KOTHRUD, , Pune, Maharashtra" }, "geometry": { "type": "Point", "coordinates": [ 73.8061328, 18.5073496 ] } },
{ "type": "Feature", "properties": { "ccd_name": "Making street light functional", "com_location": " Lane No 14 Bhairav Nagar Dhanori Pune- 15" }, "geometry": { "type": "Point", "coordinates": [ 73.8913961, 18.5889615 ] } },
{ "type": "Feature", "properties": { "ccd_name": "Making street light functional", "com_location": "SR.NO #573 PLOT NO -18 PRATIMA SOCIETY BEHIND SAHYADRI HOSPITAL BIBWEWADI PUNE" }, "geometry": { "type": "Point", "coordinates": [ 73.8620751, 18.47818 ] } },
{ "type": "Feature", "properties": { "ccd_name": "Making street light functional", "com_location": "dhan laxami 69 b Hadapsar industrial estate Pune 411013" }, "geometry": { "type": "Point", "coordinates": [ 73.9117785, 18.5145152 ] } },
{ "type": "Feature", "properties": { "ccd_name": "Making street light functional", "com_location": "prabhAga kramAMka 3 sarve naMbara 247 roDa naMbara 3 kAlavaDa vastI , Pune, Maharashtra" }, "geometry": { "type": "Point", "coordinates": [ 73.8505741, 18.6303827 ] } },
{ "type": "Feature", "properties": { "ccd_name": "Making street light functional", "com_location": "Pashan Sus road, lane 2,  behind audi showroom baner. Pune" }, "geometry": { "type": "Point", "coordinates": [ 73.7659071, 18.5491736 ] } },
{ "type": "Feature", "properties": { "ccd_name": "Making street light functional", "com_location": "rolling hill to crystal garden, Pune, Maharashtra" }, "geometry": { "type": "Point", "coordinates": [ 73.7795702, 18.5604643 ] } },
{ "type": "Feature", "properties": { "ccd_name": "A new street light (new demand)", "com_location": " AMbegAva khurda yethIla jAMbhuLavADI leka javaLa leka homasa AmachyAkaDe leka lAIpha pAsUna te darI pUla paryaMta , Pune, Maharashtra" }, "geometry": { "type": "Point", "coordinates": [ 73.8786239, 18.5246091 ] } },
{ "type": "Feature", "properties": { "ccd_name": "Making street light functional", "com_location": "puNe- saMgamavADI te pATIla isTeTa mahAmArgAvara " }, "geometry": { "type": "Point", "coordinates": [ 73.8786239, 18.5246091 ] } },
{ "type": "Feature", "properties": { "ccd_name": "Other (ELECTRICAL)", "com_location": "rAmabAga kA.clanI navI peTha, Pune, Maharashtra" }, "geometry": { "type": "Point", "coordinates": [ 73.840436, 18.506821 ] } },
{ "type": "Feature", "properties": { "ccd_name": "Making street light functional", "com_location": "VASANATRAO DESHMUKH PATH, OFF GHOLE ROAD, Shivaji Nagar Pune-411005." }, "geometry": { "type": "Point", "coordinates": [ 73.8440909, 18.5242242 ] } },
{ "type": "Feature", "properties": { "ccd_name": "Making street light functional", "com_location": "Parkhe Shinde Mala Road Baner , Pune, Maharashtra" }, "geometry": { "type": "Point", "coordinates": [ 73.7934988, 18.5589752 ] } },
{ "type": "Feature", "properties": { "ccd_name": "Making street light functional", "com_location": "pashan sus road lok seva shala gali , Pune, Maharashtra" }, "geometry": { "type": "Point", "coordinates": [ 73.7839255, 18.5463662 ] } },
{ "type": "Feature", "properties": { "ccd_name": "Making street light functional", "com_location": "A8 FLAT NUMBER 13 KUMAR PADMALAYE NAGRAS ROAD AUND BANER LINK ROAD IRIS TOWER  PUNE " }, "geometry": { "type": "Point", "coordinates": [ 73.7912895, 18.5491346 ] } },
{ "type": "Feature", "properties": { "ccd_name": "Repairing and maintenance of Signal", "com_location": "Senapati bapat road, symboisis college signal chowk VIP road , Pune, Maharashtra" }, "geometry": { "type": "Point", "coordinates": [ 73.829124, 18.522066 ] } },
{ "type": "Feature", "properties": { "ccd_name": "A new street light (new demand)", "com_location": ".., Pune, Maharashtra" }, "geometry": { "type": "Point", "coordinates": [ 73.8786239, 18.5246091 ] } },
{ "type": "Feature", "properties": { "ccd_name": "Making street light functional", "com_location": "Abhiruchi Mall & Multiplex Near Madhuli socity Sinhgad Rd, Pune, Maharashtra" }, "geometry": { "type": "Point", "coordinates": [ 73.816814100000016, 18.4633025 ] } },
{ "type": "Feature", "properties": { "ccd_name": "Removing street light pole (pole obstructing road)", "com_location": "     sarve naM. 103, jayaprakAsha nagara,nagara roDa yeravaDA puNe 06. yethe mAUlI chaukAtUna gAMdhInagara kaDe jANArI galI " }, "geometry": { "type": "Point", "coordinates": [ 73.8602935, 18.4646351 ] } },
{ "type": "Feature", "properties": { "ccd_name": "Making street light functional", "com_location": "Lohgaon gurudwara colony B7 C holi primly church, Pune, Maharashtra" }, "geometry": { "type": "Point", "coordinates": [ 73.9275318, 18.5932724 ] } },
{ "type": "Feature", "properties": { "ccd_name": "Making street light functional", "com_location": "garavAre ka leja samora va gallI kramAMka 8, Pune, Maharashtra" }, "geometry": { "type": "Point", "coordinates": [ 73.892406, 18.5385453 ] } },
{ "type": "Feature", "properties": { "ccd_name": "Other (ELECTRICAL)", "com_location": "Vidhate vasti Yeshwanth chavk Baner, Pune, Maharashtra" }, "geometry": { "type": "Point", "coordinates": [ 73.799777, 18.5600555 ] } },
{ "type": "Feature", "properties": { "ccd_name": "Making street light functional", "com_location": "Lene no 21 NIBM Rd Nex To Baker's Point Kondhwa, Pune,\r\n" }, "geometry": { "type": "Point", "coordinates": [ 73.8959778, 18.4771991 ] } },
{ "type": "Feature", "properties": { "ccd_name": "No electricity in public toilet(s)", "com_location": "Sanjay Gandhi Vasahat near canol back side of agnishamak dal jents toilet Aundh, Pune, Maharashtra" }, "geometry": { "type": "Point", "coordinates": [ 73.841186, 18.5192938 ] } },
{ "type": "Feature", "properties": { "ccd_name": "Making street light functional", "com_location": "heaven park lane 10 jarande nagar mohammed wadi road\t, Pune, Maharashtra" }, "geometry": { "type": "Point", "coordinates": [ 73.913884, 18.4826713 ] } },
{ "type": "Feature", "properties": { "ccd_name": "Making street light functional", "com_location": "baner pashan link road, rolling hill society, to badshahi hotel , Pune, Maharashtra" }, "geometry": { "type": "Point", "coordinates": [ 73.848899, 18.5087019 ] } },
{ "type": "Feature", "properties": { "ccd_name": "Making street light functional", "com_location": " plot no 12 swansidha society senadatta peth Pune 30" }, "geometry": { "type": "Point", "coordinates": [ 73.8419302, 18.5070181 ] } },
{ "type": "Feature", "properties": { "ccd_name": "Making street light functional", "com_location": "Parashar society Backside Balaji Hospital Lane No.6 ...Mayur Classic Appartment Chya ethe, Pune, Maharashtra" }, "geometry": { "type": "Point", "coordinates": [ 73.9242251, 18.551993 ] } },
{ "type": "Feature", "properties": { "ccd_name": "Making street light functional", "com_location": "Water Park, Road Malwadi Galli number 6 Lohgaon Rd, Pune, Maharashtra 411047." }, "geometry": { "type": "Point", "coordinates": [ 73.9689274, 18.5857213 ] } },
{ "type": "Feature", "properties": { "ccd_name": "Making street light functional", "com_location": " kavaDe mALA te dobaravADI, Pune, Maharashtra" }, "geometry": { "type": "Point", "coordinates": [ 73.9015962, 18.5150156 ] } },
{ "type": "Feature", "properties": { "ccd_name": "Signal not working", "com_location": "Fergusson College  Rd Dnyaneshwar Paduka Chowk Shivaji Nagar Pune " }, "geometry": { "type": "Point", "coordinates": [ 73.842604, 18.526505 ] } },
{ "type": "Feature", "properties": { "ccd_name": "Making street light functional", "com_location": " Aniket no.1 co op HSG society.\r\nbibavevADI, pune.\r\nNear ESI office.." }, "geometry": { "type": "Point", "coordinates": [ 73.8640944, 18.4690213 ] } },
{ "type": "Feature", "properties": { "ccd_name": "Making street light functional", "com_location": "Balajinagar, Pushpahar society, Behind Sadanand bhel shop, Pune Satara Road" }, "geometry": { "type": "Point", "coordinates": [ 73.8592957, 18.4657804 ] } },
{ "type": "Feature", "properties": { "ccd_name": "Other (ELECTRICAL)", "com_location": "suMdara nagarI ka   pa hau sosAyaTI sutAra davAkhAnA roDa gaNapatI maMdirA shejArIla, Pune, Maharashtra" }, "geometry": { "type": "Point", "coordinates": [ 73.80815, 18.503934 ] } },
{ "type": "Feature", "properties": { "ccd_name": "Making street light functional", "com_location": " Road Volkswagen Showroom,  Abhiman sree chouk Pashan , Pune, Maharashtra" }, "geometry": { "type": "Point", "coordinates": [ 73.8173395, 18.5424637 ] } },
{ "type": "Feature", "properties": { "ccd_name": "Making street light functional", "com_location": "kalyANI nagara Aya .sI. sI ba.Nka samora rikShA sTa.NnDa, Pune, Maharashtra" }, "geometry": { "type": "Point", "coordinates": [ 73.7591121, 18.4610977 ] } },
{ "type": "Feature", "properties": { "ccd_name": "Making street light functional", "com_location": "blosam and spring society opp ocagen  near regent plaza mall baner pashan link road , Pune, Maharashtra" }, "geometry": { "type": "Point", "coordinates": [ 73.7927075, 18.5511238 ] } },
{ "type": "Feature", "properties": { "ccd_name": "A new street light (new demand)", "com_location": "kale park,vedan apt,twin nest ya ariea, Pune, Maharashtra" }, "geometry": { "type": "Point", "coordinates": [ 73.8027561, 18.548346 ] } },
{ "type": "Feature", "properties": { "ccd_name": "Making street light functional", "com_location": "Happy colony lane no 1 sanjwat bungalow kothrud, Pune, Maharashtra" }, "geometry": { "type": "Point", "coordinates": [ 73.8158405, 18.4957904 ] } },
{ "type": "Feature", "properties": { "ccd_name": "Making street light functional", "com_location": "Oriental Bank Of Commerce backside opp KFC baner pune ." }, "geometry": { "type": "Point", "coordinates": [ 73.7971723, 18.6022627 ] } },
{ "type": "Feature", "properties": { "ccd_name": "Making street light functional", "com_location": "Gunjan Theater to Shastrinagar, Pune, Maharashtra" }, "geometry": { "type": "Point", "coordinates": [ 73.8962994, 18.5548965 ] } },
{ "type": "Feature", "properties": { "ccd_name": "Making street light functional", "com_location": "Near Plot no. 32 Aashirwad complex. \r\n, Pune, Maharashtra" }, "geometry": { "type": "Point", "coordinates": [ 73.9313463, 18.5001692 ] } },
{ "type": "Feature", "properties": { "ccd_name": "Making street light functional", "com_location": "3 Sri Sai Chaitanya Pan Card Club Rd,Murkute Garden chouk Chandere Complex Road  Baner Gaon, Baner, Pune," }, "geometry": { "type": "Point", "coordinates": [ 73.7727254, 18.5577493 ] } },
{ "type": "Feature", "properties": { "ccd_name": "Making street light functional", "com_location": "ram Indu park, lane 4, Baner, Pune, Maharashtra" }, "geometry": { "type": "Point", "coordinates": [ 73.779945, 18.564411 ] } },
{ "type": "Feature", "properties": { "ccd_name": "Making street light functional", "com_location": "ESTONIA APARTMENT BALEWADI  SAI CHOWK BALEWADI, Pune, Maharashtra" }, "geometry": { "type": "Point", "coordinates": [ 73.8321195, 18.5045205 ] } },
{ "type": "Feature", "properties": { "ccd_name": "Making street light functional", "com_location": "SN 2/1/,2/2, Paradise Towers Society , opp Axis Bank, Behind GS lab , Baner Road , Pune, Maharashtra" }, "geometry": { "type": "Point", "coordinates": [ 73.7935906, 18.5549429 ] } },
{ "type": "Feature", "properties": { "ccd_name": "Signal not working", "com_location": "Lat-long: 18.448164\t73.858552\r\n, Pune, Maharashtra" }, "geometry": { "type": "Point", "coordinates": [ 73.8786239, 18.5246091 ] } },
{ "type": "Feature", "properties": { "ccd_name": "Repairing street light pole (damaged / fallen)", "com_location": "rAhaNAra padmAvatI araNyeshvara shALesamora pavAra jevalversa shejArI , Pune, Maharashtra" }, "geometry": { "type": "Point", "coordinates": [ 73.8533594, 18.4799976 ] } },
{ "type": "Feature", "properties": { "ccd_name": "Making street light functional", "com_location": "chowl no-131-/2 b shivdarshan parvati, Pune, Maharashtra" }, "geometry": { "type": "Point", "coordinates": [ 73.8540957, 18.4910448 ] } },
{ "type": "Feature", "properties": { "ccd_name": "Making street light functional", "com_location": "Sanjay gandhi vasahat Laman Tanda near Datta Mandir Pashan, Pune, Maharashtra" }, "geometry": { "type": "Point", "coordinates": [ 73.7853027, 18.5437546 ] } },
{ "type": "Feature", "properties": { "ccd_name": "Making street light functional", "com_location": "Lohegaon Wadgaon Shinde Road near Chhatrapati Shivaji Maharaj Museum  411047., Pune, Maharashtra" }, "geometry": { "type": "Point", "coordinates": [ 73.9446157, 18.6165538 ] } },
{ "type": "Feature", "properties": { "ccd_name": "Making street light functional", "com_location": "behind balaji hospital sr no 43/3A parasher hsg society chadannager pune 411014" }, "geometry": { "type": "Point", "coordinates": [ 73.9406922, 18.5626376 ] } },
{ "type": "Feature", "properties": { "ccd_name": "Making street light functional", "com_location": "C-19,Ashwini Society,Corporation Colony,Shivajinagar,Pune,Maharashtra 411005,India" }, "geometry": { "type": "Point", "coordinates": [ 73.8525091, 18.5366202 ] } },
{ "type": "Feature", "properties": { "ccd_name": "Other (ELECTRICAL)", "com_location": "Near Buddha Vihar  Kalwad Wasti,Lohegaon Pune " }, "geometry": { "type": "Point", "coordinates": [ 73.9284503, 18.5949734 ] } },
{ "type": "Feature", "properties": { "ccd_name": "Making street light functional", "com_location": "lok seva tarun mandal tadiwala rd pune 411001." }, "geometry": { "type": "Point", "coordinates": [ 73.8761171, 18.5383724 ] } },
{ "type": "Feature", "properties": { "ccd_name": "Making street light functional", "com_location": "Parkhe Mala lane, Near Kulashree apartments, Pune, Maharashtra" }, "geometry": { "type": "Point", "coordinates": [ 73.7935148, 18.5588945 ] } },
{ "type": "Feature", "properties": { "ccd_name": "Making street light functional", "com_location": "Prathamesh elite, Chandani Chowk., Pune, Maharashtra" }, "geometry": { "type": "Point", "coordinates": [ 73.7874227, 18.5081617 ] } },
{ "type": "Feature", "properties": { "ccd_name": "Making street light functional", "com_location": "Borate nagar , pabushri managal karyalay lane no 2 Chandan Nagar, Pune, Maharashtra" }, "geometry": { "type": "Point", "coordinates": [ 73.9315198, 18.5529633 ] } },
{ "type": "Feature", "properties": { "ccd_name": "Other (ELECTRICAL)", "com_location": "behind somnath mandir somnaath nagar wadgaonshiri pune 411014\r\n" }, "geometry": { "type": "Point", "coordinates": [ 73.921355100000014, 18.5585663 ] } },
{ "type": "Feature", "properties": { "ccd_name": "Making street light functional", "com_location": " from badshahi corner till rolling hills society, crystal garden, blossom and spring society, Pune, Maharashtra" }, "geometry": { "type": "Point", "coordinates": [ 73.7927075, 18.5511238 ] } },
{ "type": "Feature", "properties": { "ccd_name": "Other (ELECTRICAL)", "com_location": "mamledar kacheri nr subhash ngr shukrwar peth , Pune, Maharashtra" }, "geometry": { "type": "Point", "coordinates": [ 73.859035, 18.5043967 ] } },
{ "type": "Feature", "properties": { "ccd_name": "Making street light functional", "com_location": "Lemon Blossom, \r\nNear Bharti School, behind Sai silicon valley, Balewadi, Pune." }, "geometry": { "type": "Point", "coordinates": [ 73.7742234, 18.5749649 ] } },
{ "type": "Feature", "properties": { "ccd_name": "Removing street light pole (pole obstructing road)", "com_location": "House no 213 in front of Mansi laundry vadar wasti , Karve nagar Pune 52" }, "geometry": { "type": "Point", "coordinates": [ 73.8114324, 18.4908836 ] } },
{ "type": "Feature", "properties": { "ccd_name": "Making street light functional", "com_location": "Aundh road railway police headquarter, Pune, Maharashtra" }, "geometry": { "type": "Point", "coordinates": [ 73.8266073, 18.5627653 ] } },
{ "type": "Feature", "properties": { "ccd_name": "Making street light functional", "com_location": "Street no 3 House no 6 Ganpati housing society Tukaram Nagar Kharadi Pune 411014" }, "geometry": { "type": "Point", "coordinates": [ 73.9270841, 18.5504732 ] } },
{ "type": "Feature", "properties": { "ccd_name": "Making street light functional", "com_location": "Surshti vihar colony chandani chowk bavdhan khurd Pune" }, "geometry": { "type": "Point", "coordinates": [ 73.7794093, 18.506527 ] } },
{ "type": "Feature", "properties": { "ccd_name": "Making street light functional", "com_location": "Rajnigandha plaza soc shirole road near fergussion college main gate 411004, Pune, Maharashtra" }, "geometry": { "type": "Point", "coordinates": [ 73.8419126, 18.5229377 ] } },
{ "type": "Feature", "properties": { "ccd_name": "Making street light functional", "com_location": "37 37, Old Mumbai - Pune Hwy Vasudha Equinox, \r\n Tukaram Hamal chal Bopodi pune " }, "geometry": { "type": "Point", "coordinates": [ 73.838802, 18.567035 ] } },
{ "type": "Feature", "properties": { "ccd_name": "Making street light functional", "com_location": "blossum and spring society sumor occussion opposite site riger plaza baner pashan link road, Pune, Maharashtra" }, "geometry": { "type": "Point", "coordinates": [ 73.7927075, 18.5511238 ] } },
{ "type": "Feature", "properties": { "ccd_name": "Making street light functional", "com_location": "Balaji society sant Eknath nagar bhag 2 beside plot no 32 Bibwevadi Pune 37" }, "geometry": { "type": "Point", "coordinates": [ 73.8643614, 18.4741768 ] } },
{ "type": "Feature", "properties": { "ccd_name": "Making street light functional", "com_location": "The 10th pole in Lane No 14, Survey no 258, Khese Park, Lohagaon, Pune 411032" }, "geometry": { "type": "Point", "coordinates": [ 73.9101178, 18.5936901 ] } },
{ "type": "Feature", "properties": { "ccd_name": "Making street light functional", "com_location": "dsk vishwa road chavan nagar morning dew society , Pune, Maharashtra" }, "geometry": { "type": "Point", "coordinates": [ 73.804356, 18.4470468 ] } },
{ "type": "Feature", "properties": { "ccd_name": "Repairing street light pole (damaged / fallen)", "com_location": "Sr no 6/2/19 Omega building Shop no 1/2 Kharadi pune" }, "geometry": { "type": "Point", "coordinates": [ 73.949, 18.5529 ] } },
{ "type": "Feature", "properties": { "ccd_name": "Making street light functional", "com_location": "Plot no 21, Lane no 13, Tingre Nagar, Near Mighty Kids Preschool Tingre Nagar , Pune, Maharashtra" }, "geometry": { "type": "Point", "coordinates": [ 73.8952753, 18.5812451 ] } },
{ "type": "Feature", "properties": { "ccd_name": "Making street light functional", "com_location": "sr no 668 bhagyashree ngr society poonam garden  bibwewadi pune " }, "geometry": { "type": "Point", "coordinates": [ 73.863861, 18.4635406 ] } },
{ "type": "Feature", "properties": { "ccd_name": "Making street light functional", "com_location": "Castle Cooperative Housing Society Near Robertshaw Controls Op kulakarni Motars Viman nagar , Pune, Maharashtra" }, "geometry": { "type": "Point", "coordinates": [ 73.9214924, 18.5667008 ] } },
{ "type": "Feature", "properties": { "ccd_name": "Repairing street light pole (damaged / fallen)", "com_location": "Savitri apartment abhinav vidyalay path 47/19 Erandwane Pune 4" }, "geometry": { "type": "Point", "coordinates": [ 73.8293903, 18.5098704 ] } },
{ "type": "Feature", "properties": { "ccd_name": "Making street light functional", "com_location": "vAraje mALavADI gaNapatI mAthA, gaNeshapurI sosAyaTI yethIla sanA bekarI shejArachA , Pune, Maharashtra" }, "geometry": { "type": "Point", "coordinates": [ 73.9389213, 18.5053012 ] } },
{ "type": "Feature", "properties": { "ccd_name": "Making street light functional", "com_location": "Vishal Vision , Vrundavan Nagar, Lane No 2, behind Vidyankur School, Vadgaonsheri., Pune, Maharashtra" }, "geometry": { "type": "Point", "coordinates": [ 73.9043995, 18.5488441 ] } },
{ "type": "Feature", "properties": { "ccd_name": "Making street light functional", "com_location": "788 Budhwar Peth near Namdev Simpi karyalay, Pune, Maharashtra" }, "geometry": { "type": "Point", "coordinates": [ 73.8575835, 18.5149625 ] } },
{ "type": "Feature", "properties": { "ccd_name": "Making street light functional", "com_location": " AT. Line No. A8 Gurudwara Colony Lohagaon pune 47" }, "geometry": { "type": "Point", "coordinates": [ 73.9275318, 18.5932724 ] } },
{ "type": "Feature", "properties": { "ccd_name": "Making street light functional", "com_location": "Gidney Park, Salisbury Park, Pune, Maharashtra" }, "geometry": { "type": "Point", "coordinates": [ 73.8763393, 18.4938856 ] } },
{ "type": "Feature", "properties": { "ccd_name": "Making street light functional", "com_location": "siddhivinAyaka sosAyaTI ke mAUlI baMgale se saptagirI sosAyaTI aura Age vAgajAI nagara taka roDa lAiTa nahIM hai|, Pune, Maharashtra" }, "geometry": { "type": "Point", "coordinates": [ 73.8786239, 18.5246091 ] } },
{ "type": "Feature", "properties": { "ccd_name": "Making street light functional", "com_location": "sr no-37, ketkeshwar colony no-2, audumber ngr kale padal pune hadapsar -gali no-14 " }, "geometry": { "type": "Point", "coordinates": [ 73.9415499, 18.4848528 ] } },
{ "type": "Feature", "properties": { "ccd_name": "Making street light functional", "com_location": "kharadi Jakat naka te byepass mahamargavril, Pune, Maharashtra" }, "geometry": { "type": "Point", "coordinates": [ 73.9509595, 18.5694327 ] } },
{ "type": "Feature", "properties": { "ccd_name": "Making street light functional", "com_location": "Galli no 21, NIBM road, next bakers point Kondhava pune\r\n" }, "geometry": { "type": "Point", "coordinates": [ 73.8948043, 18.4771738 ] } },
{ "type": "Feature", "properties": { "ccd_name": "Other (ELECTRICAL)", "com_location": "bidi kamgar balaji hights , maharana pratap police choki\r\nchandan ngr kharadi , Pune, Maharashtra" }, "geometry": { "type": "Point", "coordinates": [ 73.9303075, 18.5575693 ] } },
{ "type": "Feature", "properties": { "ccd_name": "Making street light functional", "com_location": "Sinhgad road anand nagar maniband park pune 51   " }, "geometry": { "type": "Point", "coordinates": [ 73.8198896, 18.4804978 ] } },
{ "type": "Feature", "properties": { "ccd_name": "Making street light functional", "com_location": "C25 vidi kamgar vasahat Yerwada pune 411006" }, "geometry": { "type": "Point", "coordinates": [ 73.8844127, 18.5526236 ] } },
{ "type": "Feature", "properties": { "ccd_name": "Making street light functional", "com_location": "at Ashok Nagar, Near Pune University \r\n\r\n" }, "geometry": { "type": "Point", "coordinates": [ 73.8265425, 18.5529684 ] } },
{ "type": "Feature", "properties": { "ccd_name": "Making street light functional", "com_location": "C26 bidi kamgar vasahat ganesh nagar Yerwada pune 6" }, "geometry": { "type": "Point", "coordinates": [ 73.9303075, 18.5575693 ] } },
{ "type": "Feature", "properties": { "ccd_name": "Making street light functional", "com_location": "opposite blossom and spring society and echelon gate 2 not working ..opposite occasion ..near regent plaza, Pune, Maharashtra" }, "geometry": { "type": "Point", "coordinates": [ 73.9458403, 18.5409427 ] } },
{ "type": "Feature", "properties": { "ccd_name": "Other (ELECTRICAL)", "com_location": "1097/1 model colony,ashish apartment, Pune16" }, "geometry": { "type": "Point", "coordinates": [ 73.8370924, 18.5296221 ] } },
{ "type": "Feature", "properties": { "ccd_name": "Making street light functional", "com_location": "Thube Park Internal Road, Shivajinagar, Pune 5 " }, "geometry": { "type": "Point", "coordinates": [ 73.8520157, 18.5304384 ] } },
{ "type": "Feature", "properties": { "ccd_name": "Signal not working", "com_location": " pauDa rastyAvara, pauDa phATyA kaDUna chAMdaNI chaukAkaDe jAtAnA, AnaMda nagara chyA AdhIchyA chaukAtalA (gItAI mall)\r\n, Pune, Maharashtra" }, "geometry": { "type": "Point", "coordinates": [ 73.8786239, 18.5246091 ] } },
{ "type": "Feature", "properties": { "ccd_name": "Making street light functional", "com_location": "Area- karan heights ,mahadev nagar. Near sai baba mandir vadgaon sheri pune 411014" }, "geometry": { "type": "Point", "coordinates": [ 73.9268574, 18.5475639 ] } },
{ "type": "Feature", "properties": { "ccd_name": "Making street light functional", "com_location": "yeravaDA kShe~niya kAya leya prabhAga. 2 jelaroDa , Pune, Maharashtra" }, "geometry": { "type": "Point", "coordinates": [ 73.879711, 18.5529226 ] } },
{ "type": "Feature", "properties": { "ccd_name": "Making street light functional", "com_location": "Blossom N Springs Society smor ocajan opp saidla regent plaza echelon society second gante no 2 baner pashan link road., Pune, Maharashtra" }, "geometry": { "type": "Point", "coordinates": [ 73.7930752, 18.5523154 ] } },
{ "type": "Feature", "properties": { "ccd_name": "A new street light (new demand)", "com_location": "335, Narayan Peth, Near Modi Ganpati Temple, Pune - 30" }, "geometry": { "type": "Point", "coordinates": [ 73.847845, 18.5149 ] } },
{ "type": "Feature", "properties": { "ccd_name": "Making street light functional", "com_location": "sara, gokULanagara, svAmI samartha nagara, kAtraja bhAgAta, Pune, Maharashtra" }, "geometry": { "type": "Point", "coordinates": [ 73.865238, 18.4529322 ] } },
{ "type": "Feature", "properties": { "ccd_name": "Making street light functional", "com_location": "lena naMbara 7 sAI shilpa baMgalA sAI nagarI chaMdana nagara sAIbAbA maMdirAchyA mAgIla bAjUsa, Pune, Maharashtra" }, "geometry": { "type": "Point", "coordinates": [ 73.9294792, 18.5615531 ] } },
{ "type": "Feature", "properties": { "ccd_name": "Making street light functional", "com_location": "Galli ni 27 A near swanand school, Pune, Maharashtra" }, "geometry": { "type": "Point", "coordinates": [ 73.8196792, 18.4962265 ] } },
{ "type": "Feature", "properties": { "ccd_name": "Making street light functional", "com_location": "  Road no. 14 in Kalyani Nagar, Pune  " }, "geometry": { "type": "Point", "coordinates": [ 73.9012707, 18.5500858 ] } },
{ "type": "Feature", "properties": { "ccd_name": "Making street light functional", "com_location": "Arayvarth socity 562/2 Congress Bhavan back side PMC 14 no school shivaji nagar pune" }, "geometry": { "type": "Point", "coordinates": [ 73.8513628, 18.5226846 ] } },
{ "type": "Feature", "properties": { "ccd_name": "Making street light functional", "com_location": "balewadi old PMC School near shivraj mitra mandal, Pune, Maharashtra" }, "geometry": { "type": "Point", "coordinates": [ 73.7863667, 18.5594346 ] } },
{ "type": "Feature", "properties": { "ccd_name": "Making street light functional", "com_location": "baner pashan link road blossum and spring socity to rolling hiss society pune " }, "geometry": { "type": "Point", "coordinates": [ 73.7927075, 18.5511238 ] } },
{ "type": "Feature", "properties": { "ccd_name": "Making street light functional", "com_location": "Blosdom and spring society Opp occasion society Near reason plazas baner pashan link road., Pune, Maharashtra" }, "geometry": { "type": "Point", "coordinates": [ 73.7927075, 18.5511238 ] } },
{ "type": "Feature", "properties": { "ccd_name": "A new street light (new demand)", "com_location": "B U BHANDARI GREENS CHS BUNGLOW B-26 DHANORI PUNE 411015" }, "geometry": { "type": "Point", "coordinates": [ 73.903528400000013, 18.5999625 ] } },
{ "type": "Feature", "properties": { "ccd_name": "Making street light functional", "com_location": "Bhandarkar road Lane No.11, Pune, Maharashtra" }, "geometry": { "type": "Point", "coordinates": [ 73.8349066, 18.5181252 ] } },
{ "type": "Feature", "properties": { "ccd_name": "Making street light functional", "com_location": "Nityanand Hall Lane no 3 Aishwarya Complex Hingne Khurd pune " }, "geometry": { "type": "Point", "coordinates": [ 73.8280083, 18.4805986 ] } },
{ "type": "Feature", "properties": { "ccd_name": "Making street light functional", "com_location": "Salisbury park lane no 3 gultekdi near radha swami satsang gali pune." }, "geometry": { "type": "Point", "coordinates": [ 73.8742201, 18.4947319 ] } },
{ "type": "Feature", "properties": { "ccd_name": "Making street light functional", "com_location": " in Bhagya Chintamani Nagar, Paud Rd , Kothrud , Pune, Maharashtra" }, "geometry": { "type": "Point", "coordinates": [ 73.8035635, 18.507107 ] } },
{ "type": "Feature", "properties": { "ccd_name": "Making street light functional", "com_location": "Sr no 10 Kamraj Nagar Hazrat Yusuf Shah Dargah Masjid Yerwada Village, Yerawada, Pune, " }, "geometry": { "type": "Point", "coordinates": [ 73.8851957, 18.5493818 ] } },
{ "type": "Feature", "properties": { "ccd_name": "Making street light functional", "com_location": "b-1/16, chavan ngr, dhankawadi , Pune, Maharashtra" }, "geometry": { "type": "Point", "coordinates": [ 73.85471, 18.472682 ] } },
{ "type": "Feature", "properties": { "ccd_name": "Other (ELECTRICAL)", "com_location": "sr.no 26a/1 Pandhare mala. Sasane nagar road hadapsar pune 411028" }, "geometry": { "type": "Point", "coordinates": [ 73.9346235, 18.4960991 ] } },
{ "type": "Feature", "properties": { "ccd_name": "Making street light functional", "com_location": " in swaranagari society and main road of Swaranagari society. sinhagad road Anand Nagar Pune 411051" }, "geometry": { "type": "Point", "coordinates": [ 73.8256828, 18.4765783 ] } },
{ "type": "Feature", "properties": { "ccd_name": "Making street light functional", "com_location": "Sawrup niwas survey numbr 5 A keshav nagar mundhwa  near sambhaji chowk  pune 36" }, "geometry": { "type": "Point", "coordinates": [ 73.93719, 18.53287 ] } },
{ "type": "Feature", "properties": { "ccd_name": "Making street light functional", "com_location": "21/1 premnagar society bebewadi pune 37" }, "geometry": { "type": "Point", "coordinates": [ 73.8611832, 18.4857862 ] } },
{ "type": "Feature", "properties": { "ccd_name": "Making street light functional", "com_location": "surve no 163 bukan wasti lohegaon near peru baugh lohegaon 47 , Pune, Maharashtra" }, "geometry": { "type": "Point", "coordinates": [ 73.9309093, 18.6039272 ] } },
{ "type": "Feature", "properties": { "ccd_name": "Removing street light pole (pole obstructing road)", "com_location": " vijaya TiMgare gArDana shejArIla roDa , Pune, Maharashtra" }, "geometry": { "type": "Point", "coordinates": [ 73.8786239, 18.5246091 ] } },
{ "type": "Feature", "properties": { "ccd_name": "Making street light functional", "com_location": "sumedhA sosAyaTI bAvadhana puNe" }, "geometry": { "type": "Point", "coordinates": [ 73.9531189, 18.5646495 ] } },
{ "type": "Feature", "properties": { "ccd_name": "Making street light functional", "com_location": "saMtakabI chauka te kvA.crTara geTa yethIla sTrI, Pune, Maharashtra" }, "geometry": { "type": "Point", "coordinates": [ 73.8749551, 18.5531281 ] } },
{ "type": "Feature", "properties": { "ccd_name": "Making street light functional", "com_location": "BANER PASHAN LINK RD FROM HOTEL BADSHAHI TO HOTEL RANMALA , Pune, Maharashtra" }, "geometry": { "type": "Point", "coordinates": [ 73.7979555, 18.5513163 ] } },
{ "type": "Feature", "properties": { "ccd_name": "Making street light functional", "com_location": " yeravaDA kaLasa dhAnorI kShetrIya kAryAlaya yeravaDA puNe 6" }, "geometry": { "type": "Point", "coordinates": [ 73.8875732, 18.5453524 ] } },
{ "type": "Feature", "properties": { "ccd_name": "Making street light functional", "com_location": "hiMgaNe khurda, siMhagaDa rastA yethIla sAvitrI nagara madhIla , Pune, Maharashtra" }, "geometry": { "type": "Point", "coordinates": [ 73.8284058, 18.4788231 ] } },
{ "type": "Feature", "properties": { "ccd_name": "Making street light functional", "com_location": "\"JAI\" 1113/A SATHE COLONY SHUKRAWAR PETH PUNE -411002" }, "geometry": { "type": "Point", "coordinates": [ 73.855506, 18.5077747 ] } },
{ "type": "Feature", "properties": { "ccd_name": "Making street light functional", "com_location": "Vibhag B, Kasturba Housing Society, Vishrantwadi, Pune, Maharashtra" }, "geometry": { "type": "Point", "coordinates": [ 73.8808651, 18.5729975 ] } },
{ "type": "Feature", "properties": { "ccd_name": "Making street light functional", "com_location": "sr no 40 , kale padal, hadpsar near ganesh templ , Pune, Maharashtra" }, "geometry": { "type": "Point", "coordinates": [ 73.937245, 18.4890307 ] } },
{ "type": "Feature", "properties": { "ccd_name": "Making street light functional", "com_location": "b 43/5 Appar Rd, Upper Indira Nagar, Bibwewadi, Pune, Maharashtra 411046,  near Dolphin Chowk," }, "geometry": { "type": "Point", "coordinates": [ 73.8691567, 18.4603415 ] } },
{ "type": "Feature", "properties": { "ccd_name": "Making street light functional", "com_location": "KTA Apartments Op Kirloskar engene bopodi pune 411003  " }, "geometry": { "type": "Point", "coordinates": [ 73.8392444, 18.5701748 ] } },
{ "type": "Feature", "properties": { "ccd_name": "Making street light functional", "com_location": "Sr. No. 67. Lane no. 14 B, Bhairavnagar, Dhanori road Pune 411015" }, "geometry": { "type": "Point", "coordinates": [ 73.8878248, 18.5799632 ] } },
{ "type": "Feature", "properties": { "ccd_name": "Making street light functional", "com_location": "Kumbre Park, near Ekalavya College, Kothrud, Pune, Maharashtra 411038" }, "geometry": { "type": "Point", "coordinates": [ 73.798011, 18.503067 ] } },
{ "type": "Feature", "properties": { "ccd_name": "Making street light functional", "com_location": "283 Ravivar Peth near subhanshah police chauki, Pune, Maharashtra" }, "geometry": { "type": "Point", "coordinates": [ 73.8661416, 18.5062035 ] } },
{ "type": "Feature", "properties": { "ccd_name": "Making street light functional", "com_location": "BANER PASHAN LINK RD FROM CRISTAL GARDEN SOCIETY TO BADSHAHI HOTEL , Pune, Maharashtra" }, "geometry": { "type": "Point", "coordinates": [ 73.848899, 18.5087019 ] } },
{ "type": "Feature", "properties": { "ccd_name": "Making street light functional", "com_location": "C 26 vidi kamgar wasahat ganesh nagar yerawda, Pune, Maharashtra" }, "geometry": { "type": "Point", "coordinates": [ 73.8844127, 18.5526236 ] } },
{ "type": "Feature", "properties": { "ccd_name": "Making street light functional", "com_location": "karAta lavakara dakhala gheNyAta yAve,                   saMtoSha more  iMdirA gAMdhI vasAhata gaNeshakhiMDa roDa auMdha puNe" }, "geometry": { "type": "Point", "coordinates": [ 73.8151088, 18.5600355 ] } },
{ "type": "Feature", "properties": { "ccd_name": "Making street light functional", "com_location": "survey number 43 maa residency lane number 4 and 5 padare tobe nagar kharadi pune" }, "geometry": { "type": "Point", "coordinates": [ 73.9378969, 18.5624529 ] } },
{ "type": "Feature", "properties": { "ccd_name": "Making street light functional", "com_location": "subhASha nagara, navI khaDakI, pragatI buddha vihAra, netAjI subhAShachaMdra bosa shALe javaLa, yeravaDA, puNe-411006." }, "geometry": { "type": "Point", "coordinates": [ 73.888512300000016, 18.5522895 ] } },
{ "type": "Feature", "properties": { "ccd_name": "Making street light functional", "com_location": "Lane number 14\r\nGokulnagar, Pune, Maharashtra" }, "geometry": { "type": "Point", "coordinates": [ 73.889784, 18.5889491 ] } },
{ "type": "Feature", "properties": { "ccd_name": "Making street light functional", "com_location": "on Baner pashan Link Road, Pune, Maharashtra" }, "geometry": { "type": "Point", "coordinates": [ 73.7912895, 18.5491346 ] } },
{ "type": "Feature", "properties": { "ccd_name": "Making street light functional", "com_location": "bimale heights unnatinagar gadital hadapsar, Pune, Maharashtra" }, "geometry": { "type": "Point", "coordinates": [ 73.9429625, 18.5009698 ] } },
{ "type": "Feature", "properties": { "ccd_name": "Making street light functional", "com_location": " on pan card Club road junction which connect pride platinum and welworth paradise, Pune, Maharashtra" }, "geometry": { "type": "Point", "coordinates": [ 73.7813397, 18.5562775 ] } },
{ "type": "Feature", "properties": { "ccd_name": "Making street light functional", "com_location": "Sr. No. 46/2/1, behind Audi showroom , sus road, Baner., Pune, Maharashtra" }, "geometry": { "type": "Point", "coordinates": [ 73.773364, 18.5478 ] } },
{ "type": "Feature", "properties": { "ccd_name": "Making street light functional", "com_location": "Vidya nagar Masha Allah building vadgaonsheri, Pune, Maharashtra" }, "geometry": { "type": "Point", "coordinates": [ 73.9221125, 18.5536314 ] } },
{ "type": "Feature", "properties": { "ccd_name": "Making street light functional", "com_location": "in front of Abhimanshree society off Pashan road Pune 8." }, "geometry": { "type": "Point", "coordinates": [ 73.7641583, 18.5499345 ] } },
{ "type": "Feature", "properties": { "ccd_name": "Making street light functional", "com_location": "sagar park lane number 2 near sarwodaye hotel wadgaonshiri pune 14" }, "geometry": { "type": "Point", "coordinates": [ 73.9279838, 18.5610478 ] } },
{ "type": "Feature", "properties": { "ccd_name": "Making street light functional", "com_location": "Sus road pashan near pdmlalay society near janta bank, Pune, Maharashtra" }, "geometry": { "type": "Point", "coordinates": [ 73.7844578, 18.5436541 ] } },
{ "type": "Feature", "properties": { "ccd_name": "Making street light functional", "com_location": "prabhAga kramAMka 4 kharADI chaMdananagara, Pune, Maharashtra" }, "geometry": { "type": "Point", "coordinates": [ 73.9477271, 18.5551288 ] } },
{ "type": "Feature", "properties": { "ccd_name": "Making street light functional", "com_location": "sambhaji bridge deccan, Pune, Maharashtra" }, "geometry": { "type": "Point", "coordinates": [ 73.8427342, 18.5140564 ] } },
{ "type": "Feature", "properties": { "ccd_name": "Making street light functional", "com_location": " Krishna Nagar area, Someshwar wadi, Pashan., Pune, Maharashtra" }, "geometry": { "type": "Point", "coordinates": [ 73.8022046, 18.5466777 ] } },
{ "type": "Feature", "properties": { "ccd_name": "Making street light functional", "com_location": "auMdha bopoDI va rDa ,prabhAga kraM 8 \r\n34, muMbaI puNe roDa gopIchALa ,bopoDI puNe - 3, " }, "geometry": { "type": "Point", "coordinates": [ 73.838778, 18.5669791 ] } },
{ "type": "Feature", "properties": { "ccd_name": "Making street light functional", "com_location": " in Lane No 11 Bhandarkar Institute Road , Pune, Maharashtra" }, "geometry": { "type": "Point", "coordinates": [ 73.8349066, 18.5181252 ] } },
{ "type": "Feature", "properties": { "ccd_name": "Making street light functional", "com_location": "baner road near university circle while going to baner near bus stop, Pune, Maharashtra" }, "geometry": { "type": "Point", "coordinates": [ 73.7889682, 18.5598589 ] } },
{ "type": "Feature", "properties": { "ccd_name": "Making street light functional", "com_location": " Shiv Shakti chowk to kapila aasmant society to blue bells aura society Sutarwadi, off pashan Sus Road Pashan Sutarwadi 411021, Pune, Maharashtra" }, "geometry": { "type": "Point", "coordinates": [ 73.780487600000015, 18.5423385 ] } },
{ "type": "Feature", "properties": { "ccd_name": "Making street light functional", "com_location": " on baner pashan Link Road from hotel badashahi to Rolling hill society from 2months, Pune, Maharashtra" }, "geometry": { "type": "Point", "coordinates": [ 73.7912895, 18.5491346 ] } },
{ "type": "Feature", "properties": { "ccd_name": "A new street light (new demand)", "com_location": "saptagirI sosAyatI jamabulavAdI roDa ambegaon khrud yete vAga jAI nagara, Pune, Maharashtra" }, "geometry": { "type": "Point", "coordinates": [ 73.812483, 18.509367 ] } },
{ "type": "Feature", "properties": { "ccd_name": "Making street light functional", "com_location": "37 aundha road bhau patil padal vasti khadki pune 20" }, "geometry": { "type": "Point", "coordinates": [ 73.8306775, 18.5626146 ] } },
{ "type": "Feature", "properties": { "ccd_name": "Other (ELECTRICAL)", "com_location": "Yewalewadi area near The leaf society, Pune, Maharashtra" }, "geometry": { "type": "Point", "coordinates": [ 73.885705, 18.4314778 ] } },
{ "type": "Feature", "properties": { "ccd_name": "Other (ELECTRICAL)", "com_location": "Location : 721/2B, Vikas Nagar, LBS road , Navi peth , Pune -411030." }, "geometry": { "type": "Point", "coordinates": [ 73.844453, 18.506003 ] } },
{ "type": "Feature", "properties": { "ccd_name": "Making street light functional", "com_location": "JAI BUNGLOW 1113/A SATHE COLONY SHUKRUWAR PETH PUNE 411002 BEHIND TILAK RD KOTHARI HILLS " }, "geometry": { "type": "Point", "coordinates": [ 73.851707, 18.5067947 ] } },
{ "type": "Feature", "properties": { "ccd_name": "Making street light functional", "com_location": "Kshithi building \r\nOpp.Tender step school,\r\nNear platinum super store , pan card club road,Baner,Pune.\r\n" }, "geometry": { "type": "Point", "coordinates": [ 73.7779456, 18.5547285 ] } },
{ "type": "Feature", "properties": { "ccd_name": "Making street light functional", "com_location": "ake view city lohgaon pune lane no.5 near Saitek building" }, "geometry": { "type": "Point", "coordinates": [ 73.9369686, 18.6064464 ] } },
{ "type": "Feature", "properties": { "ccd_name": "Repairing street light pole (damaged / fallen)", "com_location": "Shanti nagar porwal park plot no 5 in front of prathmesh ho society near tank Yerwada pune 6" }, "geometry": { "type": "Point", "coordinates": [ 73.879711, 18.5529226 ] } },
{ "type": "Feature", "properties": { "ccd_name": "Other (ELECTRICAL)", "com_location": "Lohegaon starting from end of porwal road till Krishna Hardware, Pune, Maharashtra" }, "geometry": { "type": "Point", "coordinates": [ 73.9100642, 18.6059895 ] } },
{ "type": "Feature", "properties": { "ccd_name": "Making street light functional", "com_location": "outside solitaire housing  society, near r c Hotel, kausar bagh, khowdwa  khurd, pune 48" }, "geometry": { "type": "Point", "coordinates": [ 73.8925654, 18.4747682 ] } },
{ "type": "Feature", "properties": { "ccd_name": "Making street light functional", "com_location": "near Deep bangla chowk, towards senapati  B pat road., Pune, Maharashtra" }, "geometry": { "type": "Point", "coordinates": [ 73.835237, 18.5298735 ] } },
{ "type": "Feature", "properties": { "ccd_name": "Repairing street light pole (damaged / fallen)", "com_location": "Lohiya nagar 54F/P babumamde chowk pune 24" }, "geometry": { "type": "Point", "coordinates": [ 73.866489, 18.50717 ] } },
{ "type": "Feature", "properties": { "ccd_name": "Making street light functional", "com_location": "Sr no 112 shiv nagar sutarwadi galli no2, Pune, Maharashtra" }, "geometry": { "type": "Point", "coordinates": [ 73.7841849, 18.5375163 ] } },
{ "type": "Feature", "properties": { "ccd_name": "Making street light functional", "com_location": "Kalas malawadi Near Nagoba Mandir, Pune, Maharashtra" }, "geometry": { "type": "Point", "coordinates": [ 73.865079, 18.5679466 ] } },
{ "type": "Feature", "properties": { "ccd_name": "Making street light functional", "com_location": "prabhAga kramAMka 6, yeravaDA yethIla  #navIkhaDakI,#subhAShanagara,#bArAthevastI,, Pune, Maharashtra" }, "geometry": { "type": "Point", "coordinates": [ 73.8918659, 18.556235 ] } },
{ "type": "Feature", "properties": { "ccd_name": "Making street light functional", "com_location": "Add -- behind balaji hospital sr no 43/3A parasher hsg society chadannager pune 411014" }, "geometry": { "type": "Point", "coordinates": [ 73.9406922, 18.5626376 ] } },
{ "type": "Feature", "properties": { "ccd_name": "Making street light functional", "com_location": "in front of S Y Ultimate housing society, Golden Bakery Kondhwa Khurd 48., Pune, Maharashtra" }, "geometry": { "type": "Point", "coordinates": [ 73.8891781, 18.4677499 ] } },
{ "type": "Feature", "properties": { "ccd_name": "Making street light functional", "com_location": "ha.cpI ka lonI,gosAvI vastI yethe, Pune, Maharashtra" }, "geometry": { "type": "Point", "coordinates": [ 73.9470036, 18.5096028 ] } },
{ "type": "Feature", "properties": { "ccd_name": "Other (ELECTRICAL)", "com_location": "pattAH 60/5 gulaTekaDI Dhole maLA puNe 37" }, "geometry": { "type": "Point", "coordinates": [ 73.860785, 18.48773 ] } },
{ "type": "Feature", "properties": { "ccd_name": "Making street light functional", "com_location": "on Someshwar Temple Road near Mont Vert Belrose Society, Pune, Maharashtra" }, "geometry": { "type": "Point", "coordinates": [ 73.7945467, 18.5479155 ] } },
{ "type": "Feature", "properties": { "ccd_name": "Making street light functional", "com_location": ": Meera Nagar, lane 7, Koregaon park,, Pune 411011" }, "geometry": { "type": "Point", "coordinates": [ 73.8999594, 18.5378665 ] } },
{ "type": "Feature", "properties": { "ccd_name": "Making street light functional", "com_location": "Aditya Shagun Mall on NDA Pashan  Road Bavdhan, Pune, Maharashtra" }, "geometry": { "type": "Point", "coordinates": [ 73.7786621, 18.5192722 ] } },
{ "type": "Feature", "properties": { "ccd_name": "Making street light functional", "com_location": "behind Kothrud bus stand, near tejas society, Pune, Maharashtra" }, "geometry": { "type": "Point", "coordinates": [ 73.813755, 18.498622 ] } },
{ "type": "Feature", "properties": { "ccd_name": "Making street light functional", "com_location": "sa na 157/158 amara koTejesa, bhosale nagara parisara haDapasara puNe 28 yathe gele dona divasa patha  dive baMda Aheta " }, "geometry": { "type": "Point", "coordinates": [ 73.8356575, 18.5442047 ] } },
{ "type": "Feature", "properties": { "ccd_name": "Making street light functional", "com_location": "Chitrakoot B Wing, 1065/A/1, Chatushrungi Road, Shivajinagar, Pune 411016" }, "geometry": { "type": "Point", "coordinates": [ 73.833425, 18.5348665 ] } },
{ "type": "Feature", "properties": { "ccd_name": "Making street light functional", "com_location": "SKY HEIGHTS NIBM Road kondwa bk , Pune, Maharashtra" }, "geometry": { "type": "Point", "coordinates": [ 73.9058367, 18.4767302 ] } },
{ "type": "Feature", "properties": { "ccd_name": "Making street light functional", "com_location": "Khandve nagar galli no2, ramchandra nagar, nagar road, Pune, Maharashtra" }, "geometry": { "type": "Point", "coordinates": [ 73.9579995, 18.5738101 ] } },
{ "type": "Feature", "properties": { "ccd_name": "Making street light functional", "com_location": "Area Sahakar Nagar No.2\r\nGovind Krishna Panse Path,\r\nNamdeo Society to Shrikrishna society, Pune, Maharashtra" }, "geometry": { "type": "Point", "coordinates": [ 73.8481802, 18.4873646 ] } },
{ "type": "Feature", "properties": { "ccd_name": "Other (ELECTRICAL)", "com_location": "kawde mala sopan baug ghorpadi  opp House of Lords society , Pune, Maharashtra" }, "geometry": { "type": "Point", "coordinates": [ 73.9067418, 18.5178149 ] } },
{ "type": "Feature", "properties": { "ccd_name": "Making street light functional", "com_location": "NIBM Road Next Baker's Point Lene no 21 NIBM Rd, Kubera Garden, Kondhwa, Pune," }, "geometry": { "type": "Point", "coordinates": [ 73.8959778, 18.4771991 ] } },
{ "type": "Feature", "properties": { "ccd_name": "Making street light functional", "com_location": "Sr no 9 Tukaram nagar chandan nagar kharadi road near chamunda super market, Pune, Maharashtra" }, "geometry": { "type": "Point", "coordinates": [ 73.9352221, 18.549721 ] } },
{ "type": "Feature", "properties": { "ccd_name": "Making street light functional", "com_location": "on baner pashan link  road near passport office, Pune, Maharashtra" }, "geometry": { "type": "Point", "coordinates": [ 73.7912895, 18.5491346 ] } },
{ "type": "Feature", "properties": { "ccd_name": "Making street light functional", "com_location": "Sr no 49/A Suyog Colony Kale Padal, Hadapsar, Pune, " }, "geometry": { "type": "Point", "coordinates": [ 73.9433299, 18.4869571 ] } },
{ "type": "Feature", "properties": { "ccd_name": "Making street light functional", "com_location": "oma sAinAtha sosAyaTI  lAITa hAUsa shejArI bibAvevADI puNe 37" }, "geometry": { "type": "Point", "coordinates": [ 73.8590666, 18.4837172 ] } },
{ "type": "Feature", "properties": { "ccd_name": "Making street light functional", "com_location": " AkAsha minI mArkeTa, Da na ba sko roDa yeravaDA, Pune, Maharashtra" }, "geometry": { "type": "Point", "coordinates": [ 73.8910437, 18.5527456 ] } },
{ "type": "Feature", "properties": { "ccd_name": "Making street light functional", "com_location": "Arun Housing Society unit no 2 Om super market javal model colony near Dragon Chinese Hotel smor pune 411016." }, "geometry": { "type": "Point", "coordinates": [ 73.8340346, 18.5328736 ] } },
{ "type": "Feature", "properties": { "ccd_name": "Making street light functional", "com_location": "saMtakabI chauka te kvA.crTara geTa, Pune, Maharashtra" }, "geometry": { "type": "Point", "coordinates": [ 73.7536694, 18.6187278 ] } },
{ "type": "Feature", "properties": { "ccd_name": "Other (ELECTRICAL)", "com_location": "AbanAve ALI , kenolA shejArI  pavAra ALI shejArI, Pune, Maharashtra" }, "geometry": { "type": "Point", "coordinates": [ 73.8458855, 18.5109333 ] } },
{ "type": "Feature", "properties": { "ccd_name": "Making street light functional", "com_location": "lekavhayRRisiTI lohagAva yethIla roDa naMbara 2 , Pune, Maharashtra" }, "geometry": { "type": "Point", "coordinates": [ 73.9411815, 18.4780322 ] } },
{ "type": "Feature", "properties": { "ccd_name": "Making street light functional", "com_location": " Kalwad, Datta Mandir  pune 411032." }, "geometry": { "type": "Point", "coordinates": [ 73.9338187, 18.5594398 ] } },
{ "type": "Feature", "properties": { "ccd_name": "Making street light functional", "com_location": "425/21 Ashirwad Apartments T.M.V. Colony, Gultekdi, Pune" }, "geometry": { "type": "Point", "coordinates": [ 73.8646433, 18.4953573 ] } },
{ "type": "Feature", "properties": { "ccd_name": "Making street light functional", "com_location": " between Magnolia Apartments and Mont Vert Biarritz Phase 2 in Pashan, Pune, Maharashtra" }, "geometry": { "type": "Point", "coordinates": [ 73.7945258, 18.547813 ] } },
{ "type": "Feature", "properties": { "ccd_name": "Making street light functional", "com_location": "Indranagari, Dahanukar Colony.\r\nOPP. HDFC Bank, Near  Cummins India gate., Pune, Maharashtra" }, "geometry": { "type": "Point", "coordinates": [ 73.8095762, 18.4946945 ] } },
{ "type": "Feature", "properties": { "ccd_name": "Other (ELECTRICAL)", "com_location": "Sr No 215 Ashtavinayak Colony Ganganagar Fursungi Sr No 215 Ashtavinayak Colony Ganganagar Fursungi,Ganga Nagar,Fursungi,Maharashtra 412308,India, Pune, Maharashtra" }, "geometry": { "type": "Point", "coordinates": [ 73.9560245, 18.4845707 ] } },
{ "type": "Feature", "properties": { "ccd_name": "Making street light functional", "com_location": "kotharUDa biga bAjAra samorIla, Pune, Maharashtra" }, "geometry": { "type": "Point", "coordinates": [ 73.8786239, 18.5246091 ] } },
{ "type": "Feature", "properties": { "ccd_name": "Making street light functional", "com_location": "231 parvati, shree mahalaxmi sabagruha , Pune, Maharashtra" }, "geometry": { "type": "Point", "coordinates": [ 73.8517382, 18.4961033 ] } },
{ "type": "Feature", "properties": { "ccd_name": "Making street light functional", "com_location": "at Indranagari Dahanukar Colony., Pune, Maharashtra" }, "geometry": { "type": "Point", "coordinates": [ 73.8095762, 18.4946945 ] } },
{ "type": "Feature", "properties": { "ccd_name": "Making street light functional", "com_location": "37 Mumbai Pune Tukaram Hamal chawl Bopodi pune 3\r\n" }, "geometry": { "type": "Point", "coordinates": [ 73.8350831, 18.5709235 ] } },
{ "type": "Feature", "properties": { "ccd_name": "Removal of open electric box (silver color) on street light pole", "com_location": "iMdirAnagara baramAshela dhAnorI, Pune, Maharashtra" }, "geometry": { "type": "Point", "coordinates": [ 73.896851, 18.5967587 ] } },
{ "type": "Feature", "properties": { "ccd_name": "Making street light functional", "com_location": "gurukrupa colony diomond water park road survey number 47 lohegaon  pune 47" }, "geometry": { "type": "Point", "coordinates": [ 73.9569126, 18.5961568 ] } },
{ "type": "Feature", "properties": { "ccd_name": "Other (ELECTRICAL)", "com_location": "Sr. No 49, Anand Park Near madina general store Pune -15 " }, "geometry": { "type": "Point", "coordinates": [ 73.8070293, 18.5562176 ] } },
{ "type": "Feature", "properties": { "ccd_name": "Making street light functional", "com_location": "shivne deshmukhwadi in front of walke garage, Pune, Maharashtra" }, "geometry": { "type": "Point", "coordinates": [ 73.7788076, 18.4673236 ] } },
{ "type": "Feature", "properties": { "ccd_name": "Making street light functional", "com_location": "Gurudwara colony, bhukkan vasti, lane-13, nr Laxmi super market lohgaon -411047, Pune, Maharashtra" }, "geometry": { "type": "Point", "coordinates": [ 73.9275318, 18.5932724 ] } },
{ "type": "Feature", "properties": { "ccd_name": "Repairing street light pole (damaged / fallen)", "com_location": "vijaya TiMgare gArDana shejArIla roDa che , Pune, Maharashtra" }, "geometry": { "type": "Point", "coordinates": [ 73.8786239, 18.5246091 ] } },
{ "type": "Feature", "properties": { "ccd_name": "Making street light functional", "com_location": "blossoms and sprin soc occasion mangal karyalaya regent plaza baner pashan link road , Pune, Maharashtra" }, "geometry": { "type": "Point", "coordinates": [ 73.7930752, 18.5523154 ] } },
{ "type": "Feature", "properties": { "ccd_name": "Making street light functional", "com_location": "No street light in  Bhairav Nagar Lane 14 Dhanori road Pune 15" }, "geometry": { "type": "Point", "coordinates": [ 73.8884895, 18.589188 ] } },
{ "type": "Feature", "properties": { "ccd_name": "Making street light functional", "com_location": "First pole.\r\nRoad no 4\r\nLake view city \r\nLohagaon \r\nPune 411047" }, "geometry": { "type": "Point", "coordinates": [ 73.9331863, 18.5976406 ] } },
{ "type": "Feature", "properties": { "ccd_name": "Making street light functional", "com_location": "Baner - Pashan Link Rd, Rolling Hills To Badshahi Hotel  Baner, Pune, " }, "geometry": { "type": "Point", "coordinates": [ 73.848899, 18.5087019 ] } },
{ "type": "Feature", "properties": { "ccd_name": "Making street light functional", "com_location": "Spring Blossom Society Citizen Opticals, Regent Plaza Baner - Pashan Link Rd, Pashan, Pune, " }, "geometry": { "type": "Point", "coordinates": [ 73.7930752, 18.5523154 ] } },
{ "type": "Feature", "properties": { "ccd_name": "Making street light functional", "com_location": "Baner - Pashan Link Rd,  hotel badashai to Hotel Ranmala, Pune, Maharashtra" }, "geometry": { "type": "Point", "coordinates": [ 73.7979555, 18.5513163 ] } },
{ "type": "Feature", "properties": { "ccd_name": "Making street light functional", "com_location": " Power house, near sakakar nagar police station, sahakar nagar no.1 padmavati pune 9." }, "geometry": { "type": "Point", "coordinates": [ 73.855825, 18.4748298 ] } },
{ "type": "Feature", "properties": { "ccd_name": "Making street light functional", "com_location": "baner road hotel mahableshwar to chitle bandu pune " }, "geometry": { "type": "Point", "coordinates": [ 73.8536958, 18.5135379 ] } },
{ "type": "Feature", "properties": { "ccd_name": "Making street light functional", "com_location": "shree mahalaxumi sus road shivshkti chowk  shejari , Pune, Maharashtra" }, "geometry": { "type": "Point", "coordinates": [ 73.7777885, 18.5454191 ] } },
{ "type": "Feature", "properties": { "ccd_name": "Making street light functional", "com_location": "Kumar Parijat Lane , NIBM Road Kondhwa Khurd Pune -411048" }, "geometry": { "type": "Point", "coordinates": [ 73.8936674, 18.4765754 ] } },
{ "type": "Feature", "properties": { "ccd_name": "Making street light functional", "com_location": "Lonkar vasti  Shree Datta Colony Keshavnagar Mundhava \r\n, Pune, Maharashtra" }, "geometry": { "type": "Point", "coordinates": [ 73.9490531, 18.5276839 ] } },
{ "type": "Feature", "properties": { "ccd_name": "New signal required", "com_location": "Pratibha Hero Showroon, Balewadi pahata, Baner, Pune 411045" }, "geometry": { "type": "Point", "coordinates": [ 73.7707111, 18.5540187 ] } },
{ "type": "Feature", "properties": { "ccd_name": "Making street light functional", "com_location": "Swapnapoortee Bungalow , bibwewadi-kondhwa road, opposite Rahul apartment , near Jijaii complex., Pune, Maharashtra" }, "geometry": { "type": "Point", "coordinates": [ 73.8759485, 18.4815914 ] } },
{ "type": "Feature", "properties": { "ccd_name": "Making street light functional", "com_location": "Pallod Farms 3, Next to Vijay Sales lane Baner, Pune, Maharashtra" }, "geometry": { "type": "Point", "coordinates": [ 73.7956329, 18.5590163 ] } },
{ "type": "Feature", "properties": { "ccd_name": "Making street light functional", "com_location": "snehal terries bhjnhal town ship eklavya clg samor pune 411038 kotharud " }, "geometry": { "type": "Point", "coordinates": [ 73.814964, 18.493458 ] } },
{ "type": "Feature", "properties": { "ccd_name": "Making street light functional", "com_location": "Katraj kondhwa road sundar nagar 1,2,sundarban, Pune, Maharashtra" }, "geometry": { "type": "Point", "coordinates": [ 73.8747982, 18.4498089 ] } },
{ "type": "Feature", "properties": { "ccd_name": "Making street light functional", "com_location": "15/2 venkatesh hill view chs behind deccan honda show room satara rd dhankawdi pune 41" }, "geometry": { "type": "Point", "coordinates": [ 73.856203, 18.470889 ] } },
{ "type": "Feature", "properties": { "ccd_name": "Making street light functional", "com_location": "65/66 Gayatri apartments \r\nMayur colony Kothrud, Pune, Maharashtra" }, "geometry": { "type": "Point", "coordinates": [ 73.8161747, 18.5039834 ] } },
{ "type": "Feature", "properties": { "ccd_name": "Repairing street light pole (damaged / fallen)", "com_location": "SR NO 4 SANJAY GANDHI VASAHAT NEAR I M D COLONY  PASHAN PUNE 4110021 MAIN CHAWL " }, "geometry": { "type": "Point", "coordinates": [ 73.8040428, 18.5399991 ] } },
{ "type": "Feature", "properties": { "ccd_name": "Making street light functional", "com_location": "bibavevADI rastyAvara ANi  niraMta kA.clanI bibavevADI,  koThArI blA.cksa madhye , Pune, Maharashtra" }, "geometry": { "type": "Point", "coordinates": [ 73.8185255, 18.4469134 ] } },
{ "type": "Feature", "properties": { "ccd_name": "Making street light functional", "com_location": "Off D P Road, Lane Behind Shiv Sagar Restaurant. \r\nLife line hospital lane , near Society Sanjog 1, Pune, Maharashtra" }, "geometry": { "type": "Point", "coordinates": [ 73.7830043, 18.5638889 ] } },
{ "type": "Feature", "properties": { "ccd_name": "Making street light functional", "com_location": "Phursungi khandoba mal sonai english medium school cya mage , Pune, Maharashtra" }, "geometry": { "type": "Point", "coordinates": [ 73.9522623, 18.4830243 ] } },
{ "type": "Feature", "properties": { "ccd_name": "Making street light functional", "com_location": "Castle Cooperative Housing Society Near Robertshaw Controls Op kulakarni Motars Viman nagar , Pune, Maharashtra" }, "geometry": { "type": "Point", "coordinates": [ 73.9214924, 18.5667008 ] } },
{ "type": "Feature", "properties": { "ccd_name": "Making street light functional", "com_location": " from  badshahi hotel to rolling hill, Pune, Maharashtra" }, "geometry": { "type": "Point", "coordinates": [ 73.8439547, 18.4757757 ] } },
{ "type": "Feature", "properties": { "ccd_name": "Making street light functional", "com_location": "Row House No.1. Eastern Paradise Amraa hotel Baner road Puna 45, Pune, Maharashtra" }, "geometry": { "type": "Point", "coordinates": [ 73.778413, 18.564832 ] } },
{ "type": "Feature", "properties": { "ccd_name": "Making street light functional", "com_location": "Address:- Sr.no18, Shani Mandir road, near Jagdamba provision store, Gondhalenagar, Hadapsar Pune 411028" }, "geometry": { "type": "Point", "coordinates": [ 73.9483808, 18.4934264 ] } },
{ "type": "Feature", "properties": { "ccd_name": "Making street light functional", "com_location": "Streetlights on Baner-Pashan Link Road from Ayurvedgram chowk - Athashri - Balaji chowk are off since many days., Pune, Maharashtra" }, "geometry": { "type": "Point", "coordinates": [ 73.790825, 18.5421935 ] } },
{ "type": "Feature", "properties": { "ccd_name": "Making street light functional", "com_location": "Gulmohar Park Nagari, Ghorpadi, Pune" }, "geometry": { "type": "Point", "coordinates": [ 73.904768, 18.52567 ] } },
{ "type": "Feature", "properties": { "ccd_name": "Making street light functional", "com_location": "On Bhau Patil road, Bopodi the Near Kundan Paradise., Pune, Maharashtra" }, "geometry": { "type": "Point", "coordinates": [ 73.8321013, 18.5682809 ] } },
{ "type": "Feature", "properties": { "ccd_name": "Making street light functional", "com_location": "S.no66 dobarwadi ghorpadi goan pune 1 " }, "geometry": { "type": "Point", "coordinates": [ 73.9047105, 18.5168571 ] } },
{ "type": "Feature", "properties": { "ccd_name": "Repairing street light pole (damaged / fallen)", "com_location": "180 Ghorpade Peth Shankar Seth Road Opp Vega Center Pune 411042" }, "geometry": { "type": "Point", "coordinates": [ 73.8686347, 18.5012148 ] } },
{ "type": "Feature", "properties": { "ccd_name": "Other (ELECTRICAL)", "com_location": "shiddhArtha nagara lena naM 3 dhanorI jakAta nAkA loha gAMva roDa , Pune, Maharashtra" }, "geometry": { "type": "Point", "coordinates": [ 73.8950565, 18.5946663 ] } },
{ "type": "Feature", "properties": { "ccd_name": "Other (ELECTRICAL)", "com_location": "Maruti kunj lane no 6 Sr no 253 near apsara apartment khese park lohegaon road pune 411032." }, "geometry": { "type": "Point", "coordinates": [ 73.9098492, 18.5900136 ] } },
{ "type": "Feature", "properties": { "ccd_name": "Making street light functional", "com_location": "Royal Residency,\r\n47/A, Aundh Road\r\nFrom Shenaz Fish Market to Amar Heights Building -  full road, Pune, Maharashtra" }, "geometry": { "type": "Point", "coordinates": [ 73.8341412, 18.5626589 ] } },
{ "type": "Feature", "properties": { "ccd_name": "Other (ELECTRICAL)", "com_location": "Plot No. 32, Ashirwad Complex\r\nMarketyard Road, \r\nMarketyard, Pune" }, "geometry": { "type": "Point", "coordinates": [ 73.8597407, 18.489646 ] } },
{ "type": "Feature", "properties": { "ccd_name": "Removing street light pole (pole obstructing road)", "com_location": "Outside Utsav Banquets and Lawns, Near D-mart, Punyadham Ashram Road, Kondhwa, Pune, Maharashtra" }, "geometry": { "type": "Point", "coordinates": [ 73.8950984, 18.4583792 ] } },
{ "type": "Feature", "properties": { "ccd_name": "Making street light functional", "com_location": "sarve naM 59 mahamadavADI taravaDevastI prabhAga kramAMka 26, Pune, Maharashtra" }, "geometry": { "type": "Point", "coordinates": [ 73.8786239, 18.5246091 ] } },
{ "type": "Feature", "properties": { "ccd_name": "A new street light (new demand)", "com_location": " Maratha Mandir off NDA Pashan Road Bavdhan., Pune, Maharashtra" }, "geometry": { "type": "Point", "coordinates": [ 73.7820769, 18.511759 ] } },
{ "type": "Feature", "properties": { "ccd_name": "Making street light functional", "com_location": "baner pashan link road hotel badshahi rolling hills, Pune, Maharashtra" }, "geometry": { "type": "Point", "coordinates": [ 73.7944837, 18.5523171 ] } },
{ "type": "Feature", "properties": { "ccd_name": "Making street light functional", "com_location": " nagar road & the road to airport, Pune, Maharashtra" }, "geometry": { "type": "Point", "coordinates": [ 73.9372291, 18.5626928 ] } },
{ "type": "Feature", "properties": { "ccd_name": "Other (ELECTRICAL)", "com_location": "Vardhaman township. Building B10. sasane Nagar Hadapsar. Pune-411028" }, "geometry": { "type": "Point", "coordinates": [ 73.9355197, 18.4890617 ] } },
{ "type": "Feature", "properties": { "ccd_name": "Making street light functional", "com_location": "dhanakavaDI ke ke mArkeTa puNyAI nagara lena naM 9, Pune, Maharashtra" }, "geometry": { "type": "Point", "coordinates": [ 73.8564921, 18.4636762 ] } },
{ "type": "Feature", "properties": { "ccd_name": "Making street light functional", "com_location": "Address :Trimurty colony, behind sadhana soc, Near serum company. Hadapsar pune 410028\r\n\r\n" }, "geometry": { "type": "Point", "coordinates": [ 73.946982, 18.5038323 ] } },
{ "type": "Feature", "properties": { "ccd_name": "Making street light functional", "com_location": "Lane no 10 f 1...tingrenagar...Street light not working, Pune, Maharashtra" }, "geometry": { "type": "Point", "coordinates": [ 73.8882256, 18.575414 ] } },