{
"type": "FeatureCollection",
"name": "2020_Water_Supply",
"crs": { "type": "name", "properties": { "name": "urn:ogc:def:crs:OGC:1.3:CRS84" } },
"features": [
{ "type": "Feature", "properties": { "ccd_name": "NO water Supply", "com_location": "MeghMalhar society, DSK Vishwa, Dhayari, Pune" }, "geometry": { "type": "Point", "coordinates": [ 73.797534700000014, 18.4442976 ] } },
{ "type": "Feature", "properties": { "ccd_name": "Pipeline/Valve Leakage of PMC line", "com_location": "Sr.No-63/1k/3, Janardhan Nagar, Wadgaon Shine Road, Lohegaon, Near Durga Hotel\r\nPune - 47" }, "geometry": { "type": "Point", "coordinates": [ 73.9275889, 18.5944704 ] } },
{ "type": "Feature", "properties": { "ccd_name": "Water misuse (washing Center/Spreading)", "com_location": "Kothrud Depot workshop Paud Road, Eklavya Colony, Kothrud, Pune," }, "geometry": { "type": "Point", "coordinates": [ 73.795424, 18.506785 ] } },
{ "type": "Feature", "properties": { "ccd_name": "Cleaning of strom water chamber and nalla", "com_location": "Address - \r\nNear Nala , Just before Veer Baji Pasalkar Chowk , Wadgaon Budruk - 411041, Pune, Maharashtra" }, "geometry": { "type": "Point", "coordinates": [ 73.816934, 18.4662167 ] } },
{ "type": "Feature", "properties": { "ccd_name": "Pipeline/Valve Leakage of PMC line", "com_location": "MANSINGH VILLA GOKUL NAGAR LANE NO 3 KATRAJ KONDHWA RD PUNE 48 OPP DOMINOZ LANE " }, "geometry": { "type": "Point", "coordinates": [ 73.8740453, 18.4499202 ] } },
{ "type": "Feature", "properties": { "ccd_name": "Pipeline/Valve Leakage of PMC line", "com_location": "puNe- yeravaDA parisarAtIla shAstrI nagara mArge netAjI subhAShachaMdra bosa shALekaDe vaLatAnA bijhanesa be bilDIMga chyA ka rnavara" }, "geometry": { "type": "Point", "coordinates": [ 73.8962994, 18.5548965 ] } },
{ "type": "Feature", "properties": { "ccd_name": "Cleaning of strom water chamber and nalla", "com_location": "Gulwani Maharaj Path, Joshi Railway Musuem Lane, Kothrud Pune-38." }, "geometry": { "type": "Point", "coordinates": [ 73.822345, 18.5015865 ] } },
{ "type": "Feature", "properties": { "ccd_name": "NO water Supply", "com_location": "Row house no 2 Castleworld Society  aundh pune" }, "geometry": { "type": "Point", "coordinates": [ 73.833019, 18.4638527 ] } },
{ "type": "Feature", "properties": { "ccd_name": "NO water Supply", "com_location": "At 15 no,jamdade building,opp.ganga petrol pump,hadapsar,pune- 411028" }, "geometry": { "type": "Point", "coordinates": [ 73.950865, 18.499042 ] } },
{ "type": "Feature", "properties": { "ccd_name": "NO water Supply", "com_location": "58 amruteshwar socity padmavati pune 9" }, "geometry": { "type": "Point", "coordinates": [ 73.8538176, 18.5207345 ] } },
{ "type": "Feature", "properties": { "ccd_name": "No water supply in public toilet(s)", "com_location": " bhimaTolA mitra maMDaLa, 13 tADIvAlA roDa, mArutI maMdIra, puNe 01" }, "geometry": { "type": "Point", "coordinates": [ 73.873548, 18.5368902 ] } },
{ "type": "Feature", "properties": { "ccd_name": "Providing / repairing of storm water chamber and cover", "com_location": "s/n 14 behind manisha theatre near coco cola godown shivane , Pune, Maharashtra" }, "geometry": { "type": "Point", "coordinates": [ 73.8899726, 18.4536311 ] } },
{ "type": "Feature", "properties": { "ccd_name": "NO water Supply", "com_location": "BSNL Staff Quarters Rd, P & T Colony, Gultekdi, Pune, Maharashtra 411037" }, "geometry": { "type": "Point", "coordinates": [ 73.8698758, 18.494766 ] } },
{ "type": "Feature", "properties": { "ccd_name": "Pipeline/Valve Leakage of PMC line", "com_location": "Park Infinia society Gate Bhekrainagar , Fursungi Road\r\n, Pune, Maharashtra" }, "geometry": { "type": "Point", "coordinates": [ 73.9574246, 18.4857429 ] } },
{ "type": "Feature", "properties": { "ccd_name": "Providing / repairing of storm water chamber and cover", "com_location": "sAtArA roDa \r\nkAtraja jaMkshana ha Tela chyA bAjulA \r\nkityeka divasApAsUna cheMbara kharAba jhAlA Ahe va tyAtUna sAMDapANI rastyAvara yeta Ahe duchAkI gADyAMche apaghAta hota Aheta lokAMche jIva jAta Aheta durustI karaNyAche saujanya ka, Pune, Maharashtra" }, "geometry": { "type": "Point", "coordinates": [ 73.865238, 18.4529322 ] } },
{ "type": "Feature", "properties": { "ccd_name": "Clearing Water Logging on Road", "com_location": "Rain water logging problem on 2nd street ,Anand  park Aundh ., Pune, Maharashtra" }, "geometry": { "type": "Point", "coordinates": [ 73.806984, 18.5560962 ] } },
{ "type": "Feature", "properties": { "ccd_name": "NO water Supply", "com_location": "Katraj Santosh Naga, Pune, Maharashtra" }, "geometry": { "type": "Point", "coordinates": [ 73.865238, 18.4529322 ] } },
{ "type": "Feature", "properties": { "ccd_name": "Providing / repairing of storm water chamber and cover", "com_location": "ear Pride Platinum Society, Baner, Pune, Maharashtra" }, "geometry": { "type": "Point", "coordinates": [ 73.7820392, 18.5523601 ] } },
{ "type": "Feature", "properties": { "ccd_name": "Removal of water tax due to installation of water meter", "com_location": "C/O Pravin Kendre Panchwati apartment Phase I, Sinhgad institute road Ambegaon BK Pune" }, "geometry": { "type": "Point", "coordinates": [ 73.8359219, 18.4601321 ] } },
{ "type": "Feature", "properties": { "ccd_name": "NO water Supply", "com_location": "Gloriana Villa SocietyTilekar Nagar, Kondhwa Budruk, Pune" }, "geometry": { "type": "Point", "coordinates": [ 73.887609, 18.4417163 ] } },
{ "type": "Feature", "properties": { "ccd_name": "NO water Supply", "com_location": "Nana peth near MSEB head office , Pune, Maharashtra" }, "geometry": { "type": "Point", "coordinates": [ 73.8653833, 18.5144313 ] } },
{ "type": "Feature", "properties": { "ccd_name": "Providing / repairing of storm water chamber and cover", "com_location": "prabhAga kra 40 dattanagara chauka te  livha sosAyaTI, Pune, Maharashtra" }, "geometry": { "type": "Point", "coordinates": [ 73.9531189, 18.5646495 ] } },
{ "type": "Feature", "properties": { "ccd_name": "Cleaning of strom water chamber and nalla", "com_location": " haDapasara -muMDhavA kShetrIya kAryAlaya aMtargata pra kra 23 saMpurNa   , Pune, Maharashtra" }, "geometry": { "type": "Point", "coordinates": [ 73.860166, 18.5251175 ] } },
{ "type": "Feature", "properties": { "ccd_name": "Cleaning of strom water chamber and nalla", "com_location": "prabhAga kramAMka 1 gokULanagara yethIla oDhyAtIla cheMbara durustI karA:-manase chI mAgaNI, Pune, Maharashtra" }, "geometry": { "type": "Point", "coordinates": [ 73.8786239, 18.5246091 ] } },
{ "type": "Feature", "properties": { "ccd_name": "Pipeline/Valve Leakage of PMC line", "com_location": "yashshree colony, sanket banglow lane -1 mahalaxmi lane  karve ngr , Pune, Maharashtra" }, "geometry": { "type": "Point", "coordinates": [ 73.8235754, 18.4870024 ] } },
{ "type": "Feature", "properties": { "ccd_name": "Pipeline/Valve Leakage of PMC line", "com_location": "Deccan Honda showroom chya Samor.. road chya bajune ji panyachi line aahe.. ..... Deccan Honda showroom....dhankawdi pune satara road" }, "geometry": { "type": "Point", "coordinates": [ 73.8581095, 18.4608016 ] } },
{ "type": "Feature", "properties": { "ccd_name": "Pipeline/Valve Leakage of PMC line", "com_location": "Opp ABIL house gaNeshakhiMDa roDa Opp invitation hotel footpath Range hills corner, Pune, Maharashtra" }, "geometry": { "type": "Point", "coordinates": [ 73.8340493, 18.5391588 ] } },
{ "type": "Feature", "properties": { "ccd_name": "Stopping leakage of drainage water in Nalla / River", "com_location": "32/3/A  shallarmala  near nanasaheb  peswa talab. katraj 411046, Pune, Maharashtra" }, "geometry": { "type": "Point", "coordinates": [ 73.865238, 18.4529322 ] } },
{ "type": "Feature", "properties": { "ccd_name": "NO water Supply", "com_location": "Sunshree Emerald, NIBM Road, Kondhwa\r\n, Pune, Maharashtra" }, "geometry": { "type": "Point", "coordinates": [ 73.903698800000015, 18.476733 ] } },
{ "type": "Feature", "properties": { "ccd_name": "Pipeline/Valve Leakage of PMC line", "com_location": "18 Omkareshwar society Tange wala colony Sahakar Nagar No. 1 Ganga Tirth hsg society gate number 1  chya samore, Pune, Maharashtra" }, "geometry": { "type": "Point", "coordinates": [ 73.85377, 18.474821 ] } },
{ "type": "Feature", "properties": { "ccd_name": "NO water Supply", "com_location": "Sr no 64. Near trimurti hospital wadgaon Bk Pune41" }, "geometry": { "type": "Point", "coordinates": [ 73.814838, 18.4621292 ] } },
{ "type": "Feature", "properties": { "ccd_name": "NO water Supply", "com_location": " Kunal Aspiree, Balewadi community. , Pune, Maharashtra" }, "geometry": { "type": "Point", "coordinates": [ 73.7762839, 18.579502 ] } },
{ "type": "Feature", "properties": { "ccd_name": "Unauthorised / Uncovered water storage tanks", "com_location": "MOUNT UNIQUE , SURVEY NO.52/4/1, SUS BANER ROAD, besides 52 Greenwoods, Baner-411045, Pune, Maharashtra" }, "geometry": { "type": "Point", "coordinates": [ 73.7687469, 18.548698 ] } },
{ "type": "Feature", "properties": { "ccd_name": "Contamination / Turbid Water Problem", "com_location": "Supriya Kumthekar\r\nFlat number 8, Sukhawas\r\n192)2a Shivaji Nagar, nearby landmark asha nagar/ Rohan Garima\r\nPune 411016\r\nsupriya.kumthekar@gmail.com" }, "geometry": { "type": "Point", "coordinates": [ 73.8478888, 18.5282405 ] } },
{ "type": "Feature", "properties": { "ccd_name": "Clearing Water Logging on Road", "com_location": "Lane 15A,Borate Nagar, Kharadi, Pune -14\r\n\r\n" }, "geometry": { "type": "Point", "coordinates": [ 73.901556, 18.5492846 ] } },
{ "type": "Feature", "properties": { "ccd_name": "Pipeline/Valve Leakage of PMC line", "com_location": "pAShANa susa rastyAvarIla lokasevA shALechyA mAgIla bAjUsa TekaDIvara jANARyA rastyAta , Pune, Maharashtra" }, "geometry": { "type": "Point", "coordinates": [ 73.867495, 18.518683 ] } },
{ "type": "Feature", "properties": { "ccd_name": "Contamination / Turbid Water Problem", "com_location": "LOHEGAON GURUDWARA COLONY RAJIV GANDHI LANE NO 17 , Pune, Maharashtra" }, "geometry": { "type": "Point", "coordinates": [ 73.9275318, 18.5932724 ] } },
{ "type": "Feature", "properties": { "ccd_name": "Others (Water Supply)", "com_location": "Plot No 86 Rajas Society Katraj Pune" }, "geometry": { "type": "Point", "coordinates": [ 73.86391, 18.452707 ] } },
{ "type": "Feature", "properties": { "ccd_name": "NO water Supply", "com_location": "vijay nagar colony milan talkies javad prabhag 29, Pune, Maharashtra" }, "geometry": { "type": "Point", "coordinates": [ 73.8516595, 18.5045028 ] } },
{ "type": "Feature", "properties": { "ccd_name": "NO water Supply", "com_location": "38/7, \"Kumar\" Bungalow, Lane number 10, Prabhat Road, Erandawana, Pune, Maharashtra" }, "geometry": { "type": "Point", "coordinates": [ 73.8353471, 18.5140064 ] } },
{ "type": "Feature", "properties": { "ccd_name": "Clearing Water Logging on Road", "com_location": "Somwar Peth Nageshwar Mandir area. , Pune, Maharashtra" }, "geometry": { "type": "Point", "coordinates": [ 73.8629935, 18.5211321 ] } },
{ "type": "Feature", "properties": { "ccd_name": "NO water Supply", "com_location": "BHURANI TERRACE CHS SURVE 52 TILEKAR NAGAR \r\n KONDHWA BUDRUK PUNE 48 NEAR BURHANI PARK " }, "geometry": { "type": "Point", "coordinates": [ 73.8850854, 18.4427646 ] } },
{ "type": "Feature", "properties": { "ccd_name": "NO water Supply", "com_location": "Nilesh Samruddhi society, SrNo 63, Handewadi road, Hadapsar pune. \r\n" }, "geometry": { "type": "Point", "coordinates": [ 73.9346489, 18.4661131 ] } },
{ "type": "Feature", "properties": { "ccd_name": "NO water Supply", "com_location": "Balaji nagar dhankawdi pune near siddhi hospital   " }, "geometry": { "type": "Point", "coordinates": [ 73.8592262, 18.4641339 ] } },
{ "type": "Feature", "properties": { "ccd_name": "NO water Supply", "com_location": "Sukhsagar nagar bhag 13/2 near bankar school, Pune, Maharashtra" }, "geometry": { "type": "Point", "coordinates": [ 73.86515, 18.459931 ] } },
{ "type": "Feature", "properties": { "ccd_name": "Providing / repairing of storm water chamber and cover", "com_location": " Internal road to Serum institute from road next to Ravi Darshan Hadapsar.\r\n, Pune, Maharashtra" }, "geometry": { "type": "Point", "coordinates": [ 73.9447075, 18.5004907 ] } },
{ "type": "Feature", "properties": { "ccd_name": "NO water Supply", "com_location": "201 orange county , p-2, baner pashan link rd, pune" }, "geometry": { "type": "Point", "coordinates": [ 73.7905315, 18.543945 ] } },
{ "type": "Feature", "properties": { "ccd_name": "Others (Water Supply)", "com_location": " phUle nagara yethe maulAnA abdula kalAma AjhAda pAdachArI pulAjavaLa , Pune, Maharashtra" }, "geometry": { "type": "Point", "coordinates": [ 73.874985, 18.560961 ] } },
{ "type": "Feature", "properties": { "ccd_name": "Pipeline/Valve Leakage of PMC line", "com_location": "Telco Colony Ganesh Tarun Mitra Mandal Ambegaon Khurd, Pune, Maharashtra" }, "geometry": { "type": "Point", "coordinates": [ 73.8444793, 18.4441804 ] } },
{ "type": "Feature", "properties": { "ccd_name": "NO water Supply", "com_location": "LAXMI COLONY,OPPOSITE SAINAGAR SATAVWADI HADAPSAR PUNE 411028,NEAR EX MAYOR MRS VAISHALI BANKAR HOUS" }, "geometry": { "type": "Point", "coordinates": [ 73.9484731, 18.4953248 ] } },
{ "type": "Feature", "properties": { "ccd_name": "Others (Water Supply)", "com_location": "New Water Tank,near Vyankatesh Cerenity Complex, DSK Dhayari Area, Dhayari\r\n, Pune, Maharashtra" }, "geometry": { "type": "Point", "coordinates": [ 73.79851, 18.4476787 ] } },
{ "type": "Feature", "properties": { "ccd_name": "Pipeline/Valve Leakage of PMC line", "com_location": "sa na 160 ArU presTija samora, kRRiShNa pyura vheja shejArI haDapasara gAva mALavADI roDa haDapasara puNe 411028 yete asa" }, "geometry": { "type": "Point", "coordinates": [ 73.9389213, 18.5053012 ] } },
{ "type": "Feature", "properties": { "ccd_name": "NO water Supply", "com_location": "S.No.15/23, Vardhman Pearl society, Near Chintamani Vidyapeeth,Ambegaon Pathar,Ambegaon BK., Pune, Maharashtra" }, "geometry": { "type": "Point", "coordinates": [ 73.8390757, 18.4564599 ] } },
{ "type": "Feature", "properties": { "ccd_name": "Pipeline/Valve Leakage of PMC line", "com_location": "SP's Biryani House\r\n1472, Tilak Road, Opp.S.P. College khajina vihir chouk, Lokamanya Nagar, Sadashiv, Pune, Maharashtra" }, "geometry": { "type": "Point", "coordinates": [ 73.8503233, 18.5083151 ] } },
{ "type": "Feature", "properties": { "ccd_name": "Others (Water Supply)", "com_location": "Parkhe Mala, Baner\r\nPune -411045" }, "geometry": { "type": "Point", "coordinates": [ 73.7934988, 18.5589752 ] } },
{ "type": "Feature", "properties": { "ccd_name": "Water misuse (washing Center/Spreading)", "com_location": "817, Guruwar Peth  Panch hose chouk Near Bappa Morya Phataka Mart, Pune, Maharashtra" }, "geometry": { "type": "Point", "coordinates": [ 73.8600822, 18.5063278 ] } },
{ "type": "Feature", "properties": { "ccd_name": "NO water Supply", "com_location": " in Nachiket Park ,Baner Road., Pune, Maharashtra" }, "geometry": { "type": "Point", "coordinates": [ 73.8024139, 18.5534899 ] } },
{ "type": "Feature", "properties": { "ccd_name": "Pipeline/Valve Leakage of PMC line", "com_location": "ITI samora\r\nshAhU chauka basa sTa pa javaLa, Pune, Maharashtra" }, "geometry": { "type": "Point", "coordinates": [ 73.8786239, 18.5246091 ] } },
{ "type": "Feature", "properties": { "ccd_name": "Pipeline/Valve Leakage of PMC line", "com_location": "vardhamAna TAunashipa shejArI fortune isTeTa chyA samora relve lAIna chyA bAjUlA sasANe nagara haDapasara puNe 411028" }, "geometry": { "type": "Point", "coordinates": [ 73.9316443, 18.4959136 ] } },
{ "type": "Feature", "properties": { "ccd_name": "NO water Supply", "com_location": "S no 42&46 Katraj gujarwadi rd Manas society chairmen, Pune 42,Katraj gujarwadi Rd. " }, "geometry": { "type": "Point", "coordinates": [ 73.8165439, 18.4548364 ] } },
{ "type": "Feature", "properties": { "ccd_name": "NO water Supply", "com_location": "bhangai vasti ,marval enigma sosc. kharadi \r\nMr. Navnath pathare, 9764779000\r\nMr. kandhare 9112366410, Pune, Maharashtra" }, "geometry": { "type": "Point", "coordinates": [ 73.9359228, 18.5447493 ] } },
{ "type": "Feature", "properties": { "ccd_name": "NO water Supply", "com_location": "726 Bhawani Peth chudaman Talim., Pune, Maharashtra" }, "geometry": { "type": "Point", "coordinates": [ 73.8746269, 18.5084085 ] } },
{ "type": "Feature", "properties": { "ccd_name": "NO water Supply", "com_location": "Sr.No 51 B.G Shirke company road, mundhwa Pune -36" }, "geometry": { "type": "Point", "coordinates": [ 73.9083796, 18.5211518 ] } },
{ "type": "Feature", "properties": { "ccd_name": "NO water Supply", "com_location": "NEAR SHEJUAL PARK SURVEY NUMBER 33/1 LANE NUMBER 8 KHARADI PUNE " }, "geometry": { "type": "Point", "coordinates": [ 73.9321978, 18.552541 ] } },
{ "type": "Feature", "properties": { "ccd_name": "NO water Supply", "com_location": "s in P and T colony, Gultekdi., Pune, Maharashtra" }, "geometry": { "type": "Point", "coordinates": [ 73.8720449, 18.4958941 ] } },
{ "type": "Feature", "properties": { "ccd_name": "Pipeline/Valve Leakage of PMC line", "com_location": "Shree Durvankur Society, Near Sai bharat gas Agency, Kharadi bypass road, kharadi, pune 411014." }, "geometry": { "type": "Point", "coordinates": [ 73.9328965, 18.5324891 ] } },
{ "type": "Feature", "properties": { "ccd_name": "No water as per time table", "com_location": "Mundhwa flat no 12 lonkar high school 411036, Pune, Maharashtra" }, "geometry": { "type": "Point", "coordinates": [ 73.9475135, 18.5283335 ] } },
{ "type": "Feature", "properties": { "ccd_name": "Pipeline/Valve Leakage of PMC line", "com_location": "Near Nest Apartment, Vidhate Colony, Baner Pune - 45.\r\n" }, "geometry": { "type": "Point", "coordinates": [ 73.799331, 18.5625663 ] } },
{ "type": "Feature", "properties": { "ccd_name": "NO water Supply", "com_location": "Pawar aali, Phursungi (Gaothan), Pune, Maharashtra" }, "geometry": { "type": "Point", "coordinates": [ 73.9794633, 18.4750458 ] } },
{ "type": "Feature", "properties": { "ccd_name": "Water misuse (washing Center/Spreading)", "com_location": "rajesh  chember sheela vihar colony, karve rdbhaou patil rd sun way soc , Pune, Maharashtra" }, "geometry": { "type": "Point", "coordinates": [ 73.8232534, 18.5054304 ] } },
{ "type": "Feature", "properties": { "ccd_name": "Clearing Water Logging on Road", "com_location": "283 naMdakishora taruNa maMDaLa, mahAtmA phule peTha,puNe 42, " }, "geometry": { "type": "Point", "coordinates": [ 73.8760761, 18.507237 ] } },
{ "type": "Feature", "properties": { "ccd_name": "NO water Supply", "com_location": "GANGADHAM ROAD NEAR AAI MATA MANDIR KAKDE WASTI GALLI NUMBER 3, Pune, Maharashtra" }, "geometry": { "type": "Point", "coordinates": [ 73.875411, 18.4793243 ] } },
{ "type": "Feature", "properties": { "ccd_name": "NO water Supply", "com_location": "Ushakal Apartment Plot no 72 Flat No9 Tulshibaugwali colony Sahakar Nagar Near Meghana Society, Pune, Maharashtra" }, "geometry": { "type": "Point", "coordinates": [ 73.8478304, 18.4899996 ] } },
{ "type": "Feature", "properties": { "ccd_name": "Water Flowing / wastage", "com_location": "Outside the Shauryashri Hall on Service road towards Sinhagad road - Near the Highway overbridge.\r\n, Pune, Maharashtra" }, "geometry": { "type": "Point", "coordinates": [ 73.817754, 18.4641647 ] } },
{ "type": "Feature", "properties": { "ccd_name": "NO water Supply", "com_location": "prabhag no 40 ambegaon patar police chouki samor pranad medicle, Pune, Maharashtra" }, "geometry": { "type": "Point", "coordinates": [ 73.8429771, 18.4493762 ] } },
{ "type": "Feature", "properties": { "ccd_name": "NO water Supply", "com_location": " lonkar wasti \r\n, Pune, Maharashtra" }, "geometry": { "type": "Point", "coordinates": [ 73.9419138, 18.5322896 ] } },
{ "type": "Feature", "properties": { "ccd_name": "Pipeline/Valve Leakage of PMC line", "com_location": "gokuLa nagara basasTa pa,kAtraja ko vA roDa. , Pune, Maharashtra" }, "geometry": { "type": "Point", "coordinates": [ 73.865238, 18.4529322 ] } },
{ "type": "Feature", "properties": { "ccd_name": "Providing / repairing of storm water chamber and cover", "com_location": "padam. Hsg soc bibwewadi road pune 411037" }, "geometry": { "type": "Point", "coordinates": [ 73.8598274, 18.4836839 ] } },
{ "type": "Feature", "properties": { "ccd_name": "NO water Supply", "com_location": " Buena Vista, in Pashan on Baner Pashan Link Road off Sus Road , Pune, Maharashtra" }, "geometry": { "type": "Point", "coordinates": [ 73.792553, 18.546633 ] } },
{ "type": "Feature", "properties": { "ccd_name": "NO water Supply", "com_location": "survey number 31 A borate basti kharadi pune 14 " }, "geometry": { "type": "Point", "coordinates": [ 73.9327444, 18.5519668 ] } },
{ "type": "Feature", "properties": { "ccd_name": "Providing / repairing of storm water chamber and cover", "com_location": "C26 bidi kamgar vasahat ganesh nagar yerawada pune 6" }, "geometry": { "type": "Point", "coordinates": [ 73.8619226, 18.5877165 ] } },
{ "type": "Feature", "properties": { "ccd_name": "NO water Supply", "com_location": "Shrikunj nagar society Kondhwa bk, Pune, Maharashtra" }, "geometry": { "type": "Point", "coordinates": [ 73.8840376, 18.4564534 ] } },
{ "type": "Feature", "properties": { "ccd_name": "NO water Supply", "com_location": "Vistaar Shubharambh, Patil nagar, balewadi   at 7 Avenues\r\n, Pune, Maharashtra" }, "geometry": { "type": "Point", "coordinates": [ 73.7623307, 18.5812664 ] } },
{ "type": "Feature", "properties": { "ccd_name": "Providing / repairing of storm water chamber and cover", "com_location": " In between Fifth mile old bus stop to tata guard room air force gate, along with Nagar Road, Lohgaon\r\n, Pune, Maharashtra" }, "geometry": { "type": "Point", "coordinates": [ 73.9187324, 18.5683171 ] } },
{ "type": "Feature", "properties": { "ccd_name": "NO water Supply", "com_location": "lane 20A Sayyed Nagar Hadapsar, Pune" }, "geometry": { "type": "Point", "coordinates": [ 73.9407582, 18.4971776 ] } },
{ "type": "Feature", "properties": { "ccd_name": "NO water Supply", "com_location": "High biss soc fl-B-3 Dhayari narhe rd pari companyrd nr NKGS bank 411041, Pune, Maharashtra" }, "geometry": { "type": "Point", "coordinates": [ 73.8154894, 18.4467117 ] } },
{ "type": "Feature", "properties": { "ccd_name": "Pipeline/Valve Leakage of PMC line", "com_location": "road number 13 near medicle tingre nagar pune 32" }, "geometry": { "type": "Point", "coordinates": [ 73.8952483, 18.5761707 ] } },
{ "type": "Feature", "properties": { "ccd_name": "Providing / repairing of storm water chamber and cover", "com_location": " Rajani Corner 2, Balajinagar, Pune 43" }, "geometry": { "type": "Point", "coordinates": [ 73.8619255, 18.4636183 ] } },
{ "type": "Feature", "properties": { "ccd_name": "Contamination / Turbid Water Problem", "com_location": "JOSHWILLA SAGAR PARK LANE NUMBER 1 WADGAONSHIRI OPPOSITE CHANDAN NAGAR WATER TANK , Pune, Maharashtra" }, "geometry": { "type": "Point", "coordinates": [ 73.9326304, 18.5606878 ] } },
{ "type": "Feature", "properties": { "ccd_name": "Others (Water Supply)", "com_location": " (Apte colony Hingane khurd Sinhgad road) \r\n, Pune, Maharashtra" }, "geometry": { "type": "Point", "coordinates": [ 73.8251529, 18.4798927 ] } },
{ "type": "Feature", "properties": { "ccd_name": "Pipeline/Valve Leakage of PMC line", "com_location": "alakanaMdA apArTameMTa javaLa sarve naMbara 573 bibevADI puNe 37" }, "geometry": { "type": "Point", "coordinates": [ 73.863686, 18.4746864 ] } },
{ "type": "Feature", "properties": { "ccd_name": "Contamination / Turbid Water Problem", "com_location": "Sahil Sarvadaa socity Kondhwa (khurd), Pune 411048" }, "geometry": { "type": "Point", "coordinates": [ 73.8904657, 18.465678 ] } },
{ "type": "Feature", "properties": { "ccd_name": "Stopping leakage of drainage water in Nalla / River", "com_location": "Madhavbag colony shivtirtha nagar paud road, Pune, Maharashtra" }, "geometry": { "type": "Point", "coordinates": [ 73.8088904, 18.5081173 ] } },
{ "type": "Feature", "properties": { "ccd_name": "NO water Supply", "com_location": "YERODA BHAT NAGAR, Pune, Maharashtra" }, "geometry": { "type": "Point", "coordinates": [ 73.88727, 18.5496296 ] } },
{ "type": "Feature", "properties": { "ccd_name": "NO water Supply", "com_location": "Due to less water supply and no water supply there is shortage of water in our society please arrange two tankers\r\nA.K.Kulkarni\r\nMango nest\r\nWadgaon Khurda\r\nNear Lokmat, Pune, Maharashtra" }, "geometry": { "type": "Point", "coordinates": [ 73.8052483, 18.4581076 ] } },
{ "type": "Feature", "properties": { "ccd_name": "No water as per time table", "com_location": "Prerna Society, next to Kulkarni Motors\r\nViman Nagar, Pune, Maharashtra" }, "geometry": { "type": "Point", "coordinates": [ 73.9209604, 18.5660363 ] } },
{ "type": "Feature", "properties": { "ccd_name": "NO water Supply", "com_location": "manjari phata maniratn angan society  manjri road , Pune, Maharashtra" }, "geometry": { "type": "Point", "coordinates": [ 73.9520091, 18.501438 ] } },
{ "type": "Feature", "properties": { "ccd_name": "NO water Supply", "com_location": " saptagirI sosAyaTI sarve naM. 51 AMbegAva khurda puNe-411046" }, "geometry": { "type": "Point", "coordinates": [ 73.8037286, 18.4571903 ] } },
{ "type": "Feature", "properties": { "ccd_name": "Providing / repairing of storm water chamber and cover", "com_location": "34,ghorapaDe peTha, \"Ara. epha.jaina\" dukAnAsamora., Pune, Maharashtra" }, "geometry": { "type": "Point", "coordinates": [ 73.9338651, 18.5595997 ] } },
{ "type": "Feature", "properties": { "ccd_name": "Providing / repairing of storm water chamber and cover", "com_location": "ranavAla mIDoja vAraje hAIve , Pune, Maharashtra" }, "geometry": { "type": "Point", "coordinates": [ 73.796834, 18.4864727 ] } },
{ "type": "Feature", "properties": { "ccd_name": "Providing / repairing of storm water chamber and cover", "com_location": "sarve naMbara 429/30 prabhAga kramAMka 28 DAyasa pla Ta gulaTekaDI lakShmI provijaNa sToara shejArI, Pune, Maharashtra" }, "geometry": { "type": "Point", "coordinates": [ 73.7799243, 18.4643011 ] } },
{ "type": "Feature", "properties": { "ccd_name": "NO water Supply", "com_location": "in front of Passport office Ganga orchid Phase 2, Mundhava., Pune, Maharashtra" }, "geometry": { "type": "Point", "coordinates": [ 73.9128349, 18.5314869 ] } },
{ "type": "Feature", "properties": { "ccd_name": "NO water Supply", "com_location": "13, Anupam Vihar , kenjale Nagar, Bibwewadi-Gangadham Road, Pune 411037 " }, "geometry": { "type": "Point", "coordinates": [ 73.8625582, 18.481906 ] } },
{ "type": "Feature", "properties": { "ccd_name": "NO water Supply", "com_location": "Katraj - Kondhwa Rd Mauli Nagar Mauli Garden, Pune, Maharashtra" }, "geometry": { "type": "Point", "coordinates": [ 73.867962, 18.4495552 ] } },
{ "type": "Feature", "properties": { "ccd_name": "NO water Supply", "com_location": "Kale padal suyog colony railway crossing near ambamata mandir , Pune, Maharashtra" }, "geometry": { "type": "Point", "coordinates": [ 73.9433299, 18.4869571 ] } },
{ "type": "Feature", "properties": { "ccd_name": "Cleaning of strom water chamber and nalla", "com_location": "Ambil odha Treasure Park society, off Pune satara road, Pune 411009" }, "geometry": { "type": "Point", "coordinates": [ 73.8573825, 18.4876626 ] } },
{ "type": "Feature", "properties": { "ccd_name": "Providing / repairing of storm water chamber and cover", "com_location": "savhe naM 36 kharADI roDa, Pune, Maharashtra" }, "geometry": { "type": "Point", "coordinates": [ 73.9353162, 18.5545385 ] } },
{ "type": "Feature", "properties": { "ccd_name": "Contamination / Turbid Water Problem", "com_location": "Near PMC Hospital, Sukhsagarnagar, Katraj\r\nPin Code - 411046\r\n, Pune, Maharashtra" }, "geometry": { "type": "Point", "coordinates": [ 73.8701119, 18.4565105 ] } },
{ "type": "Feature", "properties": { "ccd_name": "Clearing Water Logging on Road", "com_location": "No.1, rastapet, opp apollo cinema , Pune, Maharashtra" }, "geometry": { "type": "Point", "coordinates": [ 73.863595, 18.516915 ] } },
{ "type": "Feature", "properties": { "ccd_name": "Others (Water Supply)", "com_location": "Balaji pride sr no 40/1 dalvi nagar ambegaon bk pune 411046" }, "geometry": { "type": "Point", "coordinates": [ 73.8420784, 18.4513612 ] } },
{ "type": "Feature", "properties": { "ccd_name": "NO water Supply", "com_location": " Dhole patil Road PUNE " }, "geometry": { "type": "Point", "coordinates": [ 73.8767194, 18.5349483 ] } },
{ "type": "Feature", "properties": { "ccd_name": "NO water Supply", "com_location": "gokul nagar katraj kondwa road pune " }, "geometry": { "type": "Point", "coordinates": [ 73.8747982, 18.4498089 ] } },
{ "type": "Feature", "properties": { "ccd_name": "NO water Supply", "com_location": "road -11, kamal park, dhanori , Pune, Maharashtra" }, "geometry": { "type": "Point", "coordinates": [ 73.905013, 18.597729 ] } },
{ "type": "Feature", "properties": { "ccd_name": "No water as per time table", "com_location": "solitaire  housing society,kausar bagh,khowdwa khurd.pune 48.mb no 9422301372." }, "geometry": { "type": "Point", "coordinates": [ 73.8925654, 18.4747682 ] } },
{ "type": "Feature", "properties": { "ccd_name": "NO water Supply", "com_location": "sahakAranagara naMbara 1 Trejhara pArka lAkaDI pulAjavaLa gaNesha sosAyaTI, Pune, Maharashtra" }, "geometry": { "type": "Point", "coordinates": [ 73.9531189, 18.5646495 ] } },
{ "type": "Feature", "properties": { "ccd_name": "No water as per time table", "com_location": "chiMtAmaNI nagara haMDevADI roDa haDapasara lena naM 5, Pune, Maharashtra" }, "geometry": { "type": "Point", "coordinates": [ 73.9398595, 18.5627577 ] } },
{ "type": "Feature", "properties": { "ccd_name": "Providing / repairing of storm water chamber and cover", "com_location": " Sr no 37/4 shreenagar shivthirth app near purohit hospital dhankawadi last bus stop pune 43" }, "geometry": { "type": "Point", "coordinates": [ 73.8501744, 18.4654367 ] } },
{ "type": "Feature", "properties": { "ccd_name": "Low water pressure to Individual", "com_location": "69 Mayur colony shiv shankar apartment, Kothrud Pune" }, "geometry": { "type": "Point", "coordinates": [ 73.816519, 18.50562 ] } },
{ "type": "Feature", "properties": { "ccd_name": "Contamination / Turbid Water Problem", "com_location": "At 42 Ashok Nagar, Pune 7. I come under Ghole road ward office" }, "geometry": { "type": "Point", "coordinates": [ 73.835512, 18.542672 ] } },
{ "type": "Feature", "properties": { "ccd_name": "NO water Supply", "com_location": "surve no 16/4 matorshi nivas narayan nagar ambegaon pathar pune " }, "geometry": { "type": "Point", "coordinates": [ 73.8426415, 18.4587777 ] } },
{ "type": "Feature", "properties": { "ccd_name": "NO water Supply", "com_location": "Ashirwaad 27 Madhavbaug Society Shivtirthnagar Paud road Kothrud Pune 411038" }, "geometry": { "type": "Point", "coordinates": [ 73.808389600000012, 18.5105438 ] } },
{ "type": "Feature", "properties": { "ccd_name": "Others (Water Supply)", "com_location": "Address: Ashtavinayak Society No-2,DY Patil Road,Near Park Vista,Lohgaon ,Pune-411047" }, "geometry": { "type": "Point", "coordinates": [ 73.9216195, 18.6088401 ] } },
{ "type": "Feature", "properties": { "ccd_name": "NO water Supply", "com_location": "Dhayari sai dham, near prabhat press, Pune, Maharashtra" }, "geometry": { "type": "Point", "coordinates": [ 73.8215579, 18.4406328 ] } },
{ "type": "Feature", "properties": { "ccd_name": "Clearing Water Logging on Road", "com_location": "mukuMda sureMdra gADagILa\r\nphla.cTa 403,gajAnana dIpa sosAyaTI e viMga\r\nlena e-20 rAyakara nagara dhAyarI \r\npuNe 411041" }, "geometry": { "type": "Point", "coordinates": [ 73.811172, 18.450693 ] } },
{ "type": "Feature", "properties": { "ccd_name": "Clearing Water Logging on Road", "com_location": "Prabhakar apartment Acharya housing society plot no1 near ambedkar chowk., Pune, Maharashtra" }, "geometry": { "type": "Point", "coordinates": [ 73.7994399, 18.4871689 ] } },
{ "type": "Feature", "properties": { "ccd_name": "NO water Supply", "com_location": "Katraj Gokul nagar Shivshambho nagar, Pune, Maharashtra" }, "geometry": { "type": "Point", "coordinates": [ 73.8726185, 18.4462607 ] } },
{ "type": "Feature", "properties": { "ccd_name": "Providing / repairing of storm water chamber and cover", "com_location": "shivaraMjana sosAyaTI bAhera someshvaravADI mAtoshrI supara mArkeTa samora, Pune, Maharashtra" }, "geometry": { "type": "Point", "coordinates": [ 73.9531189, 18.5646495 ] } },
{ "type": "Feature", "properties": { "ccd_name": "Contamination / Turbid Water Problem", "com_location": "shashu colony lane -8, karve ngr , nr commins collage , Pune, Maharashtra" }, "geometry": { "type": "Point", "coordinates": [ 73.8114011, 18.4963261 ] } },
{ "type": "Feature", "properties": { "ccd_name": "Pipeline/Valve Leakage of PMC line", "com_location": "pauDa phATA, Pune, Maharashtra" }, "geometry": { "type": "Point", "coordinates": [ 73.8149657, 18.4469279 ] } },
{ "type": "Feature", "properties": { "ccd_name": "Clearing Water Logging on Road", "com_location": "Old sai baba mandir Kharadi road, Pune, Maharashtra" }, "geometry": { "type": "Point", "coordinates": [ 73.9339461, 18.5555367 ] } },
{ "type": "Feature", "properties": { "ccd_name": "Low water pressure to Individual", "com_location": "INDRANAGARI, Dahanukar colony, Near Cummins india,  Kothrud Pune " }, "geometry": { "type": "Point", "coordinates": [ 73.8095762, 18.4946945 ] } },
{ "type": "Feature", "properties": { "ccd_name": "Water Flowing / wastage", "com_location": "Near Pandhari Nagar, Kharadi, Pune, Maharashtra 411014\r\n" }, "geometry": { "type": "Point", "coordinates": [ 73.9407491, 18.5536472 ] } },
{ "type": "Feature", "properties": { "ccd_name": "Providing / repairing of storm water chamber and cover", "com_location": "Suvarna society sahakarnagar 1 pune 411009 Prabhag 35" }, "geometry": { "type": "Point", "coordinates": [ 73.8554516, 18.4783557 ] } },
{ "type": "Feature", "properties": { "ccd_name": "NO water Supply", "com_location": "At Sr.no 15 jamdade building near  manjari phata,\r\nhadapsar,pune 411028" }, "geometry": { "type": "Point", "coordinates": [ 73.9798256, 18.4652002 ] } },
{ "type": "Feature", "properties": { "ccd_name": "NO water Supply", "com_location": "kharadi jakat naka , ramchandra ngr, khandve ngr gali-2, lohagaon, Pune, Maharashtra" }, "geometry": { "type": "Point", "coordinates": [ 73.9509595, 18.5694327 ] } },
{ "type": "Feature", "properties": { "ccd_name": "Low water pressure to Individual", "com_location": "S.No. 124/2A, G 37 Gharkul Shree Co Op Hsg Society, Ganesh Mala, Sinhgad Road, Pune 30" }, "geometry": { "type": "Point", "coordinates": [ 73.8369441, 18.4962569 ] } },
{ "type": "Feature", "properties": { "ccd_name": "NO water Supply", "com_location": "Safe colony Block no 2 BT Kavade Road Near Uday Baug, Pune, Maharashtra" }, "geometry": { "type": "Point", "coordinates": [ 73.9084115, 18.5185693 ] } },
{ "type": "Feature", "properties": { "ccd_name": "NO water Supply", "com_location": "gujarAta kA.clanI,aditya bekarI kotharUDa puNe" }, "geometry": { "type": "Point", "coordinates": [ 73.8077917, 18.5063396 ] } },
{ "type": "Feature", "properties": { "ccd_name": "NO water Supply", "com_location": "DP Road Aundh, Pune, Maharashtra" }, "geometry": { "type": "Point", "coordinates": [ 73.8086325, 18.5606159 ] } },
{ "type": "Feature", "properties": { "ccd_name": "Pipeline/Valve Leakage of PMC line", "com_location": "at Kharadi Bypass chowk needed urgently...Ganga Nebula Society gate needed., Pune, Maharashtra" }, "geometry": { "type": "Point", "coordinates": [ 73.9089553, 18.5689074 ] } },
{ "type": "Feature", "properties": { "ccd_name": "NO water Supply", "com_location": "Amarnath Apartments D building Ganesh Nagar, Bopkhel, Pune, " }, "geometry": { "type": "Point", "coordinates": [ 73.8624292, 18.5890201 ] } },
{ "type": "Feature", "properties": { "ccd_name": "Pipeline/Valve Leakage of PMC line", "com_location": "shAsakIya phoTo jinko presa mudraNAlaya niyara sArvajanika shauchAlaya puNe sTeshana. " }, "geometry": { "type": "Point", "coordinates": [ 73.8712164, 18.5294909 ] } },
{ "type": "Feature", "properties": { "ccd_name": "NO water Supply", "com_location": "Ramnagar area, Bavdhan, Pune, Maharashtra" }, "geometry": { "type": "Point", "coordinates": [ 73.7786739, 18.5244584 ] } },
{ "type": "Feature", "properties": { "ccd_name": "Pipeline/Valve Leakage of PMC line", "com_location": "ghoDake sarApha dukAnA bAhera bijhIla.cnDa mArkeTa geTa shejArI, Pune, Maharashtra" }, "geometry": { "type": "Point", "coordinates": [ 73.8786239, 18.5246091 ] } },
{ "type": "Feature", "properties": { "ccd_name": "Providing / repairing of storm water chamber and cover", "com_location": "Somwar peth narpatgiri chowk outside Meera Cloth centre , Pune, Maharashtra" }, "geometry": { "type": "Point", "coordinates": [ 73.8676215, 18.5226619 ] } },
{ "type": "Feature", "properties": { "ccd_name": "Providing / repairing of storm water chamber and cover", "com_location": "haDapasara gAva ,\r\n vihAra chauka , puNe 28 ." }, "geometry": { "type": "Point", "coordinates": [ 73.9398818, 18.5009288 ] } },
{ "type": "Feature", "properties": { "ccd_name": "Pipeline/Valve Leakage of PMC line", "com_location": " AgArakara roDa, BMCC kA.clejajavaLa , jaina hA.csTela samora, shivAjInagara, yethe , Pune, Maharashtra" }, "geometry": { "type": "Point", "coordinates": [ 73.8351389, 18.5214097 ] } },
{ "type": "Feature", "properties": { "ccd_name": "NO water Supply", "com_location": "A6 Green park galli 2 and 3 prabhat road Shivaji Nagar, Pune, Maharashtra" }, "geometry": { "type": "Point", "coordinates": [ 73.84114, 18.513836 ] } },
{ "type": "Feature", "properties": { "ccd_name": "NO water Supply", "com_location": "A.K.K.Kulkarni\r\nMango nest Society\r\nNear Lokmat\r\nWadgaon Khurd, Pune, Maharashtra" }, "geometry": { "type": "Point", "coordinates": [ 73.8052483, 18.4581076 ] } },
{ "type": "Feature", "properties": { "ccd_name": "Solar, Vermiculture, Rainwater harvesting discount", "com_location": "C19B, Kumar Picasso, Sade Satra Nali Road, Hadapsar, Pune 411028" }, "geometry": { "type": "Point", "coordinates": [ 73.941586500000014, 18.5107219 ] } },
{ "type": "Feature", "properties": { "ccd_name": "Unauthorised tapping of water connection/Water Theft", "com_location": "Sr.No - 47/48 Mahendra Pokale Building, Behind Nalanda english Medium School, Dhayari, Pune - 411041" }, "geometry": { "type": "Point", "coordinates": [ 73.8148883, 18.4421673 ] } },
{ "type": "Feature", "properties": { "ccd_name": "NO water Supply", "com_location": "survey number 24/6 lonkar nagar keshav nagar mundwa pune 36 " }, "geometry": { "type": "Point", "coordinates": [ 73.947032, 18.528666 ] } },
{ "type": "Feature", "properties": { "ccd_name": "Others (Water Supply)", "com_location": "at Anant Residency , Hanuman Nagar , Keshavnagar ,Mundhawa, Pune, Maharashtra" }, "geometry": { "type": "Point", "coordinates": [ 73.9491749, 18.5348426 ] } },
{ "type": "Feature", "properties": { "ccd_name": "Contamination / Turbid Water Problem", "com_location": "Nirant society Kothari blocks bibwewadi. , Pune, Maharashtra" }, "geometry": { "type": "Point", "coordinates": [ 73.8608553, 18.4789148 ] } },
{ "type": "Feature", "properties": { "ccd_name": "Water Flowing / wastage", "com_location": ". Location- near 9 Yeshwant nagar, Sanjay Kakade house, Ganeshkhind Road, Pune 7. \r\n" }, "geometry": { "type": "Point", "coordinates": [ 73.8299011, 18.5412325 ] } },
{ "type": "Feature", "properties": { "ccd_name": "Cleaning of strom water chamber and nalla", "com_location": "Mutheshwar Mandir Lane end,Shanwar Peth, Pune, Maharashtra" }, "geometry": { "type": "Point", "coordinates": [ 73.8477014, 18.518321 ] } },
{ "type": "Feature", "properties": { "ccd_name": "Providing / repairing of storm water chamber and cover", "com_location": "This is opposite A/B wing of \"Nivedita Garden, Nibm Road, Kondawa, #Pune 411048\r\nLandmark next to Anandpuram diagnosis center.\r\n\r\n" }, "geometry": { "type": "Point", "coordinates": [ 73.8981168, 18.4789747 ] } },
{ "type": "Feature", "properties": { "ccd_name": "NO water Supply", "com_location": "Chwal no 39 ST Colony Parvati Darshan , Pune, Maharashtra" }, "geometry": { "type": "Point", "coordinates": [ 73.8567924, 18.4929466 ] } },
{ "type": "Feature", "properties": { "ccd_name": "Low water pressure to Individual", "com_location": "auMdha rAmabANa sosAyaTI, Pune, Maharashtra" }, "geometry": { "type": "Point", "coordinates": [ 73.9531189, 18.5646495 ] } },
{ "type": "Feature", "properties": { "ccd_name": "Providing / repairing of storm water chamber and cover", "com_location": "@PMCPune @magarpatta_city Hadapsar, Magarpatta city, opposite main gate bus stop. " }, "geometry": { "type": "Point", "coordinates": [ 73.9332071, 18.5151482 ] } },
{ "type": "Feature", "properties": { "ccd_name": "NO water Supply", "com_location": "sarve naMbara:42,mIThA nagara kondhawa khurd , Pune, Maharashtra" }, "geometry": { "type": "Point", "coordinates": [ 73.8865842, 18.4648237 ] } },
{ "type": "Feature", "properties": { "ccd_name": "Others (Water Supply)", "com_location": "sukhniwas housing society, sukhsagar nagar Pune. Ward no -38\r\n" }, "geometry": { "type": "Point", "coordinates": [ 73.8354919, 18.5160005 ] } },
{ "type": "Feature", "properties": { "ccd_name": "Pipeline/Valve Leakage of PMC line", "com_location": "Area H1 himanchan coopp society, mhb colony, yerwvda. Pune 411006" }, "geometry": { "type": "Point", "coordinates": [ 73.8974983, 18.5588728 ] } },
{ "type": "Feature", "properties": { "ccd_name": "NO water Supply", "com_location": "Dhayari Benkar nagar., Pune, Maharashtra" }, "geometry": { "type": "Point", "coordinates": [ 73.8139689, 18.4440444 ] } },
{ "type": "Feature", "properties": { "ccd_name": "NO water Supply", "com_location": "Tulsi vihar gaikwad nagar Aundh, Pune, Maharashtra" }, "geometry": { "type": "Point", "coordinates": [ 73.8051727, 18.5579192 ] } },
{ "type": "Feature", "properties": { "ccd_name": "Pipeline/Valve Leakage of PMC line", "com_location": "Katraj kondhwa road kheteshwar ashram road ganesh siddhi bangla near shiv parvati hall gokul nagar , Pune, Maharashtra" }, "geometry": { "type": "Point", "coordinates": [ 73.8738348, 18.4495599 ] } },
{ "type": "Feature", "properties": { "ccd_name": "Clearing Water Logging on Road", "com_location": "Sutarwadi pashan near smashan bhumi-411021, Pune, Maharashtra" }, "geometry": { "type": "Point", "coordinates": [ 73.7816154, 18.5419934 ] } },
{ "type": "Feature", "properties": { "ccd_name": "Pipeline/Valve Leakage of PMC line", "com_location": "Opp corporator pooja kodre house  ghorpadi road mundhwa, Pune, Maharashtra" }, "geometry": { "type": "Point", "coordinates": [ 73.913787, 18.5313264 ] } },
{ "type": "Feature", "properties": { "ccd_name": "Others (Water Supply)", "com_location": "VIKAS NAGAR WANORI PUNE 40" }, "geometry": { "type": "Point", "coordinates": [ 73.9018114, 18.4930803 ] } },
{ "type": "Feature", "properties": { "ccd_name": "Cleaning of strom water chamber and nalla", "com_location": "kalas Alandi road prabhag no 1 kusmade wasti, Pune, Maharashtra" }, "geometry": { "type": "Point", "coordinates": [ 73.8754405, 18.5865262 ] } },
{ "type": "Feature", "properties": { "ccd_name": "NO water Supply", "com_location": "Akshay Flora Thithe Nagar Kharadi Pune.. near Gulmohar Paradise Homes...behind Zensaar IT park.." }, "geometry": { "type": "Point", "coordinates": [ 73.9390131, 18.546816 ] } },
{ "type": "Feature", "properties": { "ccd_name": "NO water Supply", "com_location": "kharadi bypass tukaram nagar near Acolade Co-op Housing Society pune" }, "geometry": { "type": "Point", "coordinates": [ 73.9361921, 18.5471183 ] } },
{ "type": "Feature", "properties": { "ccd_name": "Pipeline/Valve Leakage of PMC line", "com_location": " Sr No 7A Hingne Khurd Pune 51\r\n" }, "geometry": { "type": "Point", "coordinates": [ 73.835504, 18.4743324 ] } },
{ "type": "Feature", "properties": { "ccd_name": "Others (Water Supply)", "com_location": "Rupayan Apartments\r\nParihar Chawk, Aundh\r\nBehind Oriental Bank of Commerce\r\n(OBC Bank Lane)\r\nPune- 7" }, "geometry": { "type": "Point", "coordinates": [ 73.8085513, 18.5599404 ] } },
{ "type": "Feature", "properties": { "ccd_name": "Pipeline/Valve Leakage of PMC line", "com_location": "1256 bhavani peth pune chamade galli kamdhenu building badade wada " }, "geometry": { "type": "Point", "coordinates": [ 73.8656851, 18.5127575 ] } },
{ "type": "Feature", "properties": { "ccd_name": "Providing / repairing of storm water chamber and cover", "com_location": "101 janwadi janta wasahat, Pune, Maharashtra" }, "geometry": { "type": "Point", "coordinates": [ 73.823441, 18.530405 ] } },
{ "type": "Feature", "properties": { "ccd_name": "Providing / repairing of storm water chamber and cover", "com_location": "DI pI roDa siddheshvara ha Tela chauka haDapasara pAna TaparI samora  , Pune, Maharashtra" }, "geometry": { "type": "Point", "coordinates": [ 73.9314646, 18.5191912 ] } },
{ "type": "Feature", "properties": { "ccd_name": "No water as per time table", "com_location": "Telco colony galli number 4 datta nagar ambegaon budruk pune 46 " }, "geometry": { "type": "Point", "coordinates": [ 73.8444793, 18.4441804 ] } },
{ "type": "Feature", "properties": { "ccd_name": "NO water Supply", "com_location": "Ganga orchad faze 2 mundhawa road , Pune, Maharashtra" }, "geometry": { "type": "Point", "coordinates": [ 73.930683, 18.5334758 ] } },
{ "type": "Feature", "properties": { "ccd_name": "NO water Supply", "com_location": "\r\nLOHEGAON GURUDWARA COLONY RAJIV GANDHI LANE NO 17 , Pune, Maharashtra" }, "geometry": { "type": "Point", "coordinates": [ 73.9275318, 18.5932724 ] } },
{ "type": "Feature", "properties": { "ccd_name": "Others (Water Supply)", "com_location": "Sr no 24 /25 maidan balu waghmare ghar bopodi pune 411020" }, "geometry": { "type": "Point", "coordinates": [ 73.8361033, 18.5705363 ] } },
{ "type": "Feature", "properties": { "ccd_name": "NO water Supply", "com_location": "Green Park Rd, Meeta Nagar, Kondhwa, Pune," }, "geometry": { "type": "Point", "coordinates": [ 73.8861803, 18.4659968 ] } },
{ "type": "Feature", "properties": { "ccd_name": "Clearing Water Logging on Road", "com_location": "Prabhag no 6 Mother teresa  nagar  yerwada 6  shabnam  hotel javal , Pune, Maharashtra" }, "geometry": { "type": "Point", "coordinates": [ 73.8874027, 18.5457748 ] } },
{ "type": "Feature", "properties": { "ccd_name": "Clearing Water Logging on Road", "com_location": "745 bhawani peth kumar premier building  Chudaman Talim \r\nOpp. Taj bakery \r\nPune" }, "geometry": { "type": "Point", "coordinates": [ 73.8746269, 18.5084085 ] } },
{ "type": "Feature", "properties": { "ccd_name": "Clearing Water Logging on Road (HO)", "com_location": "r on sancheti railway bridge Pune" }, "geometry": { "type": "Point", "coordinates": [ 73.8449566, 18.5091044 ] } },
{ "type": "Feature", "properties": { "ccd_name": "NO water Supply", "com_location": " at Mont Vert Belrose Society, Baner Pashan Link Road., Pune, Maharashtra" }, "geometry": { "type": "Point", "coordinates": [ 73.7955817, 18.5475146 ] } },
{ "type": "Feature", "properties": { "ccd_name": "Pipeline/Valve Leakage of PMC line", "com_location": "S. No. 35, Colony no. 8  Kale Padal,  Hadapsar, Pune 28.  " }, "geometry": { "type": "Point", "coordinates": [ 73.9324059, 18.4909327 ] } },
{ "type": "Feature", "properties": { "ccd_name": "NO water Supply", "com_location": "Deshmukh Plaza, A/11 Sai Nagar, Damodar Nagar., Pune, Maharashtra" }, "geometry": { "type": "Point", "coordinates": [ 73.8361254, 18.4746213 ] } },
{ "type": "Feature", "properties": { "ccd_name": "Contamination / Turbid Water Problem", "com_location": "in Sayyed nagar lane  no. 14A Mohammadwadi road, Hadapsar, 411028, Pune, Maharashtra" }, "geometry": { "type": "Point", "coordinates": [ 73.9310719, 18.4867114 ] } },
{ "type": "Feature", "properties": { "ccd_name": "Stopping leakage of drainage water in Nalla / River", "com_location": "Behind Audi showroom, next to DSK Vidyanagri, sus road, baner, Pune, Maharashtra" }, "geometry": { "type": "Point", "coordinates": [ 73.770368, 18.5488525 ] } },
{ "type": "Feature", "properties": { "ccd_name": "Solar, Vermiculture, Rainwater harvesting discount", "com_location": "C-15/A, KUMAR PICASSO,\r\nS. No 201 (part), Sadesatranali, Pune, Maharashtra" }, "geometry": { "type": "Point", "coordinates": [ 73.941586500000014, 18.5107219 ] } },
{ "type": "Feature", "properties": { "ccd_name": "NO water Supply", "com_location": "pmc colony ghorpadi peth  , Pune, Maharashtra" }, "geometry": { "type": "Point", "coordinates": [ 73.8637124, 18.503812 ] } },
{ "type": "Feature", "properties": { "ccd_name": "Pipeline/Valve Leakage of PMC line", "com_location": "chamunda sweet sukhsagar nagar  bhag 2, Pune, Maharashtra" }, "geometry": { "type": "Point", "coordinates": [ 73.8731123, 18.4558217 ] } },
{ "type": "Feature", "properties": { "ccd_name": "Pipeline/Valve Leakage of PMC line", "com_location": "dhayari gaon sitai ngr , Pune, Maharashtra" }, "geometry": { "type": "Point", "coordinates": [ 73.81031, 18.447772 ] } },
{ "type": "Feature", "properties": { "ccd_name": "NO water Supply", "com_location": "Kumar Sahawas, Baner Pashan Link Road, Pashan 411021, Pune, Maharashtra" }, "geometry": { "type": "Point", "coordinates": [ 73.793313, 18.5482884 ] } },
{ "type": "Feature", "properties": { "ccd_name": "NO water Supply", "com_location": "Sr no 67 opp hans residency gokul nagar dhanori 411015, Pune, Maharashtra" }, "geometry": { "type": "Point", "coordinates": [ 73.8892683, 18.5907599 ] } },
{ "type": "Feature", "properties": { "ccd_name": "Contamination / Turbid Water Problem", "com_location": "Sr. No. 12, near Harmal Hardware, Bhagava zenda chowk, opp. To Lahuji wastad hall, Laxminagar, Yerwada, Pune 411006." }, "geometry": { "type": "Point", "coordinates": [ 73.8835009, 18.5494689 ] } },
{ "type": "Feature", "properties": { "ccd_name": "Clearing Water Logging on Road", "com_location": "sudarshan heritage 150/A/2/1 opposite magarpatta  south gate hadapsar pune " }, "geometry": { "type": "Point", "coordinates": [ 73.929083, 18.5073188 ] } },
{ "type": "Feature", "properties": { "ccd_name": "NO water Supply", "com_location": "Aaryma Society, Someshwawadi, Pashan, Pune, Maharashtra" }, "geometry": { "type": "Point", "coordinates": [ 73.8022046, 18.5466777 ] } },
{ "type": "Feature", "properties": { "ccd_name": "Providing / repairing of storm water chamber and cover", "com_location": "C/O PRABHAT MEDICO\r\nLAW COLLEGE ROAD,PUNE - 04\r\nMob : +91 99601 80455" }, "geometry": { "type": "Point", "coordinates": [ 73.829016, 18.5115291 ] } },
{ "type": "Feature", "properties": { "ccd_name": "Water Flowing / wastage", "com_location": " D-mart at Sasanenagar, Hadapsar\r\n, Pune, Maharashtra" }, "geometry": { "type": "Point", "coordinates": [ 73.934843, 18.49372 ] } },
{ "type": "Feature", "properties": { "ccd_name": "Pipeline/Valve Leakage of PMC line", "com_location": "Raghav das school Warje Pune 411052" }, "geometry": { "type": "Point", "coordinates": [ 73.8014552, 18.4802288 ] } },
{ "type": "Feature", "properties": { "ccd_name": "Low water pressure to Individual", "com_location": "A-2 101 kanchandan soc shiv tirth nagar paud road kothrud pune 411038" }, "geometry": { "type": "Point", "coordinates": [ 73.8084545, 18.5101479 ] } },
{ "type": "Feature", "properties": { "ccd_name": "Water Flowing / wastage", "com_location": "behind karol bagh restaurant at baner pashan link road, Pune, Maharashtra" }, "geometry": { "type": "Point", "coordinates": [ 73.7912895, 18.5491346 ] } },
{ "type": "Feature", "properties": { "ccd_name": "Providing / repairing of storm water chamber and cover", "com_location": "parla sosAyaTI bAlevADI puNe 411045 " }, "geometry": { "type": "Point", "coordinates": [ 73.7706807, 18.5788913 ] } },
{ "type": "Feature", "properties": { "ccd_name": "NO water Supply", "com_location": "67 Budhwar Peth, Tulshibaug Near old Kaware Cold Drink House , Pune, Maharashtra" }, "geometry": { "type": "Point", "coordinates": [ 73.85514, 18.5149276 ] } },
{ "type": "Feature", "properties": { "ccd_name": "NO water Supply", "com_location": ", pattA:- mahAlakShmI resiDensI, jadhAvanagara ka rnara, rAyakara maLA, dhAyarI, puNe 411041\r\n" }, "geometry": { "type": "Point", "coordinates": [ 73.8095288, 18.4331254 ] } },
{ "type": "Feature", "properties": { "ccd_name": "Cleaning of strom water chamber and nalla", "com_location": "1131, kenjale banglow model colony road, punervasu chikisyalayapune " }, "geometry": { "type": "Point", "coordinates": [ 73.8423096, 18.5284134 ] } },
{ "type": "Feature", "properties": { "ccd_name": "Water Flowing / wastage", "com_location": "Beside Garden coart Hotel, Next to the Transformer unit., Pune, Maharashtra" }, "geometry": { "type": "Point", "coordinates": [ 73.7882691, 18.5046829 ] } },
{ "type": "Feature", "properties": { "ccd_name": "NO water Supply", "com_location": "217 mangalwar peth hajrat khaja nagar Anjuman trun mandal, Pune, Maharashtra" }, "geometry": { "type": "Point", "coordinates": [ 73.8614693, 18.5274151 ] } },
{ "type": "Feature", "properties": { "ccd_name": "Clearing Water Logging on Road", "com_location": " Rukmini Towers (Salunke Vihar Telephone exchange building, next to Lonkar Garden on the road between Salunke Vihar Road and Sunshree., Pune, Maharashtra" }, "geometry": { "type": "Point", "coordinates": [ 73.9018205, 18.4797785 ] } },
{ "type": "Feature", "properties": { "ccd_name": "Others (Water Supply)", "com_location": "kasaba peth police chauki , Pune, Maharashtra" }, "geometry": { "type": "Point", "coordinates": [ 73.8565295, 18.5207489 ] } },
{ "type": "Feature", "properties": { "ccd_name": "Others (Water Supply)", "com_location": "sr no 199 near durga mandir lane 3 yumunananagr viman nagr 411014, Pune, Maharashtra" }, "geometry": { "type": "Point", "coordinates": [ 73.9143179, 18.567929 ] } },
{ "type": "Feature", "properties": { "ccd_name": "Removal / Installation of new water meters", "com_location": "sarve kra.13/1,ghara kra.1049,sukhasAgara nagara,preraNA narsiMga homa shejArI,kAtraja,puNe-411046" }, "geometry": { "type": "Point", "coordinates": [ 73.8709194, 18.4597287 ] } },
{ "type": "Feature", "properties": { "ccd_name": "Providing / repairing of storm water chamber and cover", "com_location": "LANE NO 16 A SAYYED NAGAR MOHAMMEDWADI RD HADAPSAR , Pune, Maharashtra" }, "geometry": { "type": "Point", "coordinates": [ 73.9299264, 18.4842962 ] } },
{ "type": "Feature", "properties": { "ccd_name": "NO water Supply", "com_location": "sa. na. 175/3A/2, navayuga ka lanI, bhekarAI nagara, phurasuMgI, Pune, Maharashtra" }, "geometry": { "type": "Point", "coordinates": [ 73.9521468, 18.4819581 ] } },
{ "type": "Feature", "properties": { "ccd_name": "NO water Supply", "com_location": "Sanjay park lane no 3 airprt rd pune 32 " }, "geometry": { "type": "Point", "coordinates": [ 73.901062, 18.573032 ] } },
{ "type": "Feature", "properties": { "ccd_name": "NO water Supply", "com_location": "DS vishwa rajani pratik nagar yerwada, Pune, Maharashtra" }, "geometry": { "type": "Point", "coordinates": [ 73.8832011, 18.5657821 ] } },
{ "type": "Feature", "properties": { "ccd_name": "Providing / repairing of storm water chamber and cover", "com_location": " nr garage near unity bakery market yard\r\n, Pune, Maharashtra" }, "geometry": { "type": "Point", "coordinates": [ 73.8711607, 18.4876597 ] } },
{ "type": "Feature", "properties": { "ccd_name": "Providing / repairing of storm water chamber and cover", "com_location": "The bangla chowk besides of ranveer mitra mandal chowk shivaji nagar\r\n, Pune, Maharashtra" }, "geometry": { "type": "Point", "coordinates": [ 73.8540601, 18.4973149 ] } },
{ "type": "Feature", "properties": { "ccd_name": "Clearing Water Logging on Road", "com_location": "Dreams Elina, Satavnagar, Handewadi Road, Pune-411028" }, "geometry": { "type": "Point", "coordinates": [ 73.9332266, 18.4743795 ] } },
{ "type": "Feature", "properties": { "ccd_name": "Clearing Water Logging on Road (HO)", "com_location": " bhosale park , sahakar nager,. It says taljai wall breached, Pune, Maharashtra" }, "geometry": { "type": "Point", "coordinates": [ 73.8435303, 18.486419 ] } },
{ "type": "Feature", "properties": { "ccd_name": "Others (Water Supply)", "com_location": "Vaidehi Enclave Bungalow Society,  Bavdhan, Pune, Maharashtra" }, "geometry": { "type": "Point", "coordinates": [ 73.7770178, 18.5137207 ] } },
{ "type": "Feature", "properties": { "ccd_name": "Others (Water Supply)", "com_location": "sarve naM. 199, 204, 205, 206/1 ANi 209/1 pla Ta na. 71 yethIla alphA premio sosAyaTI vimAnanagara, puNe" }, "geometry": { "type": "Point", "coordinates": [ 73.9152987, 18.5651295 ] } },
{ "type": "Feature", "properties": { "ccd_name": "Pipeline/Valve Leakage of PMC line", "com_location": "Sr no 4 shankar darshan housing society gali no 3 near teen hatti chowk dhankawadi pune 411043" }, "geometry": { "type": "Point", "coordinates": [ 73.8520563, 18.4675168 ] } },
{ "type": "Feature", "properties": { "ccd_name": "Others (Water Supply)", "com_location": "sukhsagar nagar pavan classic pune" }, "geometry": { "type": "Point", "coordinates": [ 73.8680973, 18.4552056 ] } },
{ "type": "Feature", "properties": { "ccd_name": "NO water Supply", "com_location": " Mont Vert Belrose Society, Pune, Maharashtra" }, "geometry": { "type": "Point", "coordinates": [ 73.7955817, 18.5475146 ] } },
{ "type": "Feature", "properties": { "ccd_name": "NO water Supply", "com_location": "sarve no 73/312 mohommad wadi dp road hadapsar pune 28 behind ashoknagar building " }, "geometry": { "type": "Point", "coordinates": [ 73.9292521, 18.4834152 ] } },
{ "type": "Feature", "properties": { "ccd_name": "Providing / repairing of storm water chamber and cover", "com_location": "tuShAra hAITa bAhera, rastA 7 , DahANUkara ka lanI, kotharUDa, puNe 38." }, "geometry": { "type": "Point", "coordinates": [ 73.8112592, 18.4932127 ] } },
{ "type": "Feature", "properties": { "ccd_name": "Cleaning of strom water chamber and nalla", "com_location": " besides Balewadi Bus station on Highway side?, Pune, Maharashtra" }, "geometry": { "type": "Point", "coordinates": [ 73.7706807, 18.5788913 ] } },
{ "type": "Feature", "properties": { "ccd_name": "Stopping leakage of drainage water in Nalla / River", "com_location": "Gangadham Phase II, Pune, Maharashtra" }, "geometry": { "type": "Point", "coordinates": [ 73.876455, 18.4804369 ] } },
{ "type": "Feature", "properties": { "ccd_name": "NO water Supply", "com_location": "Keshavnagar, Pune, Maharashtra" }, "geometry": { "type": "Point", "coordinates": [ 73.9495064, 18.5289752 ] } },
{ "type": "Feature", "properties": { "ccd_name": "Others (Water Supply)", "com_location": "Bhama Ashked dam water pipeline is laying on Rajaram Patil nagar kharadi, Pune, Maharashtra" }, "geometry": { "type": "Point", "coordinates": [ 73.9537885, 18.5589043 ] } },
{ "type": "Feature", "properties": { "ccd_name": "Unauthorised tapping of water connection/Water Theft", "com_location": "SERVE NO 203/2B RAJIV NAGAR LANE NO 2  SOUTH VIMAN NAGAR PUNE 14 LOHGAON\r\n" }, "geometry": { "type": "Point", "coordinates": [ 73.9109868, 18.566472 ] } },
{ "type": "Feature", "properties": { "ccd_name": "NO water Supply", "com_location": "Whispering Winds Phase 1, Next to Crystal Garden, Baner-Pashan Link Road, Pune, Maharashtra" }, "geometry": { "type": "Point", "coordinates": [ 73.7945758, 18.5491591 ] } },
{ "type": "Feature", "properties": { "ccd_name": "NO water Supply", "com_location": " Amar Srushti society behind fish farm Hadapsar Pune 411028" }, "geometry": { "type": "Point", "coordinates": [ 73.95686, 18.5022081 ] } },
{ "type": "Feature", "properties": { "ccd_name": "Providing / repairing of storm water chamber and cover", "com_location": "Address 116 /3 sus road near sbi bank near gujar mastani house., Pune, Maharashtra" }, "geometry": { "type": "Point", "coordinates": [ 73.791201, 18.542171 ] } },
{ "type": "Feature", "properties": { "ccd_name": "Providing / repairing of storm water chamber and cover", "com_location": "Bharati vidyapith near more vidyalay gate, Pune, Maharashtra" }, "geometry": { "type": "Point", "coordinates": [ 73.843219600000012, 18.5117869 ] } },
{ "type": "Feature", "properties": { "ccd_name": "NO water Supply", "com_location": "253/10 baner park housing society opp Aundh Telephone Exchange pune 411007" }, "geometry": { "type": "Point", "coordinates": [ 73.8009837, 18.5545956 ] } },
{ "type": "Feature", "properties": { "ccd_name": "Others (Water Supply)", "com_location": "234 ghorpade peth namrata building shejari , Pune, Maharashtra" }, "geometry": { "type": "Point", "coordinates": [ 73.8662936, 18.5020348 ] } },
{ "type": "Feature", "properties": { "ccd_name": "Clearing Water Logging on Road", "com_location": " Swapna Saankul society Porwal Road Lohegaon , Pune, Maharashtra" }, "geometry": { "type": "Point", "coordinates": [ 73.9129054, 18.6050576 ] } },
{ "type": "Feature", "properties": { "ccd_name": "Cleaning of strom water chamber and nalla", "com_location": "vakIla nagara sosAyaTI, paTavardhana bAga, Pune, Maharashtra" }, "geometry": { "type": "Point", "coordinates": [ 73.8299634, 18.5022378 ] } },
{ "type": "Feature", "properties": { "ccd_name": "Pipeline/Valve Leakage of PMC line", "com_location": "63 somwar peth Pune  avdumber mitr Mandal javal Pune 11" }, "geometry": { "type": "Point", "coordinates": [ 73.8633831, 18.5217234 ] } },
{ "type": "Feature", "properties": { "ccd_name": "Pipeline/Valve Leakage of PMC line", "com_location": "frant of adrsha nagar near hindavi bangala dadaji vasti lohgoan wagholi road , Pune, Maharashtra" }, "geometry": { "type": "Point", "coordinates": [ 73.9322783, 18.5956902 ] } },
{ "type": "Feature", "properties": { "ccd_name": "Water Flowing / wastage", "com_location": " shAhU mahArAja chauka vishrAMtavADI, Pune, Maharashtra" }, "geometry": { "type": "Point", "coordinates": [ 73.8782079, 18.5726054 ] } },
{ "type": "Feature", "properties": { "ccd_name": "Solar, Vermiculture, Rainwater harvesting discount", "com_location": "Property no. P/K/81/00333000\r\nC15B, Kumar Picasso CD CHSL, Sadesatranali, Hadapsar, Pune 411028" }, "geometry": { "type": "Point", "coordinates": [ 73.941586500000014, 18.5107219 ] } },
{ "type": "Feature", "properties": { "ccd_name": "Providing / repairing of storm water chamber and cover", "com_location": "831 bhavAnI peTha padamajI polis chokI javaLa, Pune, Maharashtra" }, "geometry": { "type": "Point", "coordinates": [ 73.8719908, 18.51057 ] } },
{ "type": "Feature", "properties": { "ccd_name": "NO water Supply", "com_location": "saptagirI sosAyaTI , Pune, Maharashtra" }, "geometry": { "type": "Point", "coordinates": [ 73.9531189, 18.5646495 ] } },
{ "type": "Feature", "properties": { "ccd_name": "NO water Supply", "com_location": "Kunal Aspiree, Balewadi, Pune, Maharashtra" }, "geometry": { "type": "Point", "coordinates": [ 73.7762839, 18.579502 ] } },
{ "type": "Feature", "properties": { "ccd_name": "Providing / repairing of storm water chamber and cover", "com_location": "naLasTa pa chauka, Pune, Maharashtra" }, "geometry": { "type": "Point", "coordinates": [ 73.8786239, 18.5246091 ] } },
{ "type": "Feature", "properties": { "ccd_name": "Others (Water Supply)", "com_location": "lena na 7,gurukRRipA ilekTra nika chA mAge ,sukhasAgara nagara 2 kAtraja puNe 411046" }, "geometry": { "type": "Point", "coordinates": [ 73.8564177, 18.4514894 ] } },
{ "type": "Feature", "properties": { "ccd_name": "Providing / repairing of storm water chamber and cover", "com_location": "Kothrud, opposite ved bhavan. This chamber lid is broken. Pl repair asap. Accident prone area at night., Pune, Maharashtra" }, "geometry": { "type": "Point", "coordinates": [ 73.7880728, 18.506858 ] } },
{ "type": "Feature", "properties": { "ccd_name": "Providing / repairing of storm water chamber and cover", "com_location": " MANISH PARK FACE 3 NIBM ROAD KONDHWA PUNE " }, "geometry": { "type": "Point", "coordinates": [ 73.8927072, 18.4757359 ] } },
{ "type": "Feature", "properties": { "ccd_name": "NO water Supply", "com_location": "akash deep apt. sinhgad rd. muktai garden , Pune, Maharashtra" }, "geometry": { "type": "Point", "coordinates": [ 73.8424534, 18.4878011 ] } },
{ "type": "Feature", "properties": { "ccd_name": "Others (Water Supply)", "com_location": "Rupayan Apartments\r\nParihar Chawk, Aundh\r\nBehind Oriental Bank of Commerce\r\n(OBC Bank Lane)\r\nPune - " }, "geometry": { "type": "Point", "coordinates": [ 73.8085513, 18.5599404 ] } },
{ "type": "Feature", "properties": { "ccd_name": "Contamination / Turbid Water Problem", "com_location": "16/1 Shiv Malhar Shramit Housing Socity Rohan Garima Apartments Senapati Bapat Rd , Pune, Maharashtra" }, "geometry": { "type": "Point", "coordinates": [ 73.8260371, 18.5333315 ] } },
{ "type": "Feature", "properties": { "ccd_name": "Pipeline/Valve Leakage of PMC line", "com_location": "Datta Mandir & Siddhivinayak Temple Shankar Beldare patil Jambulwadi Rd, Dattanagar, Ambegaon BK, Pune, " }, "geometry": { "type": "Point", "coordinates": [ 73.8456148, 18.4478554 ] } },
{ "type": "Feature", "properties": { "ccd_name": "Water Flowing / wastage", "com_location": "plot no 19 dheya Purti Society  near dhankawadi smashan bhumi smor pune 411043." }, "geometry": { "type": "Point", "coordinates": [ 73.8507416, 18.4624984 ] } },
{ "type": "Feature", "properties": { "ccd_name": "Providing / repairing of storm water chamber and cover", "com_location": "AbanAve ALI , phurasuMgI , Pune, Maharashtra" }, "geometry": { "type": "Point", "coordinates": [ 73.9803095, 18.4716623 ] } },
{ "type": "Feature", "properties": { "ccd_name": "No water as per time table", "com_location": "Friend Enclave society mundhwa pune 36" }, "geometry": { "type": "Point", "coordinates": [ 73.9251223, 18.5330928 ] } },
{ "type": "Feature", "properties": { "ccd_name": "Clearing Water Logging on Road", "com_location": "near Kumar Padmaja, DP Road, Kothrud\r\n , Pune, Maharashtra" }, "geometry": { "type": "Point", "coordinates": [ 73.8020331, 18.499778 ] } },
{ "type": "Feature", "properties": { "ccd_name": "NO water Supply", "com_location": "colony no 8 sr no 35 marutirav kale manapa highschool samor kalepadal hadapsar , Pune, Maharashtra" }, "geometry": { "type": "Point", "coordinates": [ 73.8616092, 18.5910688 ] } },
{ "type": "Feature", "properties": { "ccd_name": "Water Flowing / wastage", "com_location": "taLajAI mAtA maMdirAshejArIla , Pune, Maharashtra" }, "geometry": { "type": "Point", "coordinates": [ 73.8444187, 18.4762301 ] } },
{ "type": "Feature", "properties": { "ccd_name": "Clearing Water Logging on Road", "com_location": " prayejA siTI samorIla rastA , Pune, Maharashtra" }, "geometry": { "type": "Point", "coordinates": [ 73.8135672, 18.4670985 ] } },
{ "type": "Feature", "properties": { "ccd_name": "NO water Supply", "com_location": "Janaeadi janta Vasahat near Ushatai lokhande samaj mandir sb road Pune 16" }, "geometry": { "type": "Point", "coordinates": [ 73.8299152, 18.5304378 ] } },
{ "type": "Feature", "properties": { "ccd_name": "Others (Water Supply)", "com_location": " sno 5, pawar wasti, keshawnagar mundhwa pune 36" }, "geometry": { "type": "Point", "coordinates": [ 73.9402709, 18.5345963 ] } },
{ "type": "Feature", "properties": { "ccd_name": "Motor / Pump on water line of pmc", "com_location": "Prathamesh Park, LAne 2A, Plot no 29, MAULI Bunglow., Pune, Maharashtra" }, "geometry": { "type": "Point", "coordinates": [ 73.7867728, 18.5648425 ] } },
{ "type": "Feature", "properties": { "ccd_name": "Providing / repairing of storm water chamber and cover", "com_location": "sadara phoTo hA vishrAMtavADI bhAgAtIla vajreshvarI maMdira samorIla rastyAvarachA Ahe yA cheMbarache durdashA jhAlI Ahe te tvarita nITa karUna ghyAvI hI vinaMtI, Pune, Maharashtra" }, "geometry": { "type": "Point", "coordinates": [ 73.8786239, 18.5246091 ] } },
{ "type": "Feature", "properties": { "ccd_name": "Clearing Water Logging on Road", "com_location": " in Kharadi? This is right outside gate 2 of forest county and next to gate of Gulmohar Queenstown.\r\n, Pune, Maharashtra" }, "geometry": { "type": "Point", "coordinates": [ 73.9507757, 18.5580607 ] } },
{ "type": "Feature", "properties": { "ccd_name": "Water misuse (washing Center/Spreading)", "com_location": "Sasane Nagar,  Vardhaman township C10 building. , Pune, Maharashtra" }, "geometry": { "type": "Point", "coordinates": [ 73.935531, 18.4887001 ] } },
{ "type": "Feature", "properties": { "ccd_name": "Providing / repairing of storm water chamber and cover", "com_location": "Sr no 27 Hotel Relax tupare vasti Thite Nagar, Kharadi, Pune, " }, "geometry": { "type": "Point", "coordinates": [ 73.9403908, 18.5443244 ] } },
{ "type": "Feature", "properties": { "ccd_name": "Pipeline/Valve Leakage of PMC line", "com_location": "Kondhwa budruk  near nana nani park, prime rose co-operative housing society pune 411048\r\n" }, "geometry": { "type": "Point", "coordinates": [ 73.9030108, 18.4685721 ] } },
{ "type": "Feature", "properties": { "ccd_name": "Providing / repairing of storm water chamber and cover", "com_location": " Vimannagar, Opposite Hotel Brookside, Disha skyline gate, , Pune, Maharashtra" }, "geometry": { "type": "Point", "coordinates": [ 73.9189632, 18.5658027 ] } },
{ "type": "Feature", "properties": { "ccd_name": "Cleaning of strom water chamber and nalla", "com_location": "09, National housing society, Aundh., Pune, Maharashtra" }, "geometry": { "type": "Point", "coordinates": [ 73.8106603, 18.5513782 ] } },
{ "type": "Feature", "properties": { "ccd_name": "Providing / repairing of storm water chamber and cover", "com_location": "puNe muMbaI hAyave, sarvhisa roDa ,vishvAsa ha Tela va shauryashrI ha la vaDagAva javaLa," }, "geometry": { "type": "Point", "coordinates": [ 73.8632083, 18.4713615 ] } },
{ "type": "Feature", "properties": { "ccd_name": "NO water Supply", "com_location": "Vihana society, keshavnagar, mudhwa , Pune, Maharashtra" }, "geometry": { "type": "Point", "coordinates": [ 73.9447093, 18.5306035 ] } },
{ "type": "Feature", "properties": { "ccd_name": "NO water Supply", "com_location": " asha nagar vaidwadi pue 16, Pune, Maharashtra" }, "geometry": { "type": "Point", "coordinates": [ 73.9205509, 18.5029883 ] } },
{ "type": "Feature", "properties": { "ccd_name": "NO water Supply", "com_location": "plot number 60 61 sakore nagar near lalvani plaza viman nagar pune 14" }, "geometry": { "type": "Point", "coordinates": [ 73.9080459, 18.5622433 ] } },
{ "type": "Feature", "properties": { "ccd_name": "Pipeline/Valve Leakage of PMC line", "com_location": "Baner Pashan Link road Near uttam super Store Sant tukaram school, Pune, Maharashtra" }, "geometry": { "type": "Point", "coordinates": [ 73.7914388, 18.5507632 ] } },
{ "type": "Feature", "properties": { "ccd_name": "Others (Water Supply)", "com_location": "Rupayan Apartments\r\nParihar Chawk, Aundh\r\nBehind Oriental Bank of Commerce\r\n(OBC Bank Lane)\r\nPune 7" }, "geometry": { "type": "Point", "coordinates": [ 73.8085513, 18.5599404 ] } },
{ "type": "Feature", "properties": { "ccd_name": "Pipeline/Valve Leakage of PMC line", "com_location": "S no 59, Gajanan Maharaj Nagar, Near Balaji Super Market opposite Mahalaxmi Aaprtment. Ganga Dham Shatrunjay Road, Kondhwa Bk. Pune 411048" }, "geometry": { "type": "Point", "coordinates": [ 73.8776288, 18.4597379 ] } },
{ "type": "Feature", "properties": { "ccd_name": "NO water Supply", "com_location": "Thite Nagar, Kharadi, Pune " }, "geometry": { "type": "Point", "coordinates": [ 73.9403908, 18.5443244 ] } },
{ "type": "Feature", "properties": { "ccd_name": "NO water Supply", "com_location": "SRN 46, Malwadi wasti lane no 4 Lohgaon Pune " }, "geometry": { "type": "Point", "coordinates": [ 73.9389213, 18.5053012 ] } },
{ "type": "Feature", "properties": { "ccd_name": "NO water Supply", "com_location": " phurasuMgI gAvAtIla harapaLe ALI, gaNesha maMdirAjavaLa \r\n, Pune, Maharashtra" }, "geometry": { "type": "Point", "coordinates": [ 73.9415389, 18.4999912 ] } },
{ "type": "Feature", "properties": { "ccd_name": "NO water Supply", "com_location": "Amar Srushti Society, Vithal nagar, near Matsya kendra, Old canol, Survey No. 216/217A/279. Pune Solapur Road. Hadapsar Pune 411028." }, "geometry": { "type": "Point", "coordinates": [ 73.9297958, 18.5018588 ] } },
{ "type": "Feature", "properties": { "ccd_name": "Unauthorised tapping of water connection/Water Theft", "com_location": "Sr No. 62, Lane no-10, Landmark Apartments,  Saibaba nagar, Kondhwa khurd, Pune-411048." }, "geometry": { "type": "Point", "coordinates": [ 73.883755, 18.4684142 ] } },
{ "type": "Feature", "properties": { "ccd_name": "Pipeline/Valve Leakage of PMC line", "com_location": " in Homi Bhabha Road \r\n1. In front of Loyola Highschool gate.\r\n2. Also at main gate if Loyola Highschool.\r\n3. From CID office., Pune, Maharashtra" }, "geometry": { "type": "Point", "coordinates": [ 73.8220454, 18.5409852 ] } },
{ "type": "Feature", "properties": { "ccd_name": "Water misuse (washing Center/Spreading)", "com_location": " Manik nagar Sinhgad road, Pune, Maharashtra" }, "geometry": { "type": "Point", "coordinates": [ 73.8235723, 18.4783885 ] } },
{ "type": "Feature", "properties": { "ccd_name": "Others (Water Supply)", "com_location": "Alacrity housing society, Mohan Nagar, Baner, Pune, Maharashtra" }, "geometry": { "type": "Point", "coordinates": [ 73.7974078, 18.556249 ] } },
{ "type": "Feature", "properties": { "ccd_name": "Water Flowing / wastage", "com_location": "chaitanya apArTameMTa, chiMtAmaNInagara bhAga- 1 samora shAradA bheLa yA dukAnAta gheNeta AlelyA va Tara Ta.cba , Pune, Maharashtra" }, "geometry": { "type": "Point", "coordinates": [ 73.8786239, 18.5246091 ] } },
{ "type": "Feature", "properties": { "ccd_name": "Providing / repairing of storm water chamber and cover", "com_location": "S no 48/1 Ichhatrupti hsg society ganeshnagar wadgaon sheri\r\nPune 411014\r\nLand mark   sarang classes" }, "geometry": { "type": "Point", "coordinates": [ 73.9256766, 18.5546734 ] } },
{ "type": "Feature", "properties": { "ccd_name": "NO water Supply", "com_location": "Qr. No.04/13 Chitragupta colony, camp, Pune-411002" }, "geometry": { "type": "Point", "coordinates": [ 73.873829300000011, 18.5046601 ] } },
{ "type": "Feature", "properties": { "ccd_name": "Unauthorised / Uncovered water storage tanks", "com_location": "Behind Bramha Vantage D building, Opp Bavdhan Police Station, Near Bramha Nancy., Pune, Maharashtra" }, "geometry": { "type": "Point", "coordinates": [ 73.7775848, 18.5112412 ] } },
{ "type": "Feature", "properties": { "ccd_name": "Clearing Water Logging on Road", "com_location": "Mundhva keahav nagar from renuka mata mandir to silver sans project in front of florida river bank , Pune, Maharashtra" }, "geometry": { "type": "Point", "coordinates": [ 73.9488426, 18.5377738 ] } },
{ "type": "Feature", "properties": { "ccd_name": "Clearing Water Logging on Road", "com_location": "s.no. 8/17 Suvarna colony , near lane no. 1\r\nKarvenagar pune 52" }, "geometry": { "type": "Point", "coordinates": [ 73.8194487, 18.4881129 ] } },
{ "type": "Feature", "properties": { "ccd_name": "Others (Water Supply)", "com_location": "undri road opposite of palace orchard society , Pune, Maharashtra" }, "geometry": { "type": "Point", "coordinates": [ 73.9207521, 18.45835 ] } },
{ "type": "Feature", "properties": { "ccd_name": "Clearing Water Logging on Road (HO)", "com_location": "krushnai building, sno 147/2/4/5/6/8 lane no 17A, pune 41" }, "geometry": { "type": "Point", "coordinates": [ 73.836613500000013, 18.5126074 ] } },
{ "type": "Feature", "properties": { "ccd_name": "Stopping leakage of drainage water in Nalla / River", "com_location": "Nala passing in Between Green City and Pebbel Park ,and the Chember is very close to Green city out , Pune, Maharashtra" }, "geometry": { "type": "Point", "coordinates": [ 73.9363495, 18.4751899 ] } },
{ "type": "Feature", "properties": { "ccd_name": "Low water pressure to Individual", "com_location": "Kumar Pebble park handewadi Road hadapsar, Pune, Maharashtra" }, "geometry": { "type": "Point", "coordinates": [ 73.9318327, 18.4732254 ] } },
{ "type": "Feature", "properties": { "ccd_name": "Others (Water Supply)", "com_location": "Rupayan Apartments\r\nParihar Chawk, Aundh\r\nBehind Oriental Bank of Commerce\r\n(OBC Bank Lane)\r\nPune- 7" }, "geometry": { "type": "Point", "coordinates": [ 73.8085513, 18.5599404 ] } },
{ "type": "Feature", "properties": { "ccd_name": "Clearing Water Logging on Road", "com_location": "saMtanagara. gallI na 5. gaNapatI maMdira shejArI  lohagAva .vAgholI roDa puNe." }, "geometry": { "type": "Point", "coordinates": [ 73.9496972, 18.591104 ] } },
{ "type": "Feature", "properties": { "ccd_name": "Others (Water Supply)", "com_location": "Rupayan Apartments\r\nParihar Chawk, Aundh\r\nBehind Oriental Bank of Commerce\r\nOBC Bank Lane)\r\nPune -7" }, "geometry": { "type": "Point", "coordinates": [ 73.8085513, 18.5599404 ] } },
{ "type": "Feature", "properties": { "ccd_name": "NO water Supply", "com_location": "1894 parvati first floor bhagya tara opposite laxmi nagar police station sahkar nagar pune 9 " }, "geometry": { "type": "Point", "coordinates": [ 73.8497289, 18.4895895 ] } },
{ "type": "Feature", "properties": { "ccd_name": "NO water Supply", "com_location": "Friends Enclave SocietyMundhwa Road, Pune 411036." }, "geometry": { "type": "Point", "coordinates": [ 73.9254182, 18.5341206 ] } },
{ "type": "Feature", "properties": { "ccd_name": "Clearing Water Logging on Road (HO)", "com_location": " kubera bahaar bldg on baner pashan link road, Pune, Maharashtra" }, "geometry": { "type": "Point", "coordinates": [ 73.7914507, 18.5476252 ] } },
{ "type": "Feature", "properties": { "ccd_name": "Providing / repairing of storm water chamber and cover", "com_location": "Desai hospital, Pune, Maharashtra" }, "geometry": { "type": "Point", "coordinates": [ 73.9238403, 18.4729961 ] } },
{ "type": "Feature", "properties": { "ccd_name": "Pipeline/Valve Leakage of PMC line", "com_location": "Sinhagad road vithalwadi anand vihar no 1, Pune, Maharashtra" }, "geometry": { "type": "Point", "coordinates": [ 73.8033639, 18.4571619 ] } },
{ "type": "Feature", "properties": { "ccd_name": "Contamination / Turbid Water Problem", "com_location": "Aditya garden City, Warje, Flat 10, Indica C, Pune, Maharashtra" }, "geometry": { "type": "Point", "coordinates": [ 73.7874523, 18.4890106 ] } },
{ "type": "Feature", "properties": { "ccd_name": "Pipeline/Valve Leakage of PMC line", "com_location": "taravaDe vastI Da kTara loMDhe klinika shejArI mohammada vADI polIsa chaukI chyA samora kRRiShNA nagara roDa dAbhADe chauka\", Pune, Maharashtra" }, "geometry": { "type": "Point", "coordinates": [ 73.9102857, 18.5049557 ] } },
{ "type": "Feature", "properties": { "ccd_name": "Clearing Water Logging on Road", "com_location": "appara - koMDhavA roDalA appara basa DepochyA javaLa koMDhavyAlA jANArA hA rastA, Pune, Maharashtra" }, "geometry": { "type": "Point", "coordinates": [ 73.9259102, 18.508934 ] } },
{ "type": "Feature", "properties": { "ccd_name": "NO water Supply", "com_location": "sapatagirI ko.   hai.sosAyaTI save.naM 51AMbegAva khurda, Pune, Maharashtra" }, "geometry": { "type": "Point", "coordinates": [ 73.9531189, 18.5646495 ] } },
{ "type": "Feature", "properties": { "ccd_name": "Others (Water Supply)", "com_location": "by Maya Cement vendor in front of the SG BARVE  PMC School No no 19, Pune, Maharashtra" }, "geometry": { "type": "Point", "coordinates": [ 73.7943532, 18.5374233 ] } },
{ "type": "Feature", "properties": { "ccd_name": "NO water Supply", "com_location": "bhekarai ngr hind colony , Pune, Maharashtra" }, "geometry": { "type": "Point", "coordinates": [ 73.9521468, 18.4819581 ] } },
{ "type": "Feature", "properties": { "ccd_name": "NO water Supply", "com_location": "Raikar Mala Rd, Dhayari, Pune," }, "geometry": { "type": "Point", "coordinates": [ 73.8094642, 18.4348211 ] } },
{ "type": "Feature", "properties": { "ccd_name": "Removal / Installation of new water meters", "com_location": "Mr. Amar B, \r\n917/8 ganeshwadi, (Bunglow / Out House)\r\nAbhiranjan society compound, Deccan., Pune, Maharashtra" }, "geometry": { "type": "Point", "coordinates": [ 73.8404929, 18.5200948 ] } },
{ "type": "Feature", "properties": { "ccd_name": "Water Flowing / wastage", "com_location": "65-A Azad Hind Colony, Indira Nagar, Handewadi road, Hadapsar, Pune 411028" }, "geometry": { "type": "Point", "coordinates": [ 73.9341254, 18.4707917 ] } },
{ "type": "Feature", "properties": { "ccd_name": "Providing / repairing of storm water chamber and cover", "com_location": "GONDHALE NAGAR, VIGHNA HARTA COLONY, HADAPSAR, Pune, Maharashtra" }, "geometry": { "type": "Point", "coordinates": [ 73.9496332, 18.4949346 ] } },
{ "type": "Feature", "properties": { "ccd_name": "NO water Supply", "com_location": "shantinagar socuiety opp gokul hotel near salve garden pune 411048 " }, "geometry": { "type": "Point", "coordinates": [ 73.8800537, 18.4592831 ] } },
{ "type": "Feature", "properties": { "ccd_name": "NO water Supply", "com_location": "A-204, jiya terreces chavan ngr, dsk rd dhayari, Pune, Maharashtra" }, "geometry": { "type": "Point", "coordinates": [ 73.8013544, 18.4462513 ] } },
{ "type": "Feature", "properties": { "ccd_name": "Contamination / Turbid Water Problem", "com_location": "sayyada nagara ha.Dapasara gallI nambara 15 1/2A , Pune, Maharashtra" }, "geometry": { "type": "Point", "coordinates": [ 73.8786239, 18.5246091 ] } },
{ "type": "Feature", "properties": { "ccd_name": "Contamination / Turbid Water Problem", "com_location": ", Sanjay Park, Airport Road, Pune, Maharashtra" }, "geometry": { "type": "Point", "coordinates": [ 73.8976485, 18.5691028 ] } },
{ "type": "Feature", "properties": { "ccd_name": "Unauthorised tapping of water connection/Water Theft", "com_location": "kondhava  budruk  chand tara chalu kabrastan , Pune, Maharashtra" }, "geometry": { "type": "Point", "coordinates": [ 73.879374500000011, 18.450386 ] } },
{ "type": "Feature", "properties": { "ccd_name": "Others (Water Supply)", "com_location": "AMbegAMva jAMbhuLavADI pANI puravaThA yojanechA  kharchAta kapAta na karaNe bAbata, Pune, Maharashtra" }, "geometry": { "type": "Point", "coordinates": [ 73.8244417, 18.4535783 ] } },
{ "type": "Feature", "properties": { "ccd_name": "Low water pressure to Individual", "com_location": "Kanchanban Housing Society phase-1, Shivtirth Nagar, Paud Road, Kothrud Pune 411038." }, "geometry": { "type": "Point", "coordinates": [ 73.8056527, 18.5120802 ] } },
{ "type": "Feature", "properties": { "ccd_name": "NO water Supply", "com_location": "mazi sainik vasahat plot no 4 poud road x serviceman opp to post office , Pune, Maharashtra" }, "geometry": { "type": "Point", "coordinates": [ 73.817855, 18.511351 ] } },
{ "type": "Feature", "properties": { "ccd_name": "Providing / repairing of storm water chamber and cover", "com_location": "Pune satara road, Shinde mico service building." }, "geometry": { "type": "Point", "coordinates": [ 73.8581157, 18.4587549 ] } },
{ "type": "Feature", "properties": { "ccd_name": "Clearing Water Logging on Road", "com_location": "2122 Vijaynagar colony, \r\nSunrise Apartment. \r\nBehind Hotel Kaveri \r\nSadashiv peth \r\nPune 411030. " }, "geometry": { "type": "Point", "coordinates": [ 73.8516238, 18.5046239 ] } },
{ "type": "Feature", "properties": { "ccd_name": "NO water Supply", "com_location": "sr no 13 bankar colony shantisagar seva samj seva sang oop akashwani hadapsar pune 28" }, "geometry": { "type": "Point", "coordinates": [ 73.9445742, 18.4987788 ] } },
{ "type": "Feature", "properties": { "ccd_name": "Providing / repairing of storm water chamber and cover", "com_location": "Opposite nikash skies gate someshwar wadi pashan, Pune, Maharashtra" }, "geometry": { "type": "Point", "coordinates": [ 73.8020141, 18.5443557 ] } },
{ "type": "Feature", "properties": { "ccd_name": "No water as per time table", "com_location": "18 Laxmi Soc Manas Bldng Opp S B Road, Pune, Maharashtra" }, "geometry": { "type": "Point", "coordinates": [ 73.8309239, 18.5355063 ] } },
{ "type": "Feature", "properties": { "ccd_name": "Pipeline/Valve Leakage of PMC line", "com_location": "swagat residency, Kumbare Township, new dp road, Kothrud, Pune 411038" }, "geometry": { "type": "Point", "coordinates": [ 73.8008898, 18.5021433 ] } },
{ "type": "Feature", "properties": { "ccd_name": "Water Flowing / wastage", "com_location": "gaNesha nagara gavaLI vADA yeravaDA puNe 6" }, "geometry": { "type": "Point", "coordinates": [ 73.8257325, 18.4940191 ] } },
{ "type": "Feature", "properties": { "ccd_name": "Pipeline/Valve Leakage of PMC line", "com_location": "preksha vihar , tapowan, society bavdhan , Pune, Maharashtra" }, "geometry": { "type": "Point", "coordinates": [ 73.7779359, 18.5216113 ] } },
{ "type": "Feature", "properties": { "ccd_name": "Clearing Water Logging on Road (HO)", "com_location": "Location is : road opposite to Golden Trellis Society, Balewadi Location: \r\nDropped pin\r\nNear Golden St, Balewadi, Pune, Maharashtra 411045\r\nhttps://goo.gl/maps/qWAVuDt6Scxr8gUk9" }, "geometry": { "type": "Point", "coordinates": [ 73.7700331, 18.5814724 ] } },
{ "type": "Feature", "properties": { "ccd_name": "Contamination / Turbid Water Problem", "com_location": "Ganga Tower Aai Mata Mandir , Pune, Maharashtra" }, "geometry": { "type": "Point", "coordinates": [ 73.8748942, 18.4718282 ] } },
{ "type": "Feature", "properties": { "ccd_name": "NO water Supply", "com_location": "oriant villasociety near mahsoba mandir hadapsar pune" }, "geometry": { "type": "Point", "coordinates": [ 73.9403291, 18.5035596 ] } },
{ "type": "Feature", "properties": { "ccd_name": "Contamination / Turbid Water Problem", "com_location": " Kothrud Sundar Nagari , Pune, Maharashtra" }, "geometry": { "type": "Point", "coordinates": [ 73.8088798, 18.5029837 ] } },
{ "type": "Feature", "properties": { "ccd_name": "NO water Supply", "com_location": "in Kapil tranquil road baner., Pune, Maharashtra" }, "geometry": { "type": "Point", "coordinates": [ 73.7948058, 18.561768 ] } },
{ "type": "Feature", "properties": { "ccd_name": "Pipeline/Valve Leakage of PMC line", "com_location": "ENTERENCE RENUKA NAGRI WADGAO BUDRUK SINHAGADH RD PUNE 41 " }, "geometry": { "type": "Point", "coordinates": [ 73.8220471, 18.4650929 ] } },
{ "type": "Feature", "properties": { "ccd_name": "NO water Supply", "com_location": "416 mangalwar peth , Pune, Maharashtra" }, "geometry": { "type": "Point", "coordinates": [ 73.8646945, 18.5240566 ] } },
{ "type": "Feature", "properties": { "ccd_name": "Clearing Water Logging on Road", "com_location": " at four places on Tilekarnagar road to Yewlewadi, Pune, Maharashtra" }, "geometry": { "type": "Point", "coordinates": [ 73.8842118, 18.4502409 ] } },
{ "type": "Feature", "properties": { "ccd_name": "Providing / repairing of storm water chamber and cover", "com_location": "Pune Satara Road, Swargate, Pune \r\n" }, "geometry": { "type": "Point", "coordinates": [ 73.858433, 18.4993858 ] } },
{ "type": "Feature", "properties": { "ccd_name": "Cleaning of strom water chamber and nalla", "com_location": "Rajyog Annexe Gate, Vadgaon Khurd, Pune, Maharashtra" }, "geometry": { "type": "Point", "coordinates": [ 73.8044355, 18.4630682 ] } },
{ "type": "Feature", "properties": { "ccd_name": "NO water Supply", "com_location": "92/B asha nagar housing society near shivaji housing society opposit senapati bapat road pune 16 shivajinagar " }, "geometry": { "type": "Point", "coordinates": [ 73.829134, 18.5337531 ] } },
{ "type": "Feature", "properties": { "ccd_name": "Pipeline/Valve Leakage of PMC line", "com_location": "mit collage kothrud  mayur colony , Pune, Maharashtra" }, "geometry": { "type": "Point", "coordinates": [ 73.8161747, 18.5039834 ] } },
{ "type": "Feature", "properties": { "ccd_name": "Low water pressure to Individual", "com_location": "586 Narayan peth, Gangadhar Apartment B wing. Next to kanyashala Kelkar road, Pune, Maharashtra" }, "geometry": { "type": "Point", "coordinates": [ 73.845381, 18.5144119 ] } },
{ "type": "Feature", "properties": { "ccd_name": "Water misuse (washing Center/Spreading)", "com_location": "Isadora Apartment\r\nCosmopolitan society\r\nPushpak Park\r\nAundh\r\nPune 411007" }, "geometry": { "type": "Point", "coordinates": [ 73.8105083, 18.5550014 ] } },
{ "type": "Feature", "properties": { "ccd_name": "NO water Supply", "com_location": "bhekrai nagar shiv shakti chowk, Pune, Maharashtra" }, "geometry": { "type": "Point", "coordinates": [ 73.9521738, 18.4815818 ] } },
{ "type": "Feature", "properties": { "ccd_name": "NO water Supply", "com_location": "Sr.No 54, Pragati garden, badhe wasti Mundhawa pune 36" }, "geometry": { "type": "Point", "coordinates": [ 73.9343518, 18.5309022 ] } },
{ "type": "Feature", "properties": { "ccd_name": "Providing / repairing of storm water chamber and cover", "com_location": "near Dutta Mandir Kasturba vasahat, Aundh, Pune 7 " }, "geometry": { "type": "Point", "coordinates": [ 73.8185519, 18.555318 ] } },
{ "type": "Feature", "properties": { "ccd_name": "Providing / repairing of storm water chamber and cover", "com_location": "pla Ta naMbara 1103\r\nmigAra mAtA sosAyaTI padmAvatI puNe 9 " }, "geometry": { "type": "Point", "coordinates": [ 73.8518184, 18.4855607 ] } },
{ "type": "Feature", "properties": { "ccd_name": "Others (Water Supply)", "com_location": "AMbegAMva khurda sarve naM 51 ' saptagirI hAusiMga sosAyaTI ', Pune, Maharashtra" }, "geometry": { "type": "Point", "coordinates": [ 73.9531189, 18.5646495 ] } },
{ "type": "Feature", "properties": { "ccd_name": "Pipeline/Valve Leakage of PMC line", "com_location": "yerawada ward office  pune" }, "geometry": { "type": "Point", "coordinates": [ 73.8875732, 18.5453524 ] } },
{ "type": "Feature", "properties": { "ccd_name": "Clearing Water Logging on Road", "com_location": "Sr no 176/10/11 Swayambhu Sankul  Papde Wasti Dhamalwadi, Bhekrai Nagar, Pune," }, "geometry": { "type": "Point", "coordinates": [ 73.9487842, 18.4807414 ] } },
{ "type": "Feature", "properties": { "ccd_name": "Providing / repairing of storm water chamber and cover", "com_location": "prabhat road lane no1, outside Smruti Coop Hsg Society and Shyadri Hospital, Pune, Maharashtra" }, "geometry": { "type": "Point", "coordinates": [ 73.8393427, 18.5130079 ] } },
{ "type": "Feature", "properties": { "ccd_name": "Providing / repairing of storm water chamber and cover", "com_location": "utkarSha sosAyaTI, kAtraja ,utkarSha skUla samora , Pune, Maharashtra" }, "geometry": { "type": "Point", "coordinates": [ 73.9531189, 18.5646495 ] } },
{ "type": "Feature", "properties": { "ccd_name": "Others (Water Supply)", "com_location": "lane No 19 Khese Park, Pune, Maharashtra" }, "geometry": { "type": "Point", "coordinates": [ 73.9097798, 18.592526 ] } },
{ "type": "Feature", "properties": { "ccd_name": "Cleaning of strom water chamber and nalla", "com_location": "IcS colony Ganeshkhind Road Opp cosmos bank, Pune, Maharashtra" }, "geometry": { "type": "Point", "coordinates": [ 73.832684, 18.5401285 ] } },
{ "type": "Feature", "properties": { "ccd_name": "Cleaning of strom water chamber and nalla", "com_location": "shAhU chauka Aya TI Aya samorIla Dreneja lAina , Pune, Maharashtra" }, "geometry": { "type": "Point", "coordinates": [ 73.935105, 18.5513285 ] } },
{ "type": "Feature", "properties": { "ccd_name": "Pipeline/Valve Leakage of PMC line", "com_location": ")netAjI chowk,  biDI kamgar vAsahata  vishrantwadi bus tand , Pune, Maharashtra" }, "geometry": { "type": "Point", "coordinates": [ 73.880411, 18.57303 ] } },
{ "type": "Feature", "properties": { "ccd_name": "Others (Water Supply)", "com_location": "Pristine Pacific phase 3 dalavi nagar pune 411046." }, "geometry": { "type": "Point", "coordinates": [ 73.8417417, 18.4499049 ] } },
{ "type": "Feature", "properties": { "ccd_name": "Clearing Water Logging on Road", "com_location": "on Mangaldas Road, on the curve of the road before Oakwood hotel. , Pune, Maharashtra" }, "geometry": { "type": "Point", "coordinates": [ 73.8846038, 18.5354746 ] } },
{ "type": "Feature", "properties": { "ccd_name": "Contamination / Turbid Water Problem", "com_location": "Lohgaon airporat road Indira Nagar brahamcel , Pune, Maharashtra" }, "geometry": { "type": "Point", "coordinates": [ 73.8993462, 18.5755031 ] } },
{ "type": "Feature", "properties": { "ccd_name": "Clearing Water Logging on Road", "com_location": "Prathmesh apartment wadgaon budurk jadhav nagar near   suvidha dnyanganga soc 411041, Pune, Maharashtra" }, "geometry": { "type": "Point", "coordinates": [ 73.8279381, 18.4661359 ] } },
{ "type": "Feature", "properties": { "ccd_name": "Unauthorised tapping of water connection/Water Theft", "com_location": "Serve no 26/6, lonkar nagar, keshavnagar, mundhwa, pune-411036" }, "geometry": { "type": "Point", "coordinates": [ 73.952669, 18.527105 ] } },
{ "type": "Feature", "properties": { "ccd_name": "NO water Supply", "com_location": "427, indira ngr ,gultekadi opp khadda , Pune, Maharashtra" }, "geometry": { "type": "Point", "coordinates": [ 73.8691622, 18.4941245 ] } },
{ "type": "Feature", "properties": { "ccd_name": "Water Flowing / wastage", "com_location": "In front of Viola Society gate , \r\nMumbai - Bangalore highway \r\nWarje, PUNE 411058" }, "geometry": { "type": "Point", "coordinates": [ 73.7989916, 18.4863587 ] } },
{ "type": "Feature", "properties": { "ccd_name": "Clearing Water Logging on Road", "com_location": "runwal seagull society, Pune, Maharashtra" }, "geometry": { "type": "Point", "coordinates": [ 73.9325139, 18.480988 ] } },
{ "type": "Feature", "properties": { "ccd_name": "NO water Supply", "com_location": "Kumar Pebble Park, Pune, Maharashtra" }, "geometry": { "type": "Point", "coordinates": [ 73.9363495, 18.4751899 ] } },
{ "type": "Feature", "properties": { "ccd_name": "Water Flowing / wastage", "com_location": "In front of Mahavir Jain hostel, BMCC college road, Pune, Maharashtra" }, "geometry": { "type": "Point", "coordinates": [ 73.8351389, 18.5214097 ] } },
{ "type": "Feature", "properties": { "ccd_name": "Providing / repairing of storm water chamber and cover", "com_location": "pattA. mathurA resiDensI vaidUvADI haDapasara puNe. \r\nrAmaTekaDI relve geTa javaLa" }, "geometry": { "type": "Point", "coordinates": [ 73.9196929, 18.5018359 ] } },
{ "type": "Feature", "properties": { "ccd_name": "Stopping leakage of drainage water in Nalla / River", "com_location": "WADILAL NAROTTAMDAS AND SONS, 231,NEW RAVIWAR PETH, BHAANDI ALI, , Pune, Maharashtra" }, "geometry": { "type": "Point", "coordinates": [ 73.8600721, 18.5115343 ] } },
{ "type": "Feature", "properties": { "ccd_name": "Providing / repairing of storm water chamber and cover", "com_location": "anupama nagarI khaDkI relve sthAnakA javaLa muMbaI -puNe rastA bopoDI puNe 3 yethIla praveshadvArAvarila " }, "geometry": { "type": "Point", "coordinates": [ 73.8671232, 18.5176333 ] } },
{ "type": "Feature", "properties": { "ccd_name": "Contamination / Turbid Water Problem", "com_location": "R P Patil 12 Shramik Nagar , S B Road Pune " }, "geometry": { "type": "Point", "coordinates": [ 73.825682, 18.5329619 ] } },
{ "type": "Feature", "properties": { "ccd_name": "Pipeline/Valve Leakage of PMC line", "com_location": " Salisbury park,  survey number - 411037 , near Markandey society, Pune, Maharashtra" }, "geometry": { "type": "Point", "coordinates": [ 73.8176839, 18.4918016 ] } },
{ "type": "Feature", "properties": { "ccd_name": "Cleaning of strom water chamber and nalla", "com_location": "sara vaghaDyA nAlyAmadhye madhye sagaLI ghANa yeta kRRipayA kAhI tarI  karA vinaMtI karato, Pune, Maharashtra" }, "geometry": { "type": "Point", "coordinates": [ 73.8786239, 18.5246091 ] } },
{ "type": "Feature", "properties": { "ccd_name": "Pipeline/Valve Leakage of PMC line", "com_location": " Hadapsar Sayyed nagar Lane number A 5 hadapsar pune" }, "geometry": { "type": "Point", "coordinates": [ 73.9394034, 18.4983882 ] } },
{ "type": "Feature", "properties": { "ccd_name": "NO water Supply", "com_location": "asmita appartment plot number 60 mayur colony kothrud pune " }, "geometry": { "type": "Point", "coordinates": [ 73.8173464, 18.5047382 ] } },
{ "type": "Feature", "properties": { "ccd_name": "Providing / repairing of storm water chamber and cover", "com_location": "sArasa bAge kaDe  jANArA rastA, Pune, Maharashtra" }, "geometry": { "type": "Point", "coordinates": [ 73.8786239, 18.5246091 ] } },
{ "type": "Feature", "properties": { "ccd_name": "Contamination / Turbid Water Problem", "com_location": "Lane no1 Gulmohar park ghorpadi gaon pune 411001" }, "geometry": { "type": "Point", "coordinates": [ 73.904768, 18.52567 ] } },
{ "type": "Feature", "properties": { "ccd_name": "NO water Supply", "com_location": "sarve naMbara 49 shivarAya ka lanI va saMyoga ka lanI\r\nkALepaDaLa, haDapasara, puNe-28" }, "geometry": { "type": "Point", "coordinates": [ 73.9398818, 18.5009288 ] } },
{ "type": "Feature", "properties": { "ccd_name": "Providing / repairing of storm water chamber and cover", "com_location": "AMbegAMva khurda madhIla jAMbhuLavADI roDa varIla jagavikhyAta iMTarana.cshanala kAkA pavAra tAlIma javaLa, Pune, Maharashtra" }, "geometry": { "type": "Point", "coordinates": [ 73.8786239, 18.5246091 ] } },
{ "type": "Feature", "properties": { "ccd_name": "NO water Supply", "com_location": "Anna Mungale Nagar  Dhankawadi, Pune, " }, "geometry": { "type": "Point", "coordinates": [ 73.856004, 18.46829 ] } },
{ "type": "Feature", "properties": { "ccd_name": "Clearing Water Logging on Road", "com_location": "\r\nLocation - Near Welcome Hall , Kondhwa , Pune .\r\n" }, "geometry": { "type": "Point", "coordinates": [ 73.8906875, 18.4691875 ] } },
{ "type": "Feature", "properties": { "ccd_name": "Others (Water Supply)", "com_location": "Sinhagadroad anand nagar pune 51" }, "geometry": { "type": "Point", "coordinates": [ 73.8244939, 18.4718677 ] } },
{ "type": "Feature", "properties": { "ccd_name": "Providing / repairing of storm water chamber and cover", "com_location": "near dsk showroom \r\nhadapsar near\r\n: amanora, Pune, Maharashtra" }, "geometry": { "type": "Point", "coordinates": [ 73.939896300000015, 18.520408 ] } },
{ "type": "Feature", "properties": { "ccd_name": "Providing / repairing of storm water chamber and cover", "com_location": "Hi sr no 12 laxmi nagar near Navnath mitra mandal , Pune, Maharashtra" }, "geometry": { "type": "Point", "coordinates": [ 73.8327099, 18.5068454 ] } },
{ "type": "Feature", "properties": { "ccd_name": "No water as per time table", "com_location": "Ashraf nagar budha vihar lane galli no 5 , Pune, Maharashtra" }, "geometry": { "type": "Point", "coordinates": [ 73.8834376, 18.4626831 ] } },
{ "type": "Feature", "properties": { "ccd_name": "NO water Supply", "com_location": "Lata Dhayarkar Vasti  Mundhwa, Pune, Maharashtra" }, "geometry": { "type": "Point", "coordinates": [ 73.933003, 18.5330323 ] } },
{ "type": "Feature", "properties": { "ccd_name": "NO water Supply", "com_location": "Plot no 26,tejas society near natraj gas agency,Kothrud, Pune, Maharashtra" }, "geometry": { "type": "Point", "coordinates": [ 73.8116112, 18.5000829 ] } },
{ "type": "Feature", "properties": { "ccd_name": "Providing / repairing of storm water chamber and cover", "com_location": "vimAna nagara echa sI ema TI roDa phiniksa ma la chyA mAghIla bAjU, Pune, Maharashtra" },