{
"type": "FeatureCollection",
"name": "2020_Garden",
"crs": { "type": "name", "properties": { "name": "urn:ogc:def:crs:OGC:1.3:CRS84" } },
"features": [
{ "type": "Feature", "properties": { "ccd_name": "Branch of tree / complete tree cutting", "com_location": "574,rasta peth daruwala pool Near Yunus pathan house, Pune, Maharashtra" }, "geometry": { "type": "Point", "coordinates": [ 73.8632852, 18.5200929 ] } },
{ "type": "Feature", "properties": { "ccd_name": "Lifiting of tree cutting", "com_location": "sadashiv peth near lokmanya vachanalai. C m kelkar road, Pune, Maharashtra" }, "geometry": { "type": "Point", "coordinates": [ 73.8462585, 18.5086802 ] } },
{ "type": "Feature", "properties": { "ccd_name": "Permission to Trim Branches in private Society / Land", "com_location": "maple garden soc, nr kumar prithvi phese -2 - pune -41 bhd shreeji lon" }, "geometry": { "type": "Point", "coordinates": [ 73.8787859, 18.4700593 ] } },
{ "type": "Feature", "properties": { "ccd_name": "Lifiting of tree cutting", "com_location": " ex servicemen co op hsg society paud road near more Vidhyalaya survey no 48, Pune, Maharashtra" }, "geometry": { "type": "Point", "coordinates": [ 73.7060383, 18.5054044 ] } },
{ "type": "Feature", "properties": { "ccd_name": "Others (Garden) (HO)", "com_location": "59/C6, Suryaloknagari, Pune Solapur Road, Hadapsar, Pune 13" }, "geometry": { "type": "Point", "coordinates": [ 73.934131, 18.501588 ] } },
{ "type": "Feature", "properties": { "ccd_name": "Branch of tree / complete tree cutting", "com_location": "L- 43,aMbAI sahakArI gRRiharachanA sosAyaTI , mahArAShTra hausiMga borDa, SNBP skUlachyA mAge, yeravaDA, puNe 411006." }, "geometry": { "type": "Point", "coordinates": [ 73.8945405, 18.5600004 ] } },
{ "type": "Feature", "properties": { "ccd_name": "Permission to Trim Branches in private Society / Land", "com_location": "harmesa pArasa sahakArI gRRiha saMsthA VI, sa.na.209/4-77 kalyANInagara puNe-6" }, "geometry": { "type": "Point", "coordinates": [ 73.905826, 18.546924 ] } },
{ "type": "Feature", "properties": { "ccd_name": "Lifiting of tree cutting", "com_location": "Jadhav Wada 287 Shaniwar Peth, Tambe Lane, Pune-30" }, "geometry": { "type": "Point", "coordinates": [ 73.8502974, 18.5192967 ] } },
{ "type": "Feature", "properties": { "ccd_name": "Branch of tree / complete tree cutting", "com_location": "Address - Sunder Garden Soc., Manik baug, Sinhagad road, Pune - 51" }, "geometry": { "type": "Point", "coordinates": [ 73.8244939, 18.4718677 ] } },
{ "type": "Feature", "properties": { "ccd_name": "Lifiting of tree cutting", "com_location": "kotharuDa shrIrAma pArka samora,shivAmruta sosAyaTIchyA javaLa,enakejIesabI ba.NkechyA bAjUchI gallI, karveroDa,kotharUDa, Pune, Maharashtra" }, "geometry": { "type": "Point", "coordinates": [ 73.8786239, 18.5246091 ] } },
{ "type": "Feature", "properties": { "ccd_name": "Permission to Trim Branches in private Society / Land", "com_location": " SN.50/2, Akshaya Terrace, Near Sahayog Park, Chandan Nagar, 411014, Pune, Maharashtra" }, "geometry": { "type": "Point", "coordinates": [ 73.934326, 18.561981 ] } },
{ "type": "Feature", "properties": { "ccd_name": "Branch of tree / complete tree cutting", "com_location": "35A/1-2, Erandwana,opp SNDT College, behind rescon factory, karve rd., pune\r\nLandmark opp asmita ind." }, "geometry": { "type": "Point", "coordinates": [ 73.818961, 18.501234 ] } },
{ "type": "Feature", "properties": { "ccd_name": "Branch of tree / complete tree cutting", "com_location": "RAMA MADHAV BUNGLOW, NISHIGANDHA APTS, BEHIND BAGUL GARDEN SHIVDARSHAN CHOWK, Pune, Maharashtra" }, "geometry": { "type": "Point", "coordinates": [ 73.851735, 18.491581 ] } },
{ "type": "Feature", "properties": { "ccd_name": "Repairing of civil work in Garden", "com_location": "ghorapaDe udyAna yethIla ghasaraguMDIche surakShA kaThaDe kADhUna TAkale Aheta., Pune, Maharashtra" }, "geometry": { "type": "Point", "coordinates": [ 73.9646368, 18.5125701 ] } },
{ "type": "Feature", "properties": { "ccd_name": "Planting of trees besides divider/foothpath (HO)", "com_location": " from Balewadi Phata to Sadanand Hotel, that part of Baner Road in Baner, Pune, Maharashtra" }, "geometry": { "type": "Point", "coordinates": [ 73.767156, 18.568555 ] } },
{ "type": "Feature", "properties": { "ccd_name": "Maintenance of Garden (Horticulture Related) (HO)", "com_location": "Garden Navjeevan soc and Malhar Martand soc., Padmavati, Behind Padmavati Devi Temple,  Padmavati, Pune, Maharashtra" }, "geometry": { "type": "Point", "coordinates": [ 73.8532203, 18.4775949 ] } },
{ "type": "Feature", "properties": { "ccd_name": "Permission to Trim Branches in private Society / Land", "com_location": "Madhumita Apartment , Sr No 127/2 , Plot number 3,Mahaganesh Colony ,Paud Road ,Kothrud, Pune 411038" }, "geometry": { "type": "Point", "coordinates": [ 73.8196074, 18.509776 ] } },
{ "type": "Feature", "properties": { "ccd_name": "Permission to Trim Branches in private Society / Land", "com_location": "Sainiwas Cooperative Housing Society, Survey No 55,   Undri,, Pune, Maharashtra" }, "geometry": { "type": "Point", "coordinates": [ 73.9154122, 18.4483159 ] } },
{ "type": "Feature", "properties": { "ccd_name": "Branch of tree / complete tree cutting", "com_location": "ka.cna Ta plesa, vADiyA ka leja/aMjumana skula basa sTa pa, pAMchAlI svI, Pune, Maharashtra" }, "geometry": { "type": "Point", "coordinates": [ 73.7910414, 18.5474921 ] } },
{ "type": "Feature", "properties": { "ccd_name": "Branch of tree / complete tree cutting", "com_location": "sr no 266 Orient Villa Society Dhole Patil Rd Pimpany hall Lane no 1 Hadapsar, Pune" }, "geometry": { "type": "Point", "coordinates": [ 73.9401841, 18.5029573 ] } },
{ "type": "Feature", "properties": { "ccd_name": "Branch of tree / complete tree cutting", "com_location": "achalanagara sosAyaTI kumAra pRRithvI pheja 1 , Pune, Maharashtra" }, "geometry": { "type": "Point", "coordinates": [ 73.9531189, 18.5646495 ] } },
{ "type": "Feature", "properties": { "ccd_name": "Branch of tree / complete tree cutting", "com_location": "kalavati mandir kothrud (87/9B shiv krupa colony azad nagar kothrud pune)" }, "geometry": { "type": "Point", "coordinates": [ 73.8063291, 18.5043268 ] } },
{ "type": "Feature", "properties": { "ccd_name": "Lifiting of tree cutting", "com_location": "Shree Ganesh Angan Society Sr. No. 22, Pune, Maharashtra" }, "geometry": { "type": "Point", "coordinates": [ 73.8691912, 18.4500959 ] } },
{ "type": "Feature", "properties": { "ccd_name": "Permission to Trim Branches in private Society / Land", "com_location": "smRRiti apArTameMTa ,A1/22 rAmabAga vasAhata navI peTha puNe 411030" }, "geometry": { "type": "Point", "coordinates": [ 73.840436, 18.506821 ] } },
{ "type": "Feature", "properties": { "ccd_name": "Permission to Trim Branches in private Society / Land", "com_location": "namaskAra lic ka lanI khaDakI auMdha roDa , Pune, Maharashtra" }, "geometry": { "type": "Point", "coordinates": [ 73.8376003, 18.5619071 ] } },
{ "type": "Feature", "properties": { "ccd_name": "Permission to Trim Branches in private Society / Land", "com_location": "Mhb colony..nearest landmark is surabhi complex. My building number is M-32 and my name is Prateik Thorat \r\nThankyou  , Pune, Maharashtra" }, "geometry": { "type": "Point", "coordinates": [ 73.8786239, 18.5246091 ] } },
{ "type": "Feature", "properties": { "ccd_name": "Branch of tree / complete tree cutting", "com_location": " Pride Aashiyana Lohegaon. , Pune, Maharashtra" }, "geometry": { "type": "Point", "coordinates": [ 73.9088229, 18.606598 ] } },
{ "type": "Feature", "properties": { "ccd_name": "Lifiting of tree cutting", "com_location": "Sus road chidanand housing society, Pune, Maharashtra" }, "geometry": { "type": "Point", "coordinates": [ 73.782098, 18.5458428 ] } },
{ "type": "Feature", "properties": { "ccd_name": "Branch of tree / complete tree cutting", "com_location": "hadapsar oppo mega center pawar enclave, Pune, Maharashtra" }, "geometry": { "type": "Point", "coordinates": [ 73.9243902, 18.5014089 ] } },
{ "type": "Feature", "properties": { "ccd_name": "Permission to Trim Branches in private Society / Land", "com_location": "chiMtAmaNIplAjhA, AkAshavANI, haDapasara, puNe 411028" }, "geometry": { "type": "Point", "coordinates": [ 73.9470036, 18.5009596 ] } },
{ "type": "Feature", "properties": { "ccd_name": "Lifiting of tree cutting", "com_location": "mahArAShTra hausiMga borDa yeravaDA yethIla ema -26 yA imAratIchyA parisarAtIla, Pune, Maharashtra" }, "geometry": { "type": "Point", "coordinates": [ 73.879711, 18.5529226 ] } },
{ "type": "Feature", "properties": { "ccd_name": "Branch of tree / complete tree cutting", "com_location": "24/179 laxminagar, parvati pune 411009" }, "geometry": { "type": "Point", "coordinates": [ 73.8498581, 18.4960422 ] } },
{ "type": "Feature", "properties": { "ccd_name": "Lifiting of tree cutting", "com_location": "Shree prasanna society umashankar society chya javal chintamani nagar bibwewadi., Pune, Maharashtra" }, "geometry": { "type": "Point", "coordinates": [ 73.8671293, 18.4677915 ] } },
{ "type": "Feature", "properties": { "ccd_name": "Branch of tree / complete tree cutting", "com_location": " rA. 1108 shiroLe bAga , bla ka na 31 chauthA majalA shivAjI nagara puNe 411016" }, "geometry": { "type": "Point", "coordinates": [ 73.8416848, 18.527067 ] } },
{ "type": "Feature", "properties": { "ccd_name": "Permission to Trim Branches in private Society / Land", "com_location": "Gulmohor city co operative housing society kharadi  pune 14" }, "geometry": { "type": "Point", "coordinates": [ 73.9433944, 18.5512105 ] } },
{ "type": "Feature", "properties": { "ccd_name": "Branch of tree / complete tree cutting", "com_location": "1 MIT Olympus, Lane E, Koregaon Park, Pune, Maharashtra 411001" }, "geometry": { "type": "Point", "coordinates": [ 73.8943272, 18.5405525 ] } },
{ "type": "Feature", "properties": { "ccd_name": "Lifiting of tree cutting", "com_location": "Bungalow MNALI , Bibavewadi, Pune -37\r\n624/1b/1, Bibavewadi, Bakul Nagar, MNALI Bungalow, opp. Pushpam colony,\r\nPUNE - 411037." }, "geometry": { "type": "Point", "coordinates": [ 73.868921, 18.4706021 ] } },
{ "type": "Feature", "properties": { "ccd_name": "Branch of tree / complete tree cutting", "com_location": "silver villay co operative housing society wanori pune " }, "geometry": { "type": "Point", "coordinates": [ 73.9022655, 18.4848031 ] } },
{ "type": "Feature", "properties": { "ccd_name": "Lifiting of tree cutting", "com_location": "Maharashtra housing board L 31 building, Pune, Maharashtra" }, "geometry": { "type": "Point", "coordinates": [ 73.8960123, 18.5617251 ] } },
{ "type": "Feature", "properties": { "ccd_name": "Branch of tree / complete tree cutting", "com_location": "242/B, Rathi Bldg, Rasta Peth, Pune -411011" }, "geometry": { "type": "Point", "coordinates": [ 73.8601853, 18.5137662 ] } },
{ "type": "Feature", "properties": { "ccd_name": "Lifiting of tree cutting", "com_location": "kalyaninagar\r\nAnd near hsbc software and raheja wood soicety wall , Pune, Maharashtra" }, "geometry": { "type": "Point", "coordinates": [ 73.8981368, 18.5467738 ] } },
{ "type": "Feature", "properties": { "ccd_name": "Branch of tree / complete tree cutting", "com_location": "rajmayur hsg soc opp sharada centre earandawne pune 411004 " }, "geometry": { "type": "Point", "coordinates": [ 73.8337724, 18.5077586 ] } },
{ "type": "Feature", "properties": { "ccd_name": "Others (Garden) (HO)", "com_location": "North Ave. Kalyani Nagar, Pune, Maharashtra" }, "geometry": { "type": "Point", "coordinates": [ 73.9037667, 18.5492561 ] } },
{ "type": "Feature", "properties": { "ccd_name": "Cleaning of Garden (HO)", "com_location": "vArDa kramAMka 35 saMta rohidAsa udyAna navajIvana sosAyaTI chyA AtIla yA udyAnAmadhye, Pune, Maharashtra" }, "geometry": { "type": "Point", "coordinates": [ 73.9531189, 18.5646495 ] } },
{ "type": "Feature", "properties": { "ccd_name": "Lifiting of tree cutting", "com_location": ". kotharUDamadhye karveroDa vara enakejIesabI ba.NkechyA bAjUchyA gallIta shivAmruta sosAyaTIchyA dArAtIla, Pune, Maharashtra" }, "geometry": { "type": "Point", "coordinates": [ 73.8786239, 18.5246091 ] } },
{ "type": "Feature", "properties": { "ccd_name": "Permission to Trim Branches in private Society / Land", "com_location": "Bunglow No 11,phatak baug society, navi peth, Pune-30." }, "geometry": { "type": "Point", "coordinates": [ 73.8378329, 18.5053869 ] } },
{ "type": "Feature", "properties": { "ccd_name": "Branch of tree / complete tree cutting", "com_location": "at Royal Vista 8, palace orchard Co op hsg society, NIBM UNDRI RD, , Pune, Maharashtra" }, "geometry": { "type": "Point", "coordinates": [ 73.8947675, 18.4759195 ] } },
{ "type": "Feature", "properties": { "ccd_name": "Branch of tree / complete tree cutting", "com_location": "prathamA ArakeMDa sosAyaTI  ha Tela kinArA chyA puDhe kAtraja 411046, Pune, Maharashtra" }, "geometry": { "type": "Point", "coordinates": [ 73.859209, 18.444709 ] } },
{ "type": "Feature", "properties": { "ccd_name": "Branch of tree / complete tree cutting", "com_location": "pattA 2/97 mukuMda nagara gallI naMbara 15 puNe 37" }, "geometry": { "type": "Point", "coordinates": [ 73.8786239, 18.5246091 ] } },
{ "type": "Feature", "properties": { "ccd_name": "Lifiting of tree cutting", "com_location": "Trimurti , plot no 85, kalashanti society,chavan Nagar Pune 411043" }, "geometry": { "type": "Point", "coordinates": [ 73.8540806, 18.4734109 ] } },
{ "type": "Feature", "properties": { "ccd_name": "Branch of tree / complete tree cutting", "com_location": "sarva naMbara 110 ANNA bhAU sAThe nagara. rAmaTekaDI haDapasara puNe 411013. phona:- 9860550909" }, "geometry": { "type": "Point", "coordinates": [ 73.9187578, 18.5014509 ] } },
{ "type": "Feature", "properties": { "ccd_name": "Permission to Trim Branches in private Society / Land", "com_location": "129 ST SOCITY SAHAKARNAGAR NABAUR 2 PMC KOTHI JAVAL , Pune, Maharashtra" }, "geometry": { "type": "Point", "coordinates": [ 73.8464854, 18.4857991 ] } },
{ "type": "Feature", "properties": { "ccd_name": "Lifiting of tree cutting", "com_location": " Paya housing society At Aundh which is Near City International School. , Pune, Maharashtra" }, "geometry": { "type": "Point", "coordinates": [ 73.8129798, 18.5644552 ] } },
{ "type": "Feature", "properties": { "ccd_name": "Branch of tree / complete tree cutting", "com_location": "Orange County Phase 2, Pashan Baner Link Road, Pashan, Pune 411021" }, "geometry": { "type": "Point", "coordinates": [ 73.7902348, 18.5456316 ] } },
{ "type": "Feature", "properties": { "ccd_name": "Others (Garden) (HO)", "com_location": " Sai Paradise building, Pune, Maharashtra" }, "geometry": { "type": "Point", "coordinates": [ 73.875169900000017, 18.5762657 ] } },
{ "type": "Feature", "properties": { "ccd_name": "Branch of tree / complete tree cutting", "com_location": " Alankapuri Society on MIT College Road , Kothrud , Pune, Maharashtra" }, "geometry": { "type": "Point", "coordinates": [ 73.8152326, 18.5130576 ] } },
{ "type": "Feature", "properties": { "ccd_name": "Lifiting of tree cutting", "com_location": " 9a kalyani nagar goodwill Enclave , Pune, Maharashtra" }, "geometry": { "type": "Point", "coordinates": [ 73.8988815, 18.5482903 ] } },
{ "type": "Feature", "properties": { "ccd_name": "Others (Garden) (HO)", "com_location": " in front of old DRM office Pune 1" }, "geometry": { "type": "Point", "coordinates": [ 73.8726108, 18.5302571 ] } },
{ "type": "Feature", "properties": { "ccd_name": "Branch of tree / complete tree cutting", "com_location": "kasturba gandhi vasahat, ganeshkhind road, aundh, Pune, Maharashtra" }, "geometry": { "type": "Point", "coordinates": [ 73.818753, 18.554983 ] } },
{ "type": "Feature", "properties": { "ccd_name": "Branch of tree / complete tree cutting", "com_location": "Kool homes Kausar Baugh Kondhwa, Pune, Maharashtra" }, "geometry": { "type": "Point", "coordinates": [ 73.8949109, 18.4716368 ] } },
{ "type": "Feature", "properties": { "ccd_name": "Maintenance of Garden (Horticulture Related) (HO)", "com_location": "BT kawade road ghorpadi gaon pune" }, "geometry": { "type": "Point", "coordinates": [ 73.9066077, 18.5198142 ] } },
{ "type": "Feature", "properties": { "ccd_name": "Permission to Trim Branches in private Society / Land", "com_location": "Ishan Nagari society, Near Ambedkar Chowk, warje Pune." }, "geometry": { "type": "Point", "coordinates": [ 73.810334, 18.484644 ] } },
{ "type": "Feature", "properties": { "ccd_name": "Branch of tree / complete tree cutting", "com_location": "Navi khadki cantoment bank samor  near kal bhairavnath mandir , Pune, Maharashtra" }, "geometry": { "type": "Point", "coordinates": [ 73.8857168, 18.5512038 ] } },
{ "type": "Feature", "properties": { "ccd_name": "Branch of tree / complete tree cutting", "com_location": "Location Maratha Mandir off NDA Pashan Road Bavdhan., Pune, Maharashtra" }, "geometry": { "type": "Point", "coordinates": [ 73.782109, 18.511712 ] } },
{ "type": "Feature", "properties": { "ccd_name": "Permission to Trim Branches in private Society / Land", "com_location": "Hira Heights, Near Nilesh aangan society, Shri nagar lane no 3, Ganesh nagar wadgaon Sheri Pune" }, "geometry": { "type": "Point", "coordinates": [ 73.9252126, 18.5541935 ] } },
{ "type": "Feature", "properties": { "ccd_name": "Lifiting of tree cutting", "com_location": "Ideal colony 59 navketan society , Pune, Maharashtra" }, "geometry": { "type": "Point", "coordinates": [ 73.8183266, 18.5091894 ] } },
{ "type": "Feature", "properties": { "ccd_name": "Branch of tree / complete tree cutting", "com_location": "shubhaMkara hAUsa, 1206/29e, ha Tela shubhamachyA mAge, saMbhAjI bAga geTa naM 3 samorachI gallI, puNe \r\n" }, "geometry": { "type": "Point", "coordinates": [ 73.8786239, 18.5246091 ] } },
{ "type": "Feature", "properties": { "ccd_name": "Permission to Trim Branches in private Society / Land", "com_location": "Rajesh choudhary\r\nProfile Heritage\r\nPrabhat road lane no 7, Pune, Maharashtra" }, "geometry": { "type": "Point", "coordinates": [ 73.8360922, 18.5150463 ] } },
{ "type": "Feature", "properties": { "ccd_name": "Lifiting of tree cutting", "com_location": "Shirole Estate\r\nLane No 6, Bhandarkar road , Pune, Maharashtra" }, "geometry": { "type": "Point", "coordinates": [ 73.8383304, 18.5180021 ] } },
{ "type": "Feature", "properties": { "ccd_name": "Branch of tree / complete tree cutting", "com_location": "386 bhavani peth amol sagar estate, opposite Madinah hotel, Pune 2.\r\n" }, "geometry": { "type": "Point", "coordinates": [ 73.874895, 18.507895 ] } },
{ "type": "Feature", "properties": { "ccd_name": "Branch of tree / complete tree cutting", "com_location": "Aundh Baner, Pune, Maharashtra" }, "geometry": { "type": "Point", "coordinates": [ 73.8101661, 18.5633609 ] } },
{ "type": "Feature", "properties": { "ccd_name": "Branch of tree / complete tree cutting", "com_location": "vArDa kramAMka 35 siddhArtha  vasAhata dAte basa sTa pa jayavaMta TiLaka nagara, Pune, Maharashtra" }, "geometry": { "type": "Point", "coordinates": [ 73.9372291, 18.5626928 ] } },
{ "type": "Feature", "properties": { "ccd_name": "Lifiting of tree cutting", "com_location": "-kesarI pUnama pArka sosAyaTI, opposite AtmAnaMda pArka sosAyaTI,  zircon apartments  road , near maitrI gArDana, Viman nagar., Pune, Maharashtra" }, "geometry": { "type": "Point", "coordinates": [ 73.9143637, 18.5678553 ] } },
{ "type": "Feature", "properties": { "ccd_name": "Lifiting of tree cutting", "com_location": "Jadhav wada, 287 Shaniwar Peth, Tambe Lane, Pune-30" }, "geometry": { "type": "Point", "coordinates": [ 73.8502974, 18.5192967 ] } },
{ "type": "Feature", "properties": { "ccd_name": "Lifiting of tree cutting", "com_location": "Manas Dreams socity Anjor Socity Ganraj Mangal Karyalay Baner, Pune, " }, "geometry": { "type": "Point", "coordinates": [ 73.77598, 18.564474 ] } },
{ "type": "Feature", "properties": { "ccd_name": "Branch of tree / complete tree cutting", "com_location": " road between Sewa mitra mandal chauk to Chinchechi talim shukrawar peth \r\n, Pune, Maharashtra" }, "geometry": { "type": "Point", "coordinates": [ 73.8555575, 18.5085826 ] } },
{ "type": "Feature", "properties": { "ccd_name": "Branch of tree / complete tree cutting", "com_location": "survey number 16/7/1 amit appartment ambegaon budruk  pune 46 " }, "geometry": { "type": "Point", "coordinates": [ 73.8176839, 18.4918016 ] } },
{ "type": "Feature", "properties": { "ccd_name": "Branch of tree / complete tree cutting", "com_location": "samRRiddhI apArTameMTa, pAMDavanagara polIsa chaukIjavaLa, vaDAravADI, puNe 16." }, "geometry": { "type": "Point", "coordinates": [ 73.829134, 18.5337531 ] } },
{ "type": "Feature", "properties": { "ccd_name": "Branch of tree / complete tree cutting", "com_location": "217 maMgaLavAra peTha hajarata khkhAjA nagara gausiyA masjida samora, Pune, Maharashtra" }, "geometry": { "type": "Point", "coordinates": [ 73.8667247, 18.4844656 ] } },
{ "type": "Feature", "properties": { "ccd_name": "Others (Garden) (HO)", "com_location": "svAmI vivekAnaMda rastyAvarIla iMdirA nagara, Pune, Maharashtra" }, "geometry": { "type": "Point", "coordinates": [ 73.9372291, 18.5626928 ] } },
{ "type": "Feature", "properties": { "ccd_name": "Branch of tree / complete tree cutting", "com_location": "13/ba, Diphensa hausiMga sosAyaTI,janavADI, puNe-16\r\nsaMta gajAnana mahArAja udyAnAjavaLa\r\n" }, "geometry": { "type": "Point", "coordinates": [ 73.9531189, 18.5646495 ] } },
{ "type": "Feature", "properties": { "ccd_name": "Branch of tree / complete tree cutting", "com_location": " in front of Gulmohar Privilege Society, Kharadi (near Nirmala school, near Satav Vasti next to Gulmohar City) , Pune, Maharashtra" }, "geometry": { "type": "Point", "coordinates": [ 73.9443725, 18.552399 ] } },
{ "type": "Feature", "properties": { "ccd_name": "Branch of tree / complete tree cutting", "com_location": "bank of baroda Rasta peth near Tarachand hospital., Pune, Maharashtra" }, "geometry": { "type": "Point", "coordinates": [ 73.867761, 18.5183494 ] } },
{ "type": "Feature", "properties": { "ccd_name": "Permission to Trim Branches in private Society / Land", "com_location": " TAIN square A Wing Co OP Hsg Socy Ltd opposite Inamdar Hospital Fatimanagar Pune." }, "geometry": { "type": "Point", "coordinates": [ 73.9012909, 18.5028382 ] } },
{ "type": "Feature", "properties": { "ccd_name": "Branch of tree / complete tree cutting", "com_location": "Shreemant Ganray Krupa, Behind Mitcon, Survey no: 34, Mumbai Pune Bypass Rd, Patil Nagar, Balewadi" }, "geometry": { "type": "Point", "coordinates": [ 73.7648602, 18.5805753 ] } },
{ "type": "Feature", "properties": { "ccd_name": "Branch of tree / complete tree cutting", "com_location": "pattA :249 /48 Pmc Colony, Janwadi police station, Kusalkar Street, gokhalenagar, Pune 16" }, "geometry": { "type": "Point", "coordinates": [ 73.8309133, 18.5292422 ] } },
{ "type": "Feature", "properties": { "ccd_name": "Permission to Trim Branches in private Society / Land", "com_location": "I am staying in sukhsagarnagar  Lane 3 , sukhsagarnagar 411046, Pune, Maharashtra" }, "geometry": { "type": "Point", "coordinates": [ 73.8496803, 18.4526751 ] } },
{ "type": "Feature", "properties": { "ccd_name": "Branch of tree / complete tree cutting", "com_location": "Satav nagar Handewadi road near dwarka sweet , Pune, Maharashtra" }, "geometry": { "type": "Point", "coordinates": [ 73.9314736, 18.4754573 ] } },
{ "type": "Feature", "properties": { "ccd_name": "Branch of tree / complete tree cutting", "com_location": " trolley bldg H Parmar Nagar Fatima Nagar.\r\n, Pune, Maharashtra" }, "geometry": { "type": "Point", "coordinates": [ 73.9010765, 18.5009379 ] } },
{ "type": "Feature", "properties": { "ccd_name": "Branch of tree / complete tree cutting", "com_location": "plot 573/33b gumphan apt, bibwewadi, pune" }, "geometry": { "type": "Point", "coordinates": [ 73.8626817, 18.4789011 ] } },
{ "type": "Feature", "properties": { "ccd_name": "Branch of tree / complete tree cutting", "com_location": "5 church road nr bj medical , leadies hostel, bhd state bank main branch, Pune, Maharashtra" }, "geometry": { "type": "Point", "coordinates": [ 73.8478823, 18.5235045 ] } },
{ "type": "Feature", "properties": { "ccd_name": "Branch of tree / complete tree cutting", "com_location": "ghara kramAMka araNyeshvara shALe samora pavAra jevalersa shejArI padmAvatI, Pune, Maharashtra" }, "geometry": { "type": "Point", "coordinates": [ 73.8580788, 18.476679 ] } },
{ "type": "Feature", "properties": { "ccd_name": "Branch of tree / complete tree cutting", "com_location": ". ra yala enphilDa, sho rumachyA mAge, ujavI bhusArI, kotharuDa Depo va chAMdaNI chaukachyA madhe., Pune, Maharashtra" }, "geometry": { "type": "Point", "coordinates": [ 73.7948462, 18.5089646 ] } },
{ "type": "Feature", "properties": { "ccd_name": "Branch of tree / complete tree cutting", "com_location": " kasturabA vasAhata seMTrala skulajavaLa, auMdha, puNe. 411007. .\r\n" }, "geometry": { "type": "Point", "coordinates": [ 73.8174613, 18.5550337 ] } },
{ "type": "Feature", "properties": { "ccd_name": "Permission to Trim Branches in private Society / Land", "com_location": "dhAmaNakara patha, mayUra ka lanI, kotharUDa. Bank  pha maharashtra chyA mAgachI gallI. baMgalA kramAMka 29. , Pune, Maharashtra" }, "geometry": { "type": "Point", "coordinates": [ 73.867475, 18.518121 ] } },
{ "type": "Feature", "properties": { "ccd_name": "Branch of tree / complete tree cutting", "com_location": "senApatI bApaTa rastA , peTAluna ANi shaguna ha Tela samora rastyA madhye,, Pune, Maharashtra" }, "geometry": { "type": "Point", "coordinates": [ 73.8307131, 18.5273169 ] } },
{ "type": "Feature", "properties": { "ccd_name": "Branch of tree / complete tree cutting", "com_location": "ITI road sane wadi meghana apartment near cosmos bank aundh pune " }, "geometry": { "type": "Point", "coordinates": [ 73.8091739, 18.5538259 ] } },
{ "type": "Feature", "properties": { "ccd_name": "Permission to Trim Branches in private Society / Land", "com_location": "Rutuparna Apartments, Dp Road, Kothrud 411038 opposition Shetriya Karyalay building., Pune, Maharashtra" }, "geometry": { "type": "Point", "coordinates": [ 73.8096942, 18.5017005 ] } },
{ "type": "Feature", "properties": { "ccd_name": "Branch of tree / complete tree cutting", "com_location": "niv pshan sus rd , Pune, Maharashtra" }, "geometry": { "type": "Point", "coordinates": [ 73.7889026, 18.5432114 ] } },
{ "type": "Feature", "properties": { "ccd_name": "Lifiting of tree cutting", "com_location": "NEW HILL VIEW TOP SOCIETY OPP PANCHVATI COMPLEX NEAR MUKTANAND SOCIETY YASHVANTRAO CHAVAN NAGAR DHANKAWDI PUNE 43" }, "geometry": { "type": "Point", "coordinates": [ 73.8539111, 18.4725042 ] } },
{ "type": "Feature", "properties": { "ccd_name": "Branch of tree / complete tree cutting", "com_location": "SB Road Ratna memorial hospital, Pune, Maharashtra" }, "geometry": { "type": "Point", "coordinates": [ 73.8295571, 18.5276694 ] } },
{ "type": "Feature", "properties": { "ccd_name": "Branch of tree / complete tree cutting", "com_location": " surashrI  apArTameMTa,  sTarliMga  homsa , vAraje, Pune, Maharashtra" }, "geometry": { "type": "Point", "coordinates": [ 73.8040344, 18.4852221 ] } },
{ "type": "Feature", "properties": { "ccd_name": "Branch of tree / complete tree cutting", "com_location": "AUND BANER ROADS, Pune, Maharashtra" }, "geometry": { "type": "Point", "coordinates": [ 73.8101661, 18.5633609 ] } },
{ "type": "Feature", "properties": { "ccd_name": "Lifiting of tree cutting", "com_location": "34vivak housing society padmavhti \r\nNear bus stop\r\nPune" }, "geometry": { "type": "Point", "coordinates": [ 73.8786239, 18.5246091 ] } },
{ "type": "Feature", "properties": { "ccd_name": "Lifiting of tree cutting", "com_location": "row house no -2 lane no-24, A ganesh ngr dhayari opp alok , Pune, Maharashtra" }, "geometry": { "type": "Point", "coordinates": [ 73.8110972, 18.4521836 ] } },
{ "type": "Feature", "properties": { "ccd_name": "Branch of tree / complete tree cutting", "com_location": "1396 sadashiv peth near pune vidyarthi gruh" }, "geometry": { "type": "Point", "coordinates": [ 73.8511528, 18.5104667 ] } },
{ "type": "Feature", "properties": { "ccd_name": "Permission to Trim Branches in private Society / Land", "com_location": "E 403 DAULAT NAGAR SUN CITY ROAD,NEAR SINGHAGAD POLICE STATION., Pune, Maharashtra" }, "geometry": { "type": "Point", "coordinates": [ 73.9054732, 18.6025716 ] } },
{ "type": "Feature", "properties": { "ccd_name": "Branch of tree / complete tree cutting", "com_location": "S.No. 658/9, Krushna Nagar, Apper Kondhwa Rd, Nr. Mahesh Sanskrutik Bhavan & Morya Nagri, 7709496111, Pune, Maharashtra" }, "geometry": { "type": "Point", "coordinates": [ 73.875329, 18.460823 ] } },
{ "type": "Feature", "properties": { "ccd_name": "Lifiting of tree cutting", "com_location": " shrImahAlAksaminagara leka TAuna javaLa bibavevADI puNe\r\n" }, "geometry": { "type": "Point", "coordinates": [ 73.8640944, 18.4690213 ] } },
{ "type": "Feature", "properties": { "ccd_name": "Branch of tree / complete tree cutting", "com_location": " Ekta Park CTS17,FP 26 Old Mumbai Pune Road Wakdewadi near Wadewale Joshi. " }, "geometry": { "type": "Point", "coordinates": [ 73.852608, 18.541659 ] } },
{ "type": "Feature", "properties": { "ccd_name": "Permission to Trim Branches in private Society / Land", "com_location": "Bibvewadi Indira nagar lowerp/1 room no 19, Pune, Maharashtra" }, "geometry": { "type": "Point", "coordinates": [ 73.8644644, 18.4638133 ] } },
{ "type": "Feature", "properties": { "ccd_name": "Lifiting of tree cutting", "com_location": "Near primrose mall datta mandir chowk baner, Pune, Maharashtra" }, "geometry": { "type": "Point", "coordinates": [ 73.7855781, 18.5613608 ] } },
{ "type": "Feature", "properties": { "ccd_name": "Permission to Trim Branches in private Society / Land", "com_location": "pI ema sI ka lanI naM . 10 bhavAnI peTha ghara naM . 2-ba  puNe 42." }, "geometry": { "type": "Point", "coordinates": [ 73.8644422, 18.5114756 ] } },
{ "type": "Feature", "properties": { "ccd_name": "Branch of tree / complete tree cutting", "com_location": "vishrantwadi behind bharat petrol pump, Pune, Maharashtra" }, "geometry": { "type": "Point", "coordinates": [ 73.842534, 18.532693 ] } },
{ "type": "Feature", "properties": { "ccd_name": "Branch of tree / complete tree cutting", "com_location": "Rajendra Mavale Nivas Rajiv Gandhi Nagar Nikam scholl Sangamwadi , Pune, Maharashtra" }, "geometry": { "type": "Point", "coordinates": [ 73.8761891, 18.5349529 ] } },
{ "type": "Feature", "properties": { "ccd_name": "Lifiting of tree cutting", "com_location": " pu nA gADagILa jvelarsa gallI, DahANUkara ka lanI samorachI ka lanI., Pune, Maharashtra" }, "geometry": { "type": "Point", "coordinates": [ 73.8786239, 18.5246091 ] } },
{ "type": "Feature", "properties": { "ccd_name": "Others (Garden-Civil)", "com_location": "Vitobha Balaji Murkute udyan Baner., Pune, Maharashtra" }, "geometry": { "type": "Point", "coordinates": [ 73.7722402, 18.5570023 ] } },
{ "type": "Feature", "properties": { "ccd_name": "Lifiting of tree cutting", "com_location": "Address Ragvidya appartment opp sun residency dhayari narhe road near Kailash Jeevan factory, Pune, Maharashtra" }, "geometry": { "type": "Point", "coordinates": [ 73.8127184, 18.447535 ] } },
{ "type": "Feature", "properties": { "ccd_name": "Branch of tree / complete tree cutting", "com_location": "plot 16, balaji society, santh eknath nagar 2, bibvewadi, pune - 411037" }, "geometry": { "type": "Point", "coordinates": [ 73.8615494, 18.4729314 ] } },
{ "type": "Feature", "properties": { "ccd_name": "Branch of tree / complete tree cutting", "com_location": "54 B Hadapsar industrial area,Tata Research Development and Design Center,opposite to Tata Honeywell, Pune, Maharashtra" }, "geometry": { "type": "Point", "coordinates": [ 73.916451, 18.51143 ] } },
{ "type": "Feature", "properties": { "ccd_name": "Branch of tree / complete tree cutting", "com_location": " sangam bridge Pune" }, "geometry": { "type": "Point", "coordinates": [ 73.8610579, 18.5297485 ] } },
{ "type": "Feature", "properties": { "ccd_name": "Lifiting of tree cutting", "com_location": "Tulshibagwale colney, opp.Pate Sanskriti, manikanchan bunglow, sahakarnagar no.2, Pune 411009" }, "geometry": { "type": "Point", "coordinates": [ 73.8462326, 18.4905739 ] } },
{ "type": "Feature", "properties": { "ccd_name": "Branch of tree / complete tree cutting", "com_location": "Shanti Garden Co Op Hsg Society \r\nAnand Nagar Sinhgad Road, Near Mataji Super Market, 51, Pune, Maharashtra" }, "geometry": { "type": "Point", "coordinates": [ 73.8033639, 18.4571619 ] } },
{ "type": "Feature", "properties": { "ccd_name": "Others (Garden) (HO)", "com_location": "OF WALKING/CYCLE TRACK AT MMCC COLLEGE.\r\n, Pune, Maharashtra" }, "geometry": { "type": "Point", "coordinates": [ 73.8384017, 18.5201269 ] } },
{ "type": "Feature", "properties": { "ccd_name": "Lifiting of tree cutting", "com_location": "silvara isTeTa samorila rastA, bibavevADI gAvaThANa. , Pune, Maharashtra" }, "geometry": { "type": "Point", "coordinates": [ 73.8632019, 18.4746754 ] } },
{ "type": "Feature", "properties": { "ccd_name": "Lifiting of tree cutting", "com_location": " pattA khAlIlapramANe:- 2163 ba sadAshiva peTha, snehanagara, nilAyama thieTara shejArI, \r\npuNe 411030." }, "geometry": { "type": "Point", "coordinates": [ 73.8506499, 18.4999907 ] } },
{ "type": "Feature", "properties": { "ccd_name": "Permission to Trim Branches in private Society / Land", "com_location": "SN.50/2, Akshaya Terrace, Near Sahayog Park, Chandan Nagar, 411014, Pune, Maharashtra" }, "geometry": { "type": "Point", "coordinates": [ 73.934326, 18.561981 ] } },
{ "type": "Feature", "properties": { "ccd_name": "Branch of tree / complete tree cutting", "com_location": "Regency Meadows, Near Dhanori Jakat Naka, Pune.\r\n" }, "geometry": { "type": "Point", "coordinates": [ 73.9052972, 18.6020104 ] } },
{ "type": "Feature", "properties": { "ccd_name": "Repairing of playing equipments in garden", "com_location": "shAhU udyAna somavArapeTha., Pune, Maharashtra" }, "geometry": { "type": "Point", "coordinates": [ 73.8681221, 18.5210443 ] } },
{ "type": "Feature", "properties": { "ccd_name": "Branch of tree / complete tree cutting", "com_location": "oma vhilA ko- pareTiva hAUsiMga sosAyaTI ba mbe saphara ka lanI vaDagAva sherI puNe" }, "geometry": { "type": "Point", "coordinates": [ 73.918503, 18.5491477 ] } },
{ "type": "Feature", "properties": { "ccd_name": "Branch of tree / complete tree cutting", "com_location": "Capt. Manoj Pandey\r\nRoad No B8C\r\nGurudwara Colony\r\nLohegaon, , Pune, Maharashtra" }, "geometry": { "type": "Point", "coordinates": [ 73.9296978, 18.5907308 ] } },
{ "type": "Feature", "properties": { "ccd_name": "Branch of tree / complete tree cutting", "com_location": "prabhAga 39,\r\nrAjamudrA sosAyaTI samorIla phUTapAtha vara, Pune, Maharashtra" }, "geometry": { "type": "Point", "coordinates": [ 73.9531189, 18.5646495 ] } },
{ "type": "Feature", "properties": { "ccd_name": "Branch of tree / complete tree cutting", "com_location": " Viman Nagar, Datta Mandir chouk, Trafic Signal , Pune, Maharashtra" }, "geometry": { "type": "Point", "coordinates": [ 73.9140352, 18.5652404 ] } },
{ "type": "Feature", "properties": { "ccd_name": "Permission to Trim Branches in private Society / Land", "com_location": "kalpaka homsa hAusiMga sosAyaTI, chaitrAMgaNa so. sarve naM - 14, sukhasAgaranagara, kAtraja, puNe - 411046" }, "geometry": { "type": "Point", "coordinates": [ 73.865238, 18.4529322 ] } },
{ "type": "Feature", "properties": { "ccd_name": "Permission to Trim Branches in private Society / Land", "com_location": "Ascent Society\r\nPashan highway side road\r\nPune bangalore highway\r\nBehind Renault showroom \r\nBaner" }, "geometry": { "type": "Point", "coordinates": [ 73.7721014, 18.5556916 ] } },
{ "type": "Feature", "properties": { "ccd_name": "Permission to Trim Branches in private Society / Land", "com_location": "The cake galaxy shop no 1 shriram chaitanya  heights near rims international school vaiduvadi Hadapsar pune\r\nTree trimming" }, "geometry": { "type": "Point", "coordinates": [ 73.9205509, 18.5029883 ] } },
{ "type": "Feature", "properties": { "ccd_name": "Permission to Trim Branches in private Society / Land", "com_location": "Snehalbaug Society, Tulshibaugwale Colony, Sahakar Nagar 2, Parvati, Pune" }, "geometry": { "type": "Point", "coordinates": [ 73.8484682, 18.4908312 ] } },
{ "type": "Feature", "properties": { "ccd_name": "Branch of tree / complete tree cutting", "com_location": "Minatai Thakare Nagar Building No 5, Karvenagar., Pune, Maharashtra" }, "geometry": { "type": "Point", "coordinates": [ 73.8153935, 18.4999107 ] } },
{ "type": "Feature", "properties": { "ccd_name": "Others (Garden) (HO)", "com_location": "sinhgad rd vadgaon highway bridge behind Vadgaon bus stand to manik baug rd, Pune, Maharashtra" }, "geometry": { "type": "Point", "coordinates": [ 73.8221989, 18.4746623 ] } },
{ "type": "Feature", "properties": { "ccd_name": "Maintenance of Garden (Horticulture Related) (HO)", "com_location": "Aundh baner link road opp to baner water filteration plant, Pune, Maharashtra" }, "geometry": { "type": "Point", "coordinates": [ 73.7961758, 18.5632754 ] } },
{ "type": "Feature", "properties": { "ccd_name": "Others (Garden) (HO)", "com_location": " on the road side, opp skp campus, Balewadi road, next to Hyderabad biryani house, Balewadi. , Pune, Maharashtra" }, "geometry": { "type": "Point", "coordinates": [ 73.7734397, 18.5735967 ] } },
{ "type": "Feature", "properties": { "ccd_name": "Branch of tree / complete tree cutting", "com_location": "1117, Sadashiv peth Swaroop chaitnay society,\r\n, Pune, Maharashtra" }, "geometry": { "type": "Point", "coordinates": [ 73.8302361, 18.5311465 ] } },
{ "type": "Feature", "properties": { "ccd_name": "Lifiting of tree cutting", "com_location": "Kranti Society Sahakar Nagar No 2 Pune" }, "geometry": { "type": "Point", "coordinates": [ 73.8445093, 18.4846603 ] } },
{ "type": "Feature", "properties": { "ccd_name": "Branch of tree / complete tree cutting", "com_location": "gangadhar vijaya banglow nivas, sr.no 8/3 ,benkar vasti,opposite rutunagari ,dhayri pune-411041" }, "geometry": { "type": "Point", "coordinates": [ 73.8167603, 18.445933 ] } },
{ "type": "Feature", "properties": { "ccd_name": "Branch of tree / complete tree cutting", "com_location": "paramahaMsa nagara, pauDa rAstA sabave javaLa shaMbhAvI ha Tela samora , Pune, Maharashtra" }, "geometry": { "type": "Point", "coordinates": [ 73.8786239, 18.5246091 ] } },
{ "type": "Feature", "properties": { "ccd_name": "Lifiting of tree cutting", "com_location": "250 Shaniwar Peth,\r\nOpp Majestic Book Stall,\r\nPune 411030" }, "geometry": { "type": "Point", "coordinates": [ 73.8476578, 18.5181079 ] } },
{ "type": "Feature", "properties": { "ccd_name": "Lifiting of tree cutting", "com_location": "shiv gouri patwardhan bag shreyas co-op-hous-soc, Erandwane pune-4http://115.124.97.182:8085/CMS/inbox" }, "geometry": { "type": "Point", "coordinates": [ 73.8299634, 18.5022378 ] } },
{ "type": "Feature", "properties": { "ccd_name": "Others (Garden) (HO)", "com_location": "Balaji  nagar  ghorpadi  pune   01" }, "geometry": { "type": "Point", "coordinates": [ 73.9025769, 18.5256599 ] } },
{ "type": "Feature", "properties": { "ccd_name": "Branch of tree / complete tree cutting", "com_location": "Sutar Hospital Gujrat colony new Bhagyadoy jewellers kotrud pune 411029 " }, "geometry": { "type": "Point", "coordinates": [ 73.8090554, 18.5030907 ] } },
{ "type": "Feature", "properties": { "ccd_name": "Branch of tree / complete tree cutting", "com_location": "rajendra murudkar ground floor structure behind new maharashtra building oposite to shanivarwada main gate 48 shanivaar peth pune 411030" }, "geometry": { "type": "Point", "coordinates": [ 73.8539601, 18.5211466 ] } },
{ "type": "Feature", "properties": { "ccd_name": "Permission to Trim Branches in private Society / Land", "com_location": "Aanandi, 1028 B/1, Model Colony, Canal Road, Shivaji Nagar, Pune 411016" }, "geometry": { "type": "Point", "coordinates": [ 73.8373566, 18.5328779 ] } },
{ "type": "Feature", "properties": { "ccd_name": "Permission to Trim Branches in private Society / Land", "com_location": "upper bibwewadi dolphin chowk, Pune, Maharashtra" }, "geometry": { "type": "Point", "coordinates": [ 73.8725043, 18.4616438 ] } },
{ "type": "Feature", "properties": { "ccd_name": "Others (Garden) (HO)", "com_location": "shrImaMta bhairavasih ghorapaDe udayanAya ghorpade peth pune 411042" }, "geometry": { "type": "Point", "coordinates": [ 73.8662917, 18.5019469 ] } },
{ "type": "Feature", "properties": { "ccd_name": "Permission to Trim Branches in private Society / Land", "com_location": "Moti Tower, Mohanwadi, Yerawada , Pune 06" }, "geometry": { "type": "Point", "coordinates": [ 73.8805205, 18.5693438 ] } },
{ "type": "Feature", "properties": { "ccd_name": "Permission to Trim Branches in private Society / Land", "com_location": "Somnathnagar Servey no 35,Supraphat Lane no.2. Infront of my house\r\nthere is Private unused property of your PMC Engineer,Shri.Visharam Bhalchandra Dev\\, Pune, Maharashtra" }, "geometry": { "type": "Point", "coordinates": [ 73.8786239, 18.5246091 ] } },
{ "type": "Feature", "properties": { "ccd_name": "Branch of tree / complete tree cutting", "com_location": "Maharashtra Gov Aarey milk center \r\nGangadham  market  yard \r\nOpp gaga galaxy \r\nNr gangadham  fase 2 , Pune, Maharashtra" }, "geometry": { "type": "Point", "coordinates": [ 73.874985, 18.4788691 ] } },
{ "type": "Feature", "properties": { "ccd_name": "Branch of tree / complete tree cutting", "com_location": " Viman Nagar, Datta Mandir chouk, , Pune, Maharashtra" }, "geometry": { "type": "Point", "coordinates": [ 73.9140352, 18.5652404 ] } },
{ "type": "Feature", "properties": { "ccd_name": "Lifiting of tree cutting", "com_location": "RAGH VIDYA APARTMENT OPP SUN RESIDENCY NEAR KAILASH JIVAN FACTORY DHAYARI , Pune, Maharashtra" }, "geometry": { "type": "Point", "coordinates": [ 73.8133749, 18.4478426 ] } },
{ "type": "Feature", "properties": { "ccd_name": "Permission to Trim Branches in private Society / Land", "com_location": "Akashwani behind of hotel sangram Hadapsar pune 28" }, "geometry": { "type": "Point", "coordinates": [ 73.9443338, 18.496109 ] } },
{ "type": "Feature", "properties": { "ccd_name": "Branch of tree / complete tree cutting", "com_location": "\"Anugrah\", 20/21 Patwardhan Baug, Erandwane, Pune\t" }, "geometry": { "type": "Point", "coordinates": [ 73.8299337, 18.5005546 ] } },
{ "type": "Feature", "properties": { "ccd_name": "Lifiting of tree cutting", "com_location": "Address- Shivprerna society, Swami vivekanand road, bibwewadi Near Suhag mangal karalya, Pune, Maharashtra" }, "geometry": { "type": "Point", "coordinates": [ 73.8619812, 18.4770098 ] } },
{ "type": "Feature", "properties": { "ccd_name": "Others (Garden) (HO)", "com_location": "ka.NnAla bAga..bhAMDArakara roDa manapA surakShArakShaka, Pune, Maharashtra" }, "geometry": { "type": "Point", "coordinates": [ 73.856021, 18.524395 ] } },
{ "type": "Feature", "properties": { "ccd_name": "Branch of tree / complete tree cutting", "com_location": "88 b Vrindavan Colony, Azad Nagar, Kothrud, Pune 38." }, "geometry": { "type": "Point", "coordinates": [ 73.8072718, 18.5049379 ] } },
{ "type": "Feature", "properties": { "ccd_name": "Others (Garden) (HO)", "com_location": "gunjan chowk to shastrinagar, Pune, Maharashtra" }, "geometry": { "type": "Point", "coordinates": [ 73.8962994, 18.5548965 ] } },
{ "type": "Feature", "properties": { "ccd_name": "Lifiting of tree cutting", "com_location": "Om Galaxy building Stellar mall chya smor near Canara Bank chya Samor kharadi pune 411014." }, "geometry": { "type": "Point", "coordinates": [ 73.9414913, 18.5501421 ] } },
{ "type": "Feature", "properties": { "ccd_name": "Cleaning of Garden (HO)", "com_location": "Onkar Sadan, 162 Shaniwar Peth, Near Shaniwar Wada, Bajirao Road, Pune" }, "geometry": { "type": "Point", "coordinates": [ 73.8543257, 18.5197879 ] } },
{ "type": "Feature", "properties": { "ccd_name": "Others (Garden) (HO)", "com_location": "Late Atal Bihari Vaj Paayi Bridge Shankar Sheth Road Seven Lodge Chowk Bridge ke upar, Pune, Maharashtra" }, "geometry": { "type": "Point", "coordinates": [ 73.869511, 18.501424 ] } },
{ "type": "Feature", "properties": { "ccd_name": "Permission to Trim Branches in private Society / Land", "com_location": "Model colony Shivajinagar, Pune, Maharashtra" }, "geometry": { "type": "Point", "coordinates": [ 73.8374954, 18.5324846 ] } },
{ "type": "Feature", "properties": { "ccd_name": "Branch of tree / complete tree cutting", "com_location": "annuhar survey number 116/8/16 pashan sus road pune." }, "geometry": { "type": "Point", "coordinates": [ 73.791659, 18.5416081 ] } },
{ "type": "Feature", "properties": { "ccd_name": "Branch of tree / complete tree cutting", "com_location": "440/41 new mangalwar peth opposit ladkat petroll pump pune 11" }, "geometry": { "type": "Point", "coordinates": [ 73.8662753, 18.5221836 ] } },
{ "type": "Feature", "properties": { "ccd_name": "Branch of tree / complete tree cutting", "com_location": "Place SASSON DOCTORS QUARTETS INFRONT OF OLD ZILA PARISHAD PUNE navin \r\nMangalwar peth\r\nRoad:\r\nfrom sasoon hospitals chowk to Narpatgiri chowk.\r\n" }, "geometry": { "type": "Point", "coordinates": [ 73.8673064, 18.5227968 ] } },
{ "type": "Feature", "properties": { "ccd_name": "Lifiting of tree cutting", "com_location": "bombay sappers colony behind major bjaskar shinde garden..om vilas building, Pune, Maharashtra" }, "geometry": { "type": "Point", "coordinates": [ 73.9260622, 18.5607278 ] } },
{ "type": "Feature", "properties": { "ccd_name": "Branch of tree / complete tree cutting", "com_location": "242/B, Rathi Bldg, Rasta Peth, Pune -411011" }, "geometry": { "type": "Point", "coordinates": [ 73.8601853, 18.5137662 ] } },
{ "type": "Feature", "properties": { "ccd_name": "Branch of tree / complete tree cutting", "com_location": "S no 48 sai park maruti niwas near kalyani steel company mundawa pune 411036" }, "geometry": { "type": "Point", "coordinates": [ 73.9135078, 18.52434 ] } },
{ "type": "Feature", "properties": { "ccd_name": "Branch of tree / complete tree cutting", "com_location": "Dwarkakunj CHS, Krishna colony, Lane 10, Paramhans nagar, Opp Vanaz, Kothrud, Paud Road, Pune 411038" }, "geometry": { "type": "Point", "coordinates": [ 73.8051027, 18.5068258 ] } },
{ "type": "Feature", "properties": { "ccd_name": "Others (Garden) (HO)", "com_location": "on Parvati hill , Pune, Maharashtra" }, "geometry": { "type": "Point", "coordinates": [ 73.8441118, 18.4949019 ] } },
{ "type": "Feature", "properties": { "ccd_name": "Branch of tree / complete tree cutting", "com_location": " MIT college gate paud Rd , Pune, Maharashtra" }, "geometry": { "type": "Point", "coordinates": [ 73.8153157, 18.5150261 ] } },
{ "type": "Feature", "properties": { "ccd_name": "Branch of tree / complete tree cutting", "com_location": "-54/5 shAMtInagara,gallI naMbara 1,vAnavaDI ,puNe 40" }, "geometry": { "type": "Point", "coordinates": [ 73.900376, 18.4948573 ] } },
{ "type": "Feature", "properties": { "ccd_name": "Lifiting of tree cutting", "com_location": "Bibwewadi behind mahaveer furniture ser 573, Pune, Maharashtra" }, "geometry": { "type": "Point", "coordinates": [ 73.9306202, 18.5208508 ] } },
{ "type": "Feature", "properties": { "ccd_name": "Lifiting of tree cutting", "com_location": "Left side of Ganesh Anagn Society , Sr. No. 22 , Vidyanagar , Katraj - Kondhawa Road ,katraj, Pune, Maharashtra" }, "geometry": { "type": "Point", "coordinates": [ 73.868971, 18.449143 ] } },
{ "type": "Feature", "properties": { "ccd_name": "Planting of trees besides divider/foothpath (HO)", "com_location": "Park Ridge Road., Pune, Maharashtra" }, "geometry": { "type": "Point", "coordinates": [ 73.7953553, 18.5462069 ] } },
{ "type": "Feature", "properties": { "ccd_name": "Others (Garden-Civil)", "com_location": "passport office baner pashan link road, Pune, Maharashtra" }, "geometry": { "type": "Point", "coordinates": [ 73.7912895, 18.5491346 ] } },
{ "type": "Feature", "properties": { "ccd_name": "Branch of tree / complete tree cutting", "com_location": " VimanNagar, Near Brookside hotel., Pune, Maharashtra" }, "geometry": { "type": "Point", "coordinates": [ 73.9143637, 18.5678553 ] } },
{ "type": "Feature", "properties": { "ccd_name": "Permission to Trim Branches in private Society / Land", "com_location": " 19 sItAbAga  ka lanI   dattavADI  parisara  siMhagaDa  rastyA javaLa asalelyA  pla Ta  vara , Pune, Maharashtra" }, "geometry": { "type": "Point", "coordinates": [ 73.8384476, 18.4961383 ] } },
{ "type": "Feature", "properties": { "ccd_name": "Branch of tree / complete tree cutting", "com_location": "Sr no 66,Unnati dham co op  society near nana nani park \r\nKondhwa- market yard road pune 48" }, "geometry": { "type": "Point", "coordinates": [ 73.865325, 18.4898 ] } },
{ "type": "Feature", "properties": { "ccd_name": "Branch of tree / complete tree cutting", "com_location": " Rachana park building in Sanewadi Aundh\r\n, Pune, Maharashtra" }, "geometry": { "type": "Point", "coordinates": [ 73.806984, 18.5546562 ] } },
{ "type": "Feature", "properties": { "ccd_name": "Lifiting of tree cutting", "com_location": " road.in front of Garden gate(padit Bhimsen joshi udyan, Pune, Maharashtra" }, "geometry": { "type": "Point", "coordinates": [ 73.7912656, 18.5112625 ] } },
{ "type": "Feature", "properties": { "ccd_name": "Permission to Trim Branches in private Society / Land", "com_location": "chintamani ngr gali no -4 hadapsar  nr datta mandir , Pune, Maharashtra" }, "geometry": { "type": "Point", "coordinates": [ 73.9299005, 18.4891392 ] } },
{ "type": "Feature", "properties": { "ccd_name": "Lifiting of tree cutting", "com_location": "sha pa naMbara 9 rAdhA pyArADAijha amara ka Teja, bhosale gArDana, haDapasara puNe 411028" }, "geometry": { "type": "Point", "coordinates": [ 73.9418603, 18.496913 ] } },
{ "type": "Feature", "properties": { "ccd_name": "Branch of tree / complete tree cutting", "com_location": "Lane Number B-24/1,Ganesh Nagar, Dhayari, Pune, Maharashtra 411041, India" }, "geometry": { "type": "Point", "coordinates": [ 73.8122147, 18.451575 ] } },
{ "type": "Feature", "properties": { "ccd_name": "Branch of tree / complete tree cutting", "com_location": "plot no 67/68 ser 39 bharakunj no 2 erandwane pune 38" }, "geometry": { "type": "Point", "coordinates": [ 73.8270064, 18.5014499 ] } },
{ "type": "Feature", "properties": { "ccd_name": "Permission to Trim Branches in private Society / Land", "com_location": " near Utsav Mangal karyalay, Near Vanaz, Paud Road, Kothrud., Pune, Maharashtra" }, "geometry": { "type": "Point", "coordinates": [ 73.806308, 18.5091038 ] } },
{ "type": "Feature", "properties": { "ccd_name": "Permission to Trim Branches in private Society / Land", "com_location": "Soman 90 National Society Baner Rd Aundh Pune 411007" }, "geometry": { "type": "Point", "coordinates": [ 73.8109062, 18.5496256 ] } },
{ "type": "Feature", "properties": { "ccd_name": "Branch of tree / complete tree cutting", "com_location": "sr no 247,Kalwad wasti, Lohegaon road, Pune 411032\r\nLandmark -shifa hospital" }, "geometry": { "type": "Point", "coordinates": [ 73.9051759, 18.5868562 ] } },
{ "type": "Feature", "properties": { "ccd_name": "Lifiting of tree cutting", "com_location": "lane 22/A ganesh ngr, dhyari  pune -41" }, "geometry": { "type": "Point", "coordinates": [ 73.8161885, 18.4502416 ] } },
{ "type": "Feature", "properties": { "ccd_name": "Branch of tree / complete tree cutting", "com_location": "Arjun Apartment, plot no 9 Lane 1B Tingre nagar, vishrantwadi pune 411015" }, "geometry": { "type": "Point", "coordinates": [ 73.8868697, 18.5742448 ] } },
{ "type": "Feature", "properties": { "ccd_name": "Branch of tree / complete tree cutting", "com_location": "prabhAta roDa 759/69prabhAtavadana garavAreshALejavaLa4thIbilDiga\r\n, Pune, Maharashtra" }, "geometry": { "type": "Point", "coordinates": [ 73.8353471, 18.5140064 ] } },
{ "type": "Feature", "properties": { "ccd_name": "Branch of tree / complete tree cutting", "com_location": "Vibhav Laxmi Apartment near Gtpl Hathway Ltd Office Anand Nagar, Sinhgad Rd, Pune" }, "geometry": { "type": "Point", "coordinates": [ 73.8200576, 18.4762244 ] } },
{ "type": "Feature", "properties": { "ccd_name": "Branch of tree / complete tree cutting", "com_location": "618 new guruwar peth Pune near   ganj police chowki suvarn apartment back saeid  chya shejari shri maruti mandir chya mage" }, "geometry": { "type": "Point", "coordinates": [ 73.8665071, 18.5125372 ] } },
{ "type": "Feature", "properties": { "ccd_name": "Permission to Trim Branches in private Society / Land", "com_location": "shubhateja sosAyaTI , lokamAnya ka lonI , pauDa roDa , kotharUDa , puNe-38" }, "geometry": { "type": "Point", "coordinates": [ 73.8175448, 18.5148735 ] } },
{ "type": "Feature", "properties": { "ccd_name": "Lifiting of tree cutting", "com_location": "dhAyarI yethIla gallI kramAMka A26 yethe gokhale Teresa yA sosAyaTI bAhera , Pune, Maharashtra" }, "geometry": { "type": "Point", "coordinates": [ 73.9531189, 18.5646495 ] } },
{ "type": "Feature", "properties": { "ccd_name": "Branch of tree / complete tree cutting", "com_location": "from Sasson babsaheb ambedkar chowk to Narpatgiri chowk..., Pune, Maharashtra" }, "geometry": { "type": "Point", "coordinates": [ 73.8673064, 18.5227968 ] } },
{ "type": "Feature", "properties": { "ccd_name": "Permission to Trim Branches in private Society / Land", "com_location": "CHARUHAS COOP HOUSING SOCIETY LTD\r\nPLOT No 65, RAMBAUG COLONY , PAUD ROAD \r\nPUNE 411038" }, "geometry": { "type": "Point", "coordinates": [ 73.8162817, 18.5132702 ] } },
{ "type": "Feature", "properties": { "ccd_name": "Branch of tree / complete tree cutting", "com_location": "St. A.  V.  High school  katarwadi yerwada pune" }, "geometry": { "type": "Point", "coordinates": [ 73.874962, 18.5679386 ] } },
{ "type": "Feature", "properties": { "ccd_name": "Branch of tree / complete tree cutting", "com_location": "Next to Eves Garden society gate, off Baner Road, Pune  " }, "geometry": { "type": "Point", "coordinates": [ 73.9472792, 18.5322262 ] } },
{ "type": "Feature", "properties": { "ccd_name": "Branch of tree / complete tree cutting", "com_location": "Address near samudra hotel opp sasnsar Butte patil plaza..\r\n, Pune, Maharashtra" }, "geometry": { "type": "Point", "coordinates": [ 73.831614, 18.5077512 ] } },
{ "type": "Feature", "properties": { "ccd_name": "Lifiting of tree cutting", "com_location": "purti club house dhankwdi, Pune, Maharashtra" }, "geometry": { "type": "Point", "coordinates": [ 73.8505805, 18.4632176 ] } },
{ "type": "Feature", "properties": { "ccd_name": "Branch of tree / complete tree cutting", "com_location": "Transformer, Lane 4B, off NDA Pashan Road, Bavdhan, Pune" }, "geometry": { "type": "Point", "coordinates": [ 73.7820606, 18.515245 ] } },
{ "type": "Feature", "properties": { "ccd_name": "Branch of tree / complete tree cutting", "com_location": "dhAyareshvara maMdirA javaLIla nirakA.Nna Trista sosAyaTI , Pune, Maharashtra" }, "geometry": { "type": "Point", "coordinates": [ 73.8786239, 18.5246091 ] } },
{ "type": "Feature", "properties": { "ccd_name": "Lifiting of tree cutting", "com_location": "vArDa naMbara 35 saMjIvanI sosAyaTI , Pune, Maharashtra" }, "geometry": { "type": "Point", "coordinates": [ 73.9531189, 18.5646495 ] } },
{ "type": "Feature", "properties": { "ccd_name": "Lifiting of tree cutting", "com_location": "opp lazez hotel, nibm road, khiwdwa khurd,  pune 48" }, "geometry": { "type": "Point", "coordinates": [ 73.8940819, 18.4762163 ] } },
{ "type": "Feature", "properties": { "ccd_name": "Lifiting of tree cutting", "com_location": "kothrud mayur colony road  B28 raghunandan bangla shivshkti society , Pune, Maharashtra" }, "geometry": { "type": "Point", "coordinates": [ 73.8137449, 18.5047104 ] } },
{ "type": "Feature", "properties": { "ccd_name": "Lifiting of tree cutting", "com_location": "Bungalow near Balaji Generosia Society, near, Opp Vasant Vihar Bungalows and next to Albacita, Yuthika Society, Baner, Pune, Maharashtra" }, "geometry": { "type": "Point", "coordinates": [ 73.7702169, 18.5622302 ] } },
{ "type": "Feature", "properties": { "ccd_name": "Branch of tree / complete tree cutting", "com_location": "Address 1 Darvesh House 12 Sahaney Sujan Park Lullanagar., Pune, Maharashtra" }, "geometry": { "type": "Point", "coordinates": [ 73.8892953, 18.4845982 ] } },
{ "type": "Feature", "properties": { "ccd_name": "Lifiting of tree cutting", "com_location": "Mangesh Madhukar Shinde Chowk, Khandekar Path, Shivaji Nagar, Near Rokdoba Mandir, 411005., Pune, Maharashtra" }, "geometry": { "type": "Point", "coordinates": [ 73.8515858, 18.5231059 ] } },
{ "type": "Feature", "properties": { "ccd_name": "Branch of tree / complete tree cutting", "com_location": "pla Ta no 24 , kalpatarU sosAyaTI , lAne no 1 , chaMdananagara.  puNe 411014 ." }, "geometry": { "type": "Point", "coordinates": [ 73.9531189, 18.5646495 ] } },
{ "type": "Feature", "properties": { "ccd_name": "Lifiting of tree cutting", "com_location": "opposite shaan ganga, atur lane 2..salisbury park, Pune, Maharashtra" }, "geometry": { "type": "Point", "coordinates": [ 73.874002, 18.496928 ] } },
{ "type": "Feature", "properties": { "ccd_name": "Lifiting of tree cutting", "com_location": "624/1b/1, Bakulnagar, Bibavewadi, Mnali bungalow, opp. Pushpam Colony,\r\nPune - 411037.\r\n" }, "geometry": { "type": "Point", "coordinates": [ 73.8696216, 18.4699993 ] } },
{ "type": "Feature", "properties": { "ccd_name": "Others (Garden) (HO)", "com_location": "Uttam Townscapes society, Near Serene Hospital, Pratik Nagar Road, Yerwada Pune 411006" }, "geometry": { "type": "Point", "coordinates": [ 73.88234460000001, 18.5700481 ] } },
{ "type": "Feature", "properties": { "ccd_name": "Branch of tree / complete tree cutting", "com_location": "Sai nagari society lane no 14 near water tank, Pune, Maharashtra" }, "geometry": { "type": "Point", "coordinates": [ 73.929987, 18.5600922 ] } },
{ "type": "Feature", "properties": { "ccd_name": "Lifiting of tree cutting", "com_location": "sr no-199 lane 6 yamuna nagar viman nagar , Pune, Maharashtra" }, "geometry": { "type": "Point", "coordinates": [ 73.9205935, 18.5672851 ] } }
]
}
