{
"type": "FeatureCollection",
"name": "2020_Encroachment",
"crs": { "type": "name", "properties": { "name": "urn:ogc:def:crs:OGC:1.3:CRS84" } },
"features": [
{ "type": "Feature", "properties": { "ccd_name": "Illegal Cutting of tree", "com_location": "C.T.S. 3/1, Baner Road, Near Wadeshwar Hotel, Baner, Pune-411045" }, "geometry": { "type": "Point", "coordinates": [ 73.7898753, 18.5600928 ] } },
{ "type": "Feature", "properties": { "ccd_name": "Removal of illegal hawkers / stall / hut / workshop / garage structure on footpath/roads", "com_location": "299 Guruwar peth infrount off godavari criation., Pune, Maharashtra" }, "geometry": { "type": "Point", "coordinates": [ 73.861896, 18.5056567 ] } },
{ "type": "Feature", "properties": { "ccd_name": "Others (Encroachment W.O.)", "com_location": "103, Ramtekdi Industrial Area, Hadapsar, Pune, Maharashtra 411040" }, "geometry": { "type": "Point", "coordinates": [ 73.9220756, 18.4891495 ] } },
{ "type": "Feature", "properties": { "ccd_name": "Others (Encroachment W.O.)", "com_location": "aundh road khadki, nr lic colony, Pune, Maharashtra" }, "geometry": { "type": "Point", "coordinates": [ 73.8266073, 18.5627653 ] } },
{ "type": "Feature", "properties": { "ccd_name": "Removal of illegal hawkers / stall / hut / workshop / garage structure on footpath/roads", "com_location": "Opp BRT bus stop chandan nagar nagar rd pune 411014 " }, "geometry": { "type": "Point", "coordinates": [ 73.9401038, 18.5636478 ] } },
{ "type": "Feature", "properties": { "ccd_name": "Removal of illegal hawkers / stall / hut / workshop / garage structure on footpath/roads", "com_location": "Deccan gymkhana near Garvare circle at left side, Pune, Maharashtra" }, "geometry": { "type": "Point", "coordinates": [ 73.7963142, 18.537721 ] } },
{ "type": "Feature", "properties": { "ccd_name": "Others (Encroachment W.O.)", "com_location": "Anand mangal Society ganesh nagar vadgaon sheri pune 411014.\t" }, "geometry": { "type": "Point", "coordinates": [ 73.9257379, 18.5558423 ] } },
{ "type": "Feature", "properties": { "ccd_name": "Unauthorized banners / advertisements / Permit / license in Pune City", "com_location": "NIBM CHOWK, KONDHWA KHURD, PUNE. 411048" }, "geometry": { "type": "Point", "coordinates": [ 73.896646, 18.476556 ] } },
{ "type": "Feature", "properties": { "ccd_name": "Removal of illegal hawkers / stall / hut / workshop / garage structure on footpath/roads", "com_location": "Pinnac colony off vithal mandir road next to kumar Saket building , Pune, Maharashtra" }, "geometry": { "type": "Point", "coordinates": [ 73.8246872, 18.4899572 ] } },
{ "type": "Feature", "properties": { "ccd_name": "Removal of illegal hawkers / stall / hut / workshop / garage structure on footpath/roads", "com_location": "AshiSha gArDana chauka kotharUDa puNe" }, "geometry": { "type": "Point", "coordinates": [ 73.8786239, 18.5246091 ] } },
{ "type": "Feature", "properties": { "ccd_name": "Removal of illegal hawkers / stall / hut / workshop / garage structure on footpath/roads", "com_location": "Address:- Panchavati Pashan Road Opp NCL Pune 411008" }, "geometry": { "type": "Point", "coordinates": [ 73.7925378, 18.531779 ] } },
{ "type": "Feature", "properties": { "ccd_name": "Unauthorised Banners/advertisement/Boards on roads/Footpath/Buildings/Gantry", "com_location": "Lunkad Skyvie Cooperative Housing Society Ltd\r\nSR No 211,Hissa No 3/2\r\nLohegaon Viman Nagar\r\nPune 4110\r\n" }, "geometry": { "type": "Point", "coordinates": [ 73.9051759, 18.5868562 ] } },
{ "type": "Feature", "properties": { "ccd_name": "Others (Encroachment W.O.)", "com_location": ": Grandeza, Bhujbal township, Jijai Nagar, Eklavya polytechnic Kothrud pune 38.\r\n" }, "geometry": { "type": "Point", "coordinates": [ 73.7942973, 18.5011098 ] } },
{ "type": "Feature", "properties": { "ccd_name": "Removal of illegal hawkers / stall / hut / workshop / garage structure on footpath/roads", "com_location": "Bibewadi Kondhwa Rd South Indian Bank, Todkar Garden, Bibwewadi, Pune, Maharashtra" }, "geometry": { "type": "Point", "coordinates": [ 73.8788304, 18.4712216 ] } },
{ "type": "Feature", "properties": { "ccd_name": "Removal of illegal hawkers / stall / hut / workshop / garage structure on footpath/roads", "com_location": "kAtraja junyA pI ema TI basasTa.NDa samora kAtraja gAvAta pravesha karatAnA , Pune, Maharashtra" }, "geometry": { "type": "Point", "coordinates": [ 73.7591121, 18.4610977 ] } },
{ "type": "Feature", "properties": { "ccd_name": "Unauthorised Banners/advertisement/Boards on roads/Footpath/Buildings/Gantry", "com_location": "chandani chowk bridge\r\n, Pune, Maharashtra" }, "geometry": { "type": "Point", "coordinates": [ 73.7837088, 18.5072178 ] } },
{ "type": "Feature", "properties": { "ccd_name": "Illegal pandals/arches etc. on road/footpath", "com_location": "Opp gogeal ganaga, beside road of eternal exotica, undri pune" }, "geometry": { "type": "Point", "coordinates": [ 73.9254895, 18.4544432 ] } },
{ "type": "Feature", "properties": { "ccd_name": "Removal of illegal hawkers / stall / hut / workshop / garage structure on footpath/roads", "com_location": "bAjI pAsalakara smAraka samorasiMhagaDa roDa, Pune, Maharashtra" }, "geometry": { "type": "Point", "coordinates": [ 73.8210102, 18.5135122 ] } },
{ "type": "Feature", "properties": { "ccd_name": "Removal of illegal hawkers / stall / hut / workshop / garage structure on footpath/roads", "com_location": "sanskruti home balewadi road nr pmc bank balewadi , Pune, Maharashtra" }, "geometry": { "type": "Point", "coordinates": [ 73.7744225, 18.5740512 ] } },
{ "type": "Feature", "properties": { "ccd_name": "Nullfying Property tax Bill regarding Double Bill / Reconstructive Property / Demolished Property", "com_location": "Plot No 40A , S No 7+8, Bavdhan Khurd , Pune" }, "geometry": { "type": "Point", "coordinates": [ 73.7796576, 18.516346 ] } },
{ "type": "Feature", "properties": { "ccd_name": "Removal of illegal hawkers / stall / hut / workshop / garage structure on footpath/roads", "com_location": "vimAna nagara yethIla dipaka mArkeTa chauka, Pune, Maharashtra" }, "geometry": { "type": "Point", "coordinates": [ 73.9143637, 18.5678553 ] } },
{ "type": "Feature", "properties": { "ccd_name": "Removal of illegal hawkers / stall / hut / workshop / garage structure on footpath/roads", "com_location": "board club road mmb road narangi baug road, Pune, Maharashtra" }, "geometry": { "type": "Point", "coordinates": [ 73.8798234, 18.5373596 ] } },
{ "type": "Feature", "properties": { "ccd_name": "Unauthorised alteration/renovation of building", "com_location": "girISha priMTarsa, 153 shanivAra peTha, puNe" }, "geometry": { "type": "Point", "coordinates": [ 73.8440548, 18.5082486 ] } },
{ "type": "Feature", "properties": { "ccd_name": "Removal of illegal hawkers / stall / hut / workshop / garage structure on footpath/roads", "com_location": "nda road shivne gaon dharmaveer mitra mandal  karle complex pune" }, "geometry": { "type": "Point", "coordinates": [ 73.7734678, 18.4634863 ] } },
{ "type": "Feature", "properties": { "ccd_name": "Removal of illegal hawkers / stall / hut / workshop / garage structure on footpath/roads", "com_location": "@PMCPune team need your urgent attention! Bhumkar chowk, ambegaon Narhe road\r\n" }, "geometry": { "type": "Point", "coordinates": [ 73.833382, 18.449666 ] } },
{ "type": "Feature", "properties": { "ccd_name": "Removal of illegal hawkers / stall / hut / workshop / garage structure on footpath/roads", "com_location": "shiyadri nagar survey number 2/3 prabhat chowk dhankawdi pune." }, "geometry": { "type": "Point", "coordinates": [ 73.9246052, 18.5491696 ] } },
{ "type": "Feature", "properties": { "ccd_name": "Unauthorised Banners/advertisement/Boards on roads/Footpath/Buildings/Gantry", "com_location": "962 shukravar peth opp vijay bhojnalay, Pune, Maharashtra" }, "geometry": { "type": "Point", "coordinates": [ 73.8589818, 18.502931 ] } },
{ "type": "Feature", "properties": { "ccd_name": "Removal of illegal hawkers / stall / hut / workshop / garage structure on footpath/roads", "com_location": "288/B sai motors \r\nopp icici bank \r\nnear mseb power house \r\npune - 411011" }, "geometry": { "type": "Point", "coordinates": [ 73.8679227, 18.5165027 ] } },
{ "type": "Feature", "properties": { "ccd_name": "Unauthorised Banners/advertisement/Boards on roads/Footpath/Buildings/Gantry", "com_location": "all Kothrud bavdhan ward , Pune, Maharashtra" }, "geometry": { "type": "Point", "coordinates": [ 73.8094327, 18.5012236 ] } },
{ "type": "Feature", "properties": { "ccd_name": "Removal of illegal hawkers / stall / hut / workshop / garage structure on footpath/roads", "com_location": "kharADI bAyapAsa chauka te TATA gArDarUma , Pune, Maharashtra" }, "geometry": { "type": "Point", "coordinates": [ 73.9476257, 18.5539311 ] } },
{ "type": "Feature", "properties": { "ccd_name": "Other (Encroachment H.O.)", "com_location": "Sinhgad road.,opp Fun time multiplex,Ahead of Sharad hospital, towards manikbaug direction, Pune, Maharashtra" }, "geometry": { "type": "Point", "coordinates": [ 73.8188783, 18.4684268 ] } },
{ "type": "Feature", "properties": { "ccd_name": "Unauthorised alteration/renovation of building", "com_location": "Vighnaharta Apartment flat 101 lane 11/ A 1 tingre nagar pune 411015." }, "geometry": { "type": "Point", "coordinates": [ 73.8882256, 18.575414 ] } },
{ "type": "Feature", "properties": { "ccd_name": "Unauthorised alteration/renovation of building", "com_location": "27,Raviwar Peth,Hingne Khurd,Pune,Maharashtra 411051,India" }, "geometry": { "type": "Point", "coordinates": [ 73.8256406, 18.4804231 ] } },
{ "type": "Feature", "properties": { "ccd_name": "Removal of illegal hawkers / stall / hut / workshop / garage structure on footpath/roads", "com_location": "All Pune City including Kothrud-Bavdhan" }, "geometry": { "type": "Point", "coordinates": [ 73.8076543, 18.5073514 ] } },
{ "type": "Feature", "properties": { "ccd_name": "Unauthorised Banners/advertisement/Boards on roads/Footpath/Buildings/Gantry", "com_location": "Location- Opp Nexa showroom, Sakorenagar, Vimannagar. \r\n& Dutta Mandir chowk, Vimannagar\r\n, Pune, Maharashtra" }, "geometry": { "type": "Point", "coordinates": [ 73.9109977, 18.5619384 ] } },
{ "type": "Feature", "properties": { "ccd_name": "Removal of illegal hawkers / stall / hut / workshop / garage structure on footpath/roads", "com_location": "kala shankar nagar dp road gorpadi gaon bt kavde road pune    " }, "geometry": { "type": "Point", "coordinates": [ 73.906491, 18.519469 ] } },
{ "type": "Feature", "properties": { "ccd_name": "Removal of illegal hawkers / stall / hut / workshop / garage structure on footpath/roads", "com_location": "pride ashiyana society porwal road dhanori lohegaon pune " }, "geometry": { "type": "Point", "coordinates": [ 73.911377, 18.609882 ] } },
{ "type": "Feature", "properties": { "ccd_name": "Removal of illegal hawkers / stall / hut / workshop / garage structure on footpath/roads", "com_location": "ABOLI VILLA[PARK] SHIVTIRTH NAGAR S 116/2A+2C/1 STATE BK COL KOTHRUD PUNE 411038" }, "geometry": { "type": "Point", "coordinates": [ 73.8084545, 18.5101479 ] } },
{ "type": "Feature", "properties": { "ccd_name": "Removal of illegal hawkers / stall / hut / workshop / garage structure on footpath/roads", "com_location": "sha pa kra.6, 518, ravivAra peTha, paMjAba na.cshanala ba.Nka samora chyA gallIta, motI chauka, puNe- 411 002" }, "geometry": { "type": "Point", "coordinates": [ 73.9258785, 18.5039906 ] } },
{ "type": "Feature", "properties": { "ccd_name": "Removal of illegal hawkers / stall / hut / workshop / garage structure on footpath/roads", "com_location": "Last lane Azad Nagar, Wanowrie, Pune 411022" }, "geometry": { "type": "Point", "coordinates": [ 73.9058534, 18.4858699 ] } },
{ "type": "Feature", "properties": { "ccd_name": "Removal of illegal hawkers / stall / hut / workshop / garage structure on footpath/roads", "com_location": " opposite aganagar society Viman Nagar Chandan Nagar road, , Pune, Maharashtra" }, "geometry": { "type": "Point", "coordinates": [ 73.9229967, 18.5624612 ] } },
{ "type": "Feature", "properties": { "ccd_name": "Illegal Cutting of tree", "com_location": "alakA narasiMha chaMdrachuDa  , \r\nphA. plA.NTa naMbara 73/3/3 , \r\nsarvhe kramAMka 50/27,   bhaktImArga, lA.N kA.Nleja roDa, eraMDavaNA, puNe." }, "geometry": { "type": "Point", "coordinates": [ 73.8786239, 18.5246091 ] } },
{ "type": "Feature", "properties": { "ccd_name": "Removal of illegal hawkers / stall / hut / workshop / garage structure on footpath/roads", "com_location": "D S regency vadgaon shinde road pathare vasti junction lohegaon pune 411047" }, "geometry": { "type": "Point", "coordinates": [ 73.930707, 18.6028487 ] } },
{ "type": "Feature", "properties": { "ccd_name": "Removal of illegal hawkers / stall / hut / workshop / garage structure on footpath/roads", "com_location": "Lohogaon Sant nagar wagholi Grudwara road  , Pune, Maharashtra" }, "geometry": { "type": "Point", "coordinates": [ 73.9268129, 18.5903869 ] } },
{ "type": "Feature", "properties": { "ccd_name": "Others (Encroachment W.O.)", "com_location": "Mr Sasane, Plot 1-A, Raksha lekha Housing society, Dhankawadi, Pune 411043." }, "geometry": { "type": "Point", "coordinates": [ 73.9332121, 18.4915192 ] } },
{ "type": "Feature", "properties": { "ccd_name": "Illegal Cutting of tree", "com_location": "Siddharth Residency \r\nBaher 411045  , Pune, Maharashtra" }, "geometry": { "type": "Point", "coordinates": [ 73.800373400000012, 18.5635356 ] } },
{ "type": "Feature", "properties": { "ccd_name": "Unauthorised alteration/renovation of building", "com_location": " Flat No. 702, C-Wing Swapnalok Society, \r\nKhadki, Pune- 411003" }, "geometry": { "type": "Point", "coordinates": [ 73.8436704, 18.5688126 ] } },
{ "type": "Feature", "properties": { "ccd_name": "Others (Encroachment W.O.)", "com_location": "Bhikardas Maruti mandir, Pune, Maharashtra" }, "geometry": { "type": "Point", "coordinates": [ 73.8525762, 18.5091928 ] } },
{ "type": "Feature", "properties": { "ccd_name": "Removal of illegal hawkers / stall / hut / workshop / garage structure on footpath/roads", "com_location": "Nagras road & mahadji shinde path in aundh, Pune, Maharashtra" }, "geometry": { "type": "Point", "coordinates": [ 73.8074564, 18.5652968 ] } },
{ "type": "Feature", "properties": { "ccd_name": "Others (Encroachment W.O.)", "com_location": " university road near LIC, , Pune, Maharashtra" }, "geometry": { "type": "Point", "coordinates": [ 73.8416287, 18.5330098 ] } },
{ "type": "Feature", "properties": { "ccd_name": "Unauthorised alteration/renovation of building", "com_location": "bAlevADI sarvha naM 10  10/17 , Pune, Maharashtra" }, "geometry": { "type": "Point", "coordinates": [ 73.9100318, 18.5473009 ] } },
{ "type": "Feature", "properties": { "ccd_name": "Unauthorised alteration/renovation of building", "com_location": " flat no 501 building C 4 Prayeja City Fun Time Multiplex - Sinhagad Road  Wadgaon Budruk, pune 411041" }, "geometry": { "type": "Point", "coordinates": [ 73.8033639, 18.4571619 ] } },
{ "type": "Feature", "properties": { "ccd_name": "Unauthorised Banners/advertisement/Boards on roads/Footpath/Buildings/Gantry", "com_location": "keshavarAva jedhe uDDANapula svArageTa\r\n           , Pune, Maharashtra" }, "geometry": { "type": "Point", "coordinates": [ 73.8786239, 18.5246091 ] } },
{ "type": "Feature", "properties": { "ccd_name": "Removal of illegal hawkers / stall / hut / workshop / garage structure on footpath/roads", "com_location": "SALUNKE VIHAR ROAD, Pune, Maharashtra" }, "geometry": { "type": "Point", "coordinates": [ 73.8984972, 18.4816012 ] } },
{ "type": "Feature", "properties": { "ccd_name": "Removal of illegal hawkers / stall / hut / workshop / garage structure on footpath/roads", "com_location": "Balaji nagar tirupati heights near pawar hospital pune." }, "geometry": { "type": "Point", "coordinates": [ 73.8596868, 18.4661546 ] } },
{ "type": "Feature", "properties": { "ccd_name": "Illegal Cutting of tree", "com_location": " sr.no 89, Dhayarkar coloney,near lane no 1,2,3 and 5, mundwa pune 36" }, "geometry": { "type": "Point", "coordinates": [ 73.9183119, 18.5320416 ] } },
{ "type": "Feature", "properties": { "ccd_name": "Removal of illegal hawkers / stall / hut / workshop / garage structure on footpath/roads", "com_location": "502 shaniwar peth mehunpura, Pune, Maharashtra" }, "geometry": { "type": "Point", "coordinates": [ 73.8530359, 18.5176715 ] } },
{ "type": "Feature", "properties": { "ccd_name": "Unauthorised Banners/advertisement/Boards on roads/Footpath/Buildings/Gantry", "com_location": "at Sinhgad road opp Funtime multiplex cinema road going to Prayeja city, Pune, Maharashtra" }, "geometry": { "type": "Point", "coordinates": [ 73.8135672, 18.4670985 ] } },
{ "type": "Feature", "properties": { "ccd_name": "Removal of illegal hawkers / stall / hut / workshop / garage structure on footpath/roads", "com_location": "Sinhagad road rajaram beidge to santoah hall, Pune, Maharashtra" }, "geometry": { "type": "Point", "coordinates": [ 73.8243008, 18.4783489 ] } },
{ "type": "Feature", "properties": { "ccd_name": "Removal of illegal hawkers / stall / hut / workshop / garage structure on footpath/roads", "com_location": "sAdhanA ANI rAvidarshana sosAyaTI geTa varatI haDapasara puNe yethIla" }, "geometry": { "type": "Point", "coordinates": [ 73.9447075, 18.5004907 ] } },
{ "type": "Feature", "properties": { "ccd_name": "Illegal Cutting of tree", "com_location": "48, Shivaji Housing Society, Pune, Maharashtra" }, "geometry": { "type": "Point", "coordinates": [ 73.8282241, 18.5314405 ] } },
{ "type": "Feature", "properties": { "ccd_name": "Removal of illegal hawkers / stall / hut / workshop / garage structure on footpath/roads", "com_location": "629 Sadashiv peth pune 411030 " }, "geometry": { "type": "Point", "coordinates": [ 73.8440548, 18.5082486 ] } },
{ "type": "Feature", "properties": { "ccd_name": "Others (Encroachment W.O.)", "com_location": "\"Blossom and spring \"society , opposite \"Occasions\", near regent plaza, baner-pashan link road, Pune, Maharashtra" }, "geometry": { "type": "Point", "coordinates": [ 73.7927075, 18.5511238 ] } },
{ "type": "Feature", "properties": { "ccd_name": "Removal of illegal hawkers / stall / hut / workshop / garage structure on footpath/roads", "com_location": " Behind Sheetal Petrol Pump Kondhwa Khurd Road In front of Jasmine Society.\r\n, Pune, Maharashtra" }, "geometry": { "type": "Point", "coordinates": [ 73.8884185, 18.4691515 ] } },
{ "type": "Feature", "properties": { "ccd_name": "Removal of illegal hawkers / stall / hut / workshop / garage structure on footpath/roads", "com_location": "Road going toward Kalyani Bungalow and before Nagarwala School third/inside gate Footpath,very busy area, Pune, Maharashtra" }, "geometry": { "type": "Point", "coordinates": [ 73.8984572, 18.5479085 ] } },
{ "type": "Feature", "properties": { "ccd_name": "Unauthorised alteration/renovation of building", "com_location": " Sr. No.91, prathmesh park chsl, balewadi phata , Baner\r\n, Pune, Maharashtra" }, "geometry": { "type": "Point", "coordinates": [ 73.7805353, 18.5694134 ] } },
{ "type": "Feature", "properties": { "ccd_name": "Removal of illegal hawkers / stall / hut / workshop / garage structure on footpath/roads", "com_location": "Location: Dhanori jakat naka.\r\n, Pune, Maharashtra" }, "geometry": { "type": "Point", "coordinates": [ 73.907548, 18.597132 ] } },
{ "type": "Feature", "properties": { "ccd_name": "Unauthorised alteration/renovation of building", "com_location": "nav gourav society lane no- -1 happy colony kothrud , Pune, Maharashtra" }, "geometry": { "type": "Point", "coordinates": [ 73.8154441, 18.4961211 ] } },
{ "type": "Feature", "properties": { "ccd_name": "Other (Encroachment H.O.)", "com_location": "Location Pashan Sus hill across the bridge on left side. \r\n., Pune, Maharashtra" }, "geometry": { "type": "Point", "coordinates": [ 73.7648718, 18.5492035 ] } },
{ "type": "Feature", "properties": { "ccd_name": "Illegal Cutting of tree", "com_location": "siMhagaDa roDa vara, Pune, Maharashtra" }, "geometry": { "type": "Point", "coordinates": [ 73.7865743, 18.5613061 ] } },
{ "type": "Feature", "properties": { "ccd_name": "Unauthorised Banners/advertisement/Boards on roads/Footpath/Buildings/Gantry", "com_location": "Pan card club road ,rohan seher lane , Pune, Maharashtra" }, "geometry": { "type": "Point", "coordinates": [ 73.7729806, 18.5577431 ] } },
{ "type": "Feature", "properties": { "ccd_name": "Unauthorized banners / advertisements / Permit / license in Pune City", "com_location": "Viman Nagar near Pune airport" }, "geometry": { "type": "Point", "coordinates": [ 73.9089168, 18.579343 ] } },
{ "type": "Feature", "properties": { "ccd_name": "Removal of illegal hawkers / stall / hut / workshop / garage structure on footpath/roads", "com_location": "senTla ba.cMka javaLa, mayUra kA.clanI kotharUDa , Pune, Maharashtra" }, "geometry": { "type": "Point", "coordinates": [ 73.8076543, 18.5073514 ] } },
{ "type": "Feature", "properties": { "ccd_name": "Removal of illegal hawkers / stall / hut / workshop / garage structure on footpath/roads", "com_location": "taljai vasahal padmavati,nr ukrande reshning shop , Pune, Maharashtra" }, "geometry": { "type": "Point", "coordinates": [ 73.8447438, 18.4766796 ] } },
{ "type": "Feature", "properties": { "ccd_name": "Removal of illegal hawkers / stall / hut / workshop / garage structure on footpath/roads", "com_location": "sAI chauka susa roDa pAShANa puNe" }, "geometry": { "type": "Point", "coordinates": [ 73.785779, 18.543369 ] } },
{ "type": "Feature", "properties": { "ccd_name": "Unauthorised alteration/renovation of building", "com_location": "devachi uruli , main bus stop chowk,, Pune, Maharashtra" }, "geometry": { "type": "Point", "coordinates": [ 73.9563832, 18.4563105 ] } },
{ "type": "Feature", "properties": { "ccd_name": "Removal of illegal hawkers / stall / hut / workshop / garage structure on footpath/roads", "com_location": "harmony house building metro super market shop ahead parking area hirvai garden opposite side Shivaji nagar, Pune, Maharashtra" }, "geometry": { "type": "Point", "coordinates": [ 73.8313906, 18.5149425 ] } },
{ "type": "Feature", "properties": { "ccd_name": "Unauthorised alteration/renovation of building", "com_location": "The Bakarika restaurant near Karve statue on Karve road, Pune, Maharashtra" }, "geometry": { "type": "Point", "coordinates": [ 73.8170829, 18.5026387 ] } },
{ "type": "Feature", "properties": { "ccd_name": "Removal of illegal hawkers / stall / hut / workshop / garage structure on footpath/roads", "com_location": "laxmi bungalow Aniket society no.1, plot no.c-1, Bibewewadi road, pune-37. " }, "geometry": { "type": "Point", "coordinates": [ 73.85945, 18.480298 ] } },
{ "type": "Feature", "properties": { "ccd_name": "Removal of illegal hawkers / stall / hut / workshop / garage structure on footpath/roads", "com_location": "Sweety ArcadeMeeta Nagar, Kondhwa, Pune,411048" }, "geometry": { "type": "Point", "coordinates": [ 73.8894829, 18.4693247 ] } },
{ "type": "Feature", "properties": { "ccd_name": "Other (Encroachment H.O.)", "com_location": " navIna DIpI rastA mAtoshrI vRRiddhAshramA javaLa , Pune, Maharashtra" }, "geometry": { "type": "Point", "coordinates": [ 73.9358126, 18.5380871 ] } },
{ "type": "Feature", "properties": { "ccd_name": "Removal of illegal hawkers / stall / hut / workshop / garage structure on footpath/roads", "com_location": "New nana peth near Hope hospital., Pune, Maharashtra" }, "geometry": { "type": "Point", "coordinates": [ 73.8653833, 18.5144313 ] } },
{ "type": "Feature", "properties": { "ccd_name": "Unauthorised Banners/advertisement/Boards on roads/Footpath/Buildings/Gantry", "com_location": "Sus road. Balaji circle and sai chowk circle, Pune, Maharashtra" }, "geometry": { "type": "Point", "coordinates": [ 73.825282, 18.6309313 ] } },
{ "type": "Feature", "properties": { "ccd_name": "Removal of illegal hawkers / stall / hut / workshop / garage structure on footpath/roads", "com_location": "karan bajar Somnath Nagar Rd Ramchandra Sabhagruha Wadgaon Sheri, Pune, " }, "geometry": { "type": "Point", "coordinates": [ 73.9205189, 18.554289 ] } },
{ "type": "Feature", "properties": { "ccd_name": "Removal of illegal hawkers / stall / hut / workshop / garage structure on footpath/roads", "com_location": "garakara tAlIma bAherIla atikramaNa kADhaNyAsAThI., Pune, Maharashtra" }, "geometry": { "type": "Point", "coordinates": [ 73.8786239, 18.5246091 ] } },
{ "type": "Feature", "properties": { "ccd_name": "Illegal Cutting of tree", "com_location": " chAMdaNI chauka, Pune, Maharashtra" }, "geometry": { "type": "Point", "coordinates": [ 73.8786239, 18.5246091 ] } },
{ "type": "Feature", "properties": { "ccd_name": "Removal of illegal hawkers / stall / hut / workshop / garage structure on footpath/roads", "com_location": "shiMde hAyaskUla chauka, SBI samora, sahakAra nagara, puNe 9" }, "geometry": { "type": "Point", "coordinates": [ 73.93291, 18.560185 ] } },
{ "type": "Feature", "properties": { "ccd_name": "Removal of illegal hawkers / stall / hut / workshop / garage structure on footpath/roads", "com_location": " laxmi road chitra shala sejari vashant dada shakari bank, Pune, Maharashtra" }, "geometry": { "type": "Point", "coordinates": [ 73.8561877, 18.5156087 ] } },
{ "type": "Feature", "properties": { "ccd_name": "Removal of illegal hawkers / stall / hut / workshop / garage structure on footpath/roads", "com_location": "925 kasaba peth mseb light office , Pune, Maharashtra" }, "geometry": { "type": "Point", "coordinates": [ 73.8610191, 18.5258965 ] } },
{ "type": "Feature", "properties": { "ccd_name": "Removal of illegal hawkers / stall / hut / workshop / garage structure on footpath/roads", "com_location": "Rk chikana seMTara chI lAIna \r\ndattavADI kamAna , shanimaMdira chauka , dattavADI ,puNe 30\r\n" }, "geometry": { "type": "Point", "coordinates": [ 73.8410104, 18.5002788 ] } },
{ "type": "Feature", "properties": { "ccd_name": "Removal of illegal hawkers / stall / hut / workshop / garage structure on footpath/roads", "com_location": "bibavevADI kShetrIya kAryAlaya haddItIla I esa Aya ha spiTala samora bibavevADI roDa, Pune, Maharashtra" }, "geometry": { "type": "Point", "coordinates": [ 73.859488, 18.4896 ] } },
{ "type": "Feature", "properties": { "ccd_name": "Removal of illegal hawkers / stall / hut / workshop / garage structure on footpath/roads", "com_location": "580 Narayan Peth, Saishwar Apartment near HDFC bank pune 411030." }, "geometry": { "type": "Point", "coordinates": [ 73.8511051, 18.5163022 ] } },
{ "type": "Feature", "properties": { "ccd_name": "Removal of illegal hawkers / stall / hut / workshop / garage structure on footpath/roads", "com_location": "Pune Satara Road LIO Bhavan Bulding Near Sambar Hotel" }, "geometry": { "type": "Point", "coordinates": [ 73.8581157, 18.4587549 ] } },
{ "type": "Feature", "properties": { "ccd_name": "Unauthorised Banners/advertisement/Boards on roads/Footpath/Buildings/Gantry", "com_location": " yashodipa sha piMga seMTara kAmadhenU isTeTa javaLa haDapasara gAva puNe 28 " }, "geometry": { "type": "Point", "coordinates": [ 73.9398818, 18.5009288 ] } },
{ "type": "Feature", "properties": { "ccd_name": "Removal of illegal hawkers / stall / hut / workshop / garage structure on footpath/roads", "com_location": "place trimurti chowk opp grahak peth..., Pune, Maharashtra" }, "geometry": { "type": "Point", "coordinates": [ 73.8507463, 18.5076838 ] } },
{ "type": "Feature", "properties": { "ccd_name": "Removal of illegal hawkers / stall / hut / workshop / garage structure on footpath/roads", "com_location": "Sinhagad road mahavir kitchen trolly shop opposite trimurthy hospital, Pune, Maharashtra" }, "geometry": { "type": "Point", "coordinates": [ 73.814838, 18.4621292 ] } },
{ "type": "Feature", "properties": { "ccd_name": "Removal of illegal hawkers / stall / hut / workshop / garage structure on footpath/roads", "com_location": "Vedant Society Near Indian Oil Petrol Pump NIBM Undri Road, Pune, Maharashtra" }, "geometry": { "type": "Point", "coordinates": [ 73.8947675, 18.4759195 ] } },
{ "type": "Feature", "properties": { "ccd_name": "Others (Encroachment W.O.)", "com_location": "Kumar Panchsheel Society , Nr Vinkar Sabha gruh , Dhankawadi Pune-411043" }, "geometry": { "type": "Point", "coordinates": [ 73.8526883, 18.472231 ] } },
{ "type": "Feature", "properties": { "ccd_name": "Removal of illegal hawkers / stall / hut / workshop / garage structure on footpath/roads", "com_location": "AnaMda nagara chaukAta , Pune, Maharashtra" }, "geometry": { "type": "Point", "coordinates": [ 73.8786239, 18.5246091 ] } },
{ "type": "Feature", "properties": { "ccd_name": "Illegal Cutting of tree", "com_location": "S.NO. 43/9/1 TO 13, NISARG RESIDENCY, GUJARWADI ROAD, MORE NAGAR, KATRAJ, PUNE -411046.     " }, "geometry": { "type": "Point", "coordinates": [ 73.8686528, 18.4395722 ] } },
{ "type": "Feature", "properties": { "ccd_name": "Removal of illegal hawkers / stall / hut / workshop / garage structure on footpath/roads", "com_location": "Plot no 5 rambaug colony paud road kothrud pune 411038" }, "geometry": { "type": "Point", "coordinates": [ 73.806726, 18.513327 ] } },
{ "type": "Feature", "properties": { "ccd_name": "Removal of illegal hawkers / stall / hut / workshop / garage structure on footpath/roads", "com_location": "sahakAranagara naMbara 1 araNeshvara te padmamAvatI rastA TrejharapAraka pulAjavaLa padmamAvatI maMdirA kaDe jANArA rastA , Pune, Maharashtra" }, "geometry": { "type": "Point", "coordinates": [ 73.8786239, 18.5246091 ] } },
{ "type": "Feature", "properties": { "ccd_name": "Unauthorized banners / advertisements / Permit / license in Pune City", "com_location": "Royal enfield square, paud road, between kothrud bus depo and chandani chowk, Pune, Maharashtra" }, "geometry": { "type": "Point", "coordinates": [ 73.7794093, 18.506527 ] } },
{ "type": "Feature", "properties": { "ccd_name": "Removal of illegal hawkers / stall / hut / workshop / garage structure on footpath/roads", "com_location": "Neelayam Theatre Parvati road., Pune, Maharashtra" }, "geometry": { "type": "Point", "coordinates": [ 73.850560700000017, 18.5028693 ] } },
{ "type": "Feature", "properties": { "ccd_name": "Removal of illegal hawkers / stall / hut / workshop / garage structure on footpath/roads", "com_location": "Mahesh society bibwewadi main chowk, Pune, Maharashtra" }, "geometry": { "type": "Point", "coordinates": [ 73.8650686, 18.4690357 ] } },
{ "type": "Feature", "properties": { "ccd_name": "Removal of illegal hawkers / stall / hut / workshop / garage structure on footpath/roads", "com_location": "Chaitraban area, purple castle , bibwewadi , Pune, Maharashtra" }, "geometry": { "type": "Point", "coordinates": [ 73.8652843, 18.4603849 ] } },
{ "type": "Feature", "properties": { "ccd_name": "Removal of illegal hawkers / stall / hut / workshop / garage structure on footpath/roads", "com_location": "vArDa naMbara 35 araneshvararameshvara maMdirAshejArI sAhebAMchyA vAlyAchyA chaukAmadhye , Pune, Maharashtra" }, "geometry": { "type": "Point", "coordinates": [ 73.8786239, 18.5246091 ] } },
{ "type": "Feature", "properties": { "ccd_name": "Removal of illegal hawkers / stall / hut / workshop / garage structure on footpath/roads", "com_location": "Dekkana posTa  phIsa bAhera, Pune, Maharashtra" }, "geometry": { "type": "Point", "coordinates": [ 73.8786239, 18.5246091 ] } },
{ "type": "Feature", "properties": { "ccd_name": "Unauthorized banners / advertisements / Permit / license in Pune City", "com_location": "vAraje hAyave brijajavaLa eDIephasI ba.Nka samora , Pune, Maharashtra" }, "geometry": { "type": "Point", "coordinates": [ 73.796834, 18.4864727 ] } },
{ "type": "Feature", "properties": { "ccd_name": "Others (Encroachment W.O.)", "com_location": "Flat No. A-4, Navnatraj Cooperative Housing Society, Parvati Gaon, Pune - 411009" }, "geometry": { "type": "Point", "coordinates": [ 73.851069, 18.49743 ] } },
{ "type": "Feature", "properties": { "ccd_name": "Unauthorised Banners/advertisement/Boards on roads/Footpath/Buildings/Gantry", "com_location": "526 ravivar peth near tamboli masjid pune " }, "geometry": { "type": "Point", "coordinates": [ 73.8612411, 18.517454 ] } },
{ "type": "Feature", "properties": { "ccd_name": "Removal of illegal hawkers / stall / hut / workshop / garage structure on footpath/roads", "com_location": "karve nagara yethIla ka nAlarastA javaLIla happI ka lanI yethIla , Pune, Maharashtra" }, "geometry": { "type": "Point", "coordinates": [ 73.821729, 18.4914883 ] } },
{ "type": "Feature", "properties": { "ccd_name": "Unauthorised alteration/renovation of building", "com_location": "Aurum Elementto, Near Hotel Terna Garden, Survey No 282/2, Dhanori-Porwal Road, Lohegaon, Pune" }, "geometry": { "type": "Point", "coordinates": [ 73.9091823, 18.5997083 ] } },
{ "type": "Feature", "properties": { "ccd_name": "Removal of illegal hawkers / stall / hut / workshop / garage structure on footpath/roads", "com_location": " bramhA vATeja yethIla rahivAsI, e imArata, aksisa ba.Nka javaLa, bAvadhana, puNe. " }, "geometry": { "type": "Point", "coordinates": [ 73.7912821, 18.508592 ] } },
{ "type": "Feature", "properties": { "ccd_name": "Unauthorised Banners/advertisement/Boards on roads/Footpath/Buildings/Gantry", "com_location": "hingane chowk near ranka jewellers \r\n, Pune, Maharashtra" }, "geometry": { "type": "Point", "coordinates": [ 73.8255284, 18.4807078 ] } },
{ "type": "Feature", "properties": { "ccd_name": "Illegal Cutting of tree", "com_location": "MIT ka lejachyA back side lA\r\n, Pune, Maharashtra" }, "geometry": { "type": "Point", "coordinates": [ 73.881279300000017, 18.4643654 ] } },
{ "type": "Feature", "properties": { "ccd_name": "Unauthorized banners / advertisements / Permit / license in Pune City", "com_location": "FC road varil peshave restaurant samoril , Pune, Maharashtra" }, "geometry": { "type": "Point", "coordinates": [ 73.8415572, 18.5173124 ] } },
{ "type": "Feature", "properties": { "ccd_name": "Unauthorised Banners/advertisement/Boards on roads/Footpath/Buildings/Gantry", "com_location": " Karve road, BSNL office\r\n\r\n, Pune, Maharashtra" }, "geometry": { "type": "Point", "coordinates": [ 73.8197545, 18.5032136 ] } },
{ "type": "Feature", "properties": { "ccd_name": "Removal of illegal hawkers / stall / hut / workshop / garage structure on footpath/roads", "com_location": "Mandai Hutatma Babu Genu Chowk fruit market side , Pune, Maharashtra" }, "geometry": { "type": "Point", "coordinates": [ 73.85587360000001, 18.5117669 ] } },
{ "type": "Feature", "properties": { "ccd_name": "Unauthorised alteration/renovation of building", "com_location": "kumar pinnacle Co-Op Housing Society building no A-3 flat no 105 Tadiwala RD pune" }, "geometry": { "type": "Point", "coordinates": [ 73.8452288, 18.4576512 ] } },
{ "type": "Feature", "properties": { "ccd_name": "Nullfying Property tax Bill regarding Double Bill / Reconstructive Property / Demolished Property", "com_location": "PT No 34A anurekha society sno 60+61/2 hingne pune 411052" }, "geometry": { "type": "Point", "coordinates": [ 73.8269043, 18.4939639 ] } },
{ "type": "Feature", "properties": { "ccd_name": "Unauthorised Banners/advertisement/Boards on roads/Footpath/Buildings/Gantry", "com_location": "DI pI roDa ,auMdha , Pune, Maharashtra" }, "geometry": { "type": "Point", "coordinates": [ 73.8786239, 18.5246091 ] } },
{ "type": "Feature", "properties": { "ccd_name": "Unauthorised Banners/advertisement/Boards on roads/Footpath/Buildings/Gantry", "com_location": "Sinhagadroad  santosh hall chauk pune." }, "geometry": { "type": "Point", "coordinates": [ 73.8243008, 18.4783489 ] } },
{ "type": "Feature", "properties": { "ccd_name": "Removal of illegal hawkers / stall / hut / workshop / garage structure on footpath/roads", "com_location": "dattanagar ambegaon bk katraj pune 46" }, "geometry": { "type": "Point", "coordinates": [ 73.8500592, 18.4497726 ] } },
{ "type": "Feature", "properties": { "ccd_name": "Illegal religious structures on road/footpath", "com_location": "pashan rd. abhiman shree society fata to imd NCL gate . , Pune, Maharashtra" }, "geometry": { "type": "Point", "coordinates": [ 73.8115723, 18.5397229 ] } },
{ "type": "Feature", "properties": { "ccd_name": "Removal of illegal hawkers / stall / hut / workshop / garage structure on footpath/roads", "com_location": "riddhI siddhI sosAyaTI bAvadhana , lmd chauka chyA puDhe, Pune, Maharashtra" }, "geometry": { "type": "Point", "coordinates": [ 73.777771, 18.511031 ] } },
{ "type": "Feature", "properties": { "ccd_name": "Removal of illegal hawkers / stall / hut / workshop / garage structure on footpath/roads", "com_location": "The dobarwadi slums  Sopan Baug, Pune, Maharashtra" }, "geometry": { "type": "Point", "coordinates": [ 73.9040161, 18.514156 ] } },
{ "type": "Feature", "properties": { "ccd_name": "Unauthorised alteration/renovation of building", "com_location": "Fossil Fiesta A Wing, Nr Jaihind Show room, Opp.Shankar Maharaj Math, Satara Road,Dhankawadi,Pune 43" }, "geometry": { "type": "Point", "coordinates": [ 73.8581358, 18.4611313 ] } },
{ "type": "Feature", "properties": { "ccd_name": "Removal of illegal hawkers / stall / hut / workshop / garage structure on footpath/roads", "com_location": " prassana corner, ganpati mandir chowk, viman nagar , om shop , Pune, Maharashtra" }, "geometry": { "type": "Point", "coordinates": [ 73.7720646, 18.5178231 ] } },
{ "type": "Feature", "properties": { "ccd_name": "Others (Encroachment W.O.)", "com_location": "Sihagad road, Next to paper mint shop and kabira restaurant., Pune, Maharashtra" }, "geometry": { "type": "Point", "coordinates": [ 73.8188201, 18.4678997 ] } },
{ "type": "Feature", "properties": { "ccd_name": "Illegal Cutting of tree", "com_location": "siMhagaDa rastA ka sama sa ba.NkechyA javaLa..., Pune, Maharashtra" }, "geometry": { "type": "Point", "coordinates": [ 73.8786239, 18.5246091 ] } },
{ "type": "Feature", "properties": { "ccd_name": "Others (Encroachment W.O.)", "com_location": "haDapasara gADItaLa  yethe  p m t bilDiMga, Pune, Maharashtra" }, "geometry": { "type": "Point", "coordinates": [ 73.8786239, 18.5246091 ] } },
{ "type": "Feature", "properties": { "ccd_name": "Removal of illegal hawkers / stall / hut / workshop / garage structure on footpath/roads", "com_location": "Lane No.3\r\nKoregaon park, Pune 1" }, "geometry": { "type": "Point", "coordinates": [ 73.8916593, 18.5349815 ] } },
{ "type": "Feature", "properties": { "ccd_name": "Unauthorised Banners/advertisement/Boards on roads/Footpath/Buildings/Gantry", "com_location": "Wanwadi , Pune, Maharashtra" }, "geometry": { "type": "Point", "coordinates": [ 73.9000204, 18.4922285 ] } },
{ "type": "Feature", "properties": { "ccd_name": "Complaint related to Mandai Stall / Gaala", "com_location": "Handewadi road, between ECP Vastu and Namo Vihar soc. Satav nagar. Hadapsar pune 28" }, "geometry": { "type": "Point", "coordinates": [ 73.9309258, 18.4760906 ] } },
{ "type": "Feature", "properties": { "ccd_name": "Unauthorised Banners/advertisement/Boards on roads/Footpath/Buildings/Gantry", "com_location": "ha.cpI ka lanI gallI 1., Pune, Maharashtra" }, "geometry": { "type": "Point", "coordinates": [ 73.9414647, 18.4777176 ] } },
{ "type": "Feature", "properties": { "ccd_name": "Removal of illegal hawkers / stall / hut / workshop / garage structure on footpath/roads", "com_location": "shop no. 8 satara road, opposite Bharti hospital, shridharnagar,dhankwadi,Pune Maharashtra 411043" }, "geometry": { "type": "Point", "coordinates": [ 73.8573849, 18.468121 ] } },
{ "type": "Feature", "properties": { "ccd_name": "Removal of illegal hawkers / stall / hut / workshop / garage structure on footpath/roads", "com_location": "Naren Hills azad nagar wanawari pune 22 " }, "geometry": { "type": "Point", "coordinates": [ 73.9078436, 18.4835782 ] } },
{ "type": "Feature", "properties": { "ccd_name": "Removal of illegal hawkers / stall / hut / workshop / garage structure on footpath/roads", "com_location": " hAMDevADI roDa varIla gaMgA vhilaleja sosAyaTI , Pune, Maharashtra" }, "geometry": { "type": "Point", "coordinates": [ 73.9531189, 18.5646495 ] } },
{ "type": "Feature", "properties": { "ccd_name": "Removal of illegal hawkers / stall / hut / workshop / garage structure on footpath/roads", "com_location": "Sadashiv peth khune murlidhar chowk pvg road opp Nagnath park, Pune, Maharashtra" }, "geometry": { "type": "Point", "coordinates": [ 73.8524875, 18.5094476 ] } },
{ "type": "Feature", "properties": { "ccd_name": "Removal of illegal hawkers / stall / hut / workshop / garage structure on footpath/roads", "com_location": " rAmeshvara chauka maMDaI , Pune, Maharashtra" }, "geometry": { "type": "Point", "coordinates": [ 73.8022822, 18.4967552 ] } },
{ "type": "Feature", "properties": { "ccd_name": "Unauthorized banners / advertisements / Permit / license in Pune City", "com_location": "gaNeshamaLA savAI hA.cTela shejArI, Pune, Maharashtra" }, "geometry": { "type": "Point", "coordinates": [ 73.8786239, 18.5246091 ] } },
{ "type": "Feature", "properties": { "ccd_name": "Removal of illegal hawkers / stall / hut / workshop / garage structure on footpath/roads", "com_location": "925 Kasba Peth beside MSEB light bill office Kasba Peth, Pune, Maharashtra" }, "geometry": { "type": "Point", "coordinates": [ 73.8609258, 18.5207773 ] } },
{ "type": "Feature", "properties": { "ccd_name": "Removal of illegal hawkers / stall / hut / workshop / garage structure on footpath/roads", "com_location": "shivaji nagr court,gate no-4, Pune, Maharashtra" }, "geometry": { "type": "Point", "coordinates": [ 73.8557209, 18.5271375 ] } },
{ "type": "Feature", "properties": { "ccd_name": "Others (Encroachment W.O.)", "com_location": "Sr no 60 Sopan Baug Florentine Housing Society G building ghorpadi gaon pune 411001" }, "geometry": { "type": "Point", "coordinates": [ 73.904462, 18.516291 ] } },
{ "type": "Feature", "properties": { "ccd_name": "Unauthorised alteration/renovation of building", "com_location": "S/no-32/3b,Kanchan pushpa,galli no-2, shelarmala, katraj kondhwa road,Pune-46 India" }, "geometry": { "type": "Point", "coordinates": [ 73.8650059, 18.444144 ] } },
{ "type": "Feature", "properties": { "ccd_name": "Illegal pandals/arches etc. on road/footpath", "com_location": "baner pashan link rd, rolling hill , Pune, Maharashtra" }, "geometry": { "type": "Point", "coordinates": [ 73.7912895, 18.5491346 ] } },
{ "type": "Feature", "properties": { "ccd_name": "Other (Encroachment H.O.)", "com_location": "sai nivas bld,lane-8,ngr rd,eyon it park , Pune, Maharashtra" }, "geometry": { "type": "Point", "coordinates": [ 73.9218352, 18.5613845 ] } },
{ "type": "Feature", "properties": { "ccd_name": "Illegal Cutting of tree", "com_location": "Baner road. Opposite Montral Towers, Banks of Ramnadi, Pune, Maharashtra" }, "geometry": { "type": "Point", "coordinates": [ 73.7925792, 18.5581625 ] } },
{ "type": "Feature", "properties": { "ccd_name": "Illegal pandals/arches etc. on road/footpath", "com_location": "Near Shop No 1 Shai Shanti Park Porwal Lohegaon Pune 411047" }, "geometry": { "type": "Point", "coordinates": [ 73.954786, 18.575517 ] } },
{ "type": "Feature", "properties": { "ccd_name": "Removal of illegal hawkers / stall / hut / workshop / garage structure on footpath/roads", "com_location": "macca masjid to ghorpade peth gate, Pune, Maharashtra" }, "geometry": { "type": "Point", "coordinates": [ 73.863644, 18.5018056 ] } },
{ "type": "Feature", "properties": { "ccd_name": "Unauthorised Banners/advertisement/Boards on roads/Footpath/Buildings/Gantry", "com_location": "opposite Spicer college main gate. , Pune, Maharashtra" }, "geometry": { "type": "Point", "coordinates": [ 73.9332071, 18.5151482 ] } },
{ "type": "Feature", "properties": { "ccd_name": "Unauthorised Banners/advertisement/Boards on roads/Footpath/Buildings/Gantry", "com_location": "Bhikardas Maruti Road at 1847 , Sadashiv Peth , Pune - 411030" }, "geometry": { "type": "Point", "coordinates": [ 73.8525762, 18.5091928 ] } },
{ "type": "Feature", "properties": { "ccd_name": "Removal of illegal hawkers / stall / hut / workshop / garage structure on footpath/roads", "com_location": "Sus road Pashan opp Reliance Fresh turning , Pune, Maharashtra" }, "geometry": { "type": "Point", "coordinates": [ 73.7807995, 18.5447004 ] } },
{ "type": "Feature", "properties": { "ccd_name": "Removal of illegal hawkers / stall / hut / workshop / garage structure on footpath/roads", "com_location": "Annapurna hotel Ganesh Krupa society near Chimnya ganpati mandir Sadashiv Peth Pune 30" }, "geometry": { "type": "Point", "coordinates": [ 73.8509022, 18.5052707 ] } },
{ "type": "Feature", "properties": { "ccd_name": "Others (Encroachment W.O.)", "com_location": "rAjArAma pUla, Pune, Maharashtra" }, "geometry": { "type": "Point", "coordinates": [ 73.8786239, 18.5246091 ] } },
{ "type": "Feature", "properties": { "ccd_name": "Removal of illegal hawkers / stall / hut / workshop / garage structure on footpath/roads", "com_location": "Intersection of Sangamwadi Road and Deccan Collage road, BinduMadhav Thakrey chowk,  Yerawda,\r\nPune." }, "geometry": { "type": "Point", "coordinates": [ 73.8769161, 18.5451723 ] } },
{ "type": "Feature", "properties": { "ccd_name": "Others (Encroachment W.O.)", "com_location": " patA:294 guruvAra peTha rAjA TAvara sosAyaTI ke bAjU kAchI AlI.   , Pune, Maharashtra" }, "geometry": { "type": "Point", "coordinates": [ 73.9531189, 18.5646495 ] } },
{ "type": "Feature", "properties": { "ccd_name": "Removal of illegal hawkers / stall / hut / workshop / garage structure on footpath/roads", "com_location": "on Naren hills Society main road Azad Nagar Wanawrie, Pune, Maharashtra" }, "geometry": { "type": "Point", "coordinates": [ 73.9078436, 18.4835782 ] } },
{ "type": "Feature", "properties": { "ccd_name": "Illegal Cutting of tree", "com_location": " Mantri Avenue I, Panchwati, Pashan Pune - 411008" }, "geometry": { "type": "Point", "coordinates": [ 73.8093736, 18.5327261 ] } },
{ "type": "Feature", "properties": { "ccd_name": "Removal of illegal hawkers / stall / hut / workshop / garage structure on footpath/roads", "com_location": "Opposite vandhana medicals,\r\nNear ABC chowk\r\nSalunkhe Vihar Road\r\nWanourie, Pune, Maharashtra" }, "geometry": { "type": "Point", "coordinates": [ 73.9010804, 18.4813342 ] } },
{ "type": "Feature", "properties": { "ccd_name": "Removal of illegal hawkers / stall / hut / workshop / garage structure on footpath/roads", "com_location": "Isckon mandir All kondhva budruk to Gangadham Chowk, Pune, Maharashtra" }, "geometry": { "type": "Point", "coordinates": [ 73.8754846, 18.481361 ] } },
{ "type": "Feature", "properties": { "ccd_name": "Removal of illegal hawkers / stall / hut / workshop / garage structure on footpath/roads", "com_location": " Sai Complex, Salunke Vihar road, opp Buddha Vihar, Borade Nagar, Wanawadie, Pune 411 040 " }, "geometry": { "type": "Point", "coordinates": [ 73.8984972, 18.4816012 ] } },
{ "type": "Feature", "properties": { "ccd_name": "Unauthorised Banners/advertisement/Boards on roads/Footpath/Buildings/Gantry", "com_location": " Jakat Naka Chowk, Dhanori, Pune\r\n" }, "geometry": { "type": "Point", "coordinates": [ 73.9087629, 18.597047 ] } },
{ "type": "Feature", "properties": { "ccd_name": "Removal of illegal hawkers / stall / hut / workshop / garage structure on footpath/roads", "com_location": "342,shukrwar peth,, Pune, Maharashtra" }, "geometry": { "type": "Point", "coordinates": [ 73.8567002, 18.5083204 ] } },
{ "type": "Feature", "properties": { "ccd_name": "Illegal Cutting of tree", "com_location": "Sadhana socity Akashvani hadapsar pane, Pune, Maharashtra" }, "geometry": { "type": "Point", "coordinates": [ 73.948034, 18.499679 ] } },
{ "type": "Feature", "properties": { "ccd_name": "Removal of illegal hawkers / stall / hut / workshop / garage structure on footpath/roads", "com_location": "Sinhagad Road near Rajaram Bridge , Pune, Maharashtra" }, "geometry": { "type": "Point", "coordinates": [ 73.8278975, 18.4884771 ] } },
{ "type": "Feature", "properties": { "ccd_name": "Removal of illegal hawkers / stall / hut / workshop / garage structure on footpath/roads", "com_location": "opp RDBI bank nagras road aundh , Pune, Maharashtra" }, "geometry": { "type": "Point", "coordinates": [ 73.8041779, 18.5656376 ] } },
{ "type": "Feature", "properties": { "ccd_name": "Illegal Cutting of tree", "com_location": "puNe muMbaI rastA aMDI ubavanI keMdrA samora" }, "geometry": { "type": "Point", "coordinates": [ 73.8786239, 18.5246091 ] } },
{ "type": "Feature", "properties": { "ccd_name": "Illegal Cutting of tree", "com_location": "hadapsar malwadi vasahat shivsena chowk pune " }, "geometry": { "type": "Point", "coordinates": [ 73.9389213, 18.5053012 ] } },
{ "type": "Feature", "properties": { "ccd_name": "Illegal pandals/arches etc. on road/footpath", "com_location": "Abnavey Nagar, opp to Goyal Ganga , Near to `nayati, Undri, Pune" }, "geometry": { "type": "Point", "coordinates": [ 73.9221354, 18.4524905 ] } },
{ "type": "Feature", "properties": { "ccd_name": "Removal of illegal hawkers / stall / hut / workshop / garage structure on footpath/roads", "com_location": "PMPML bus stp at Pune Station,PMC" }, "geometry": { "type": "Point", "coordinates": [ 73.8732166, 18.5271906 ] } },
{ "type": "Feature", "properties": { "ccd_name": "Removal of illegal hawkers / stall / hut / workshop / garage structure on footpath/roads", "com_location": "Viman nagar road next to maruti showroom on HCMTR corner backside of Phoenix Marketcity Viman nagar , Pune, Maharashtra" }, "geometry": { "type": "Point", "coordinates": [ 73.9166943, 18.562254 ] } },
{ "type": "Feature", "properties": { "ccd_name": "Removal of illegal hawkers / stall / hut / workshop / garage structure on footpath/roads", "com_location": "Nibm road, opposite state bank of india Undri branch. (past Marvel sangria), Pune, Maharashtra" }, "geometry": { "type": "Point", "coordinates": [ 73.9221342, 18.4654128 ] } },
{ "type": "Feature", "properties": { "ccd_name": "Removal of illegal hawkers / stall / hut / workshop / garage structure on footpath/roads", "com_location": "vishrAMtavADI bhAjI maMDaI  puNe " }, "geometry": { "type": "Point", "coordinates": [ 73.8840522, 18.547189 ] } },
{ "type": "Feature", "properties": { "ccd_name": "Removal of illegal hawkers / stall / hut / workshop / garage structure on footpath/roads", "com_location": "paMchavaTI ka mpleksa samora, vaibhava thIyaTara javala, ha.Dapasara gAva., Pune, Maharashtra" }, "geometry": { "type": "Point", "coordinates": [ 73.8786239, 18.5246091 ] } },
{ "type": "Feature", "properties": { "ccd_name": "Removal of illegal hawkers / stall / hut / workshop / garage structure on footpath/roads", "com_location": "navIpeTha viThThala maMdira javaLIla rikShA sTa.cMDa chauka, Pune, Maharashtra" }, "geometry": { "type": "Point", "coordinates": [ 73.8403511, 18.5059151 ] } },
{ "type": "Feature", "properties": { "ccd_name": "Unauthorised Banners/advertisement/Boards on roads/Footpath/Buildings/Gantry", "com_location": "auMdha - bANera kShetrIya kAryAlayAta, Pune, Maharashtra" }, "geometry": { "type": "Point", "coordinates": [ 73.8786239, 18.5246091 ] } },
{ "type": "Feature", "properties": { "ccd_name": "Removal of illegal hawkers / stall / hut / workshop / garage structure on footpath/roads", "com_location": "shivaji nagr court,gate no-4 , Pune, Maharashtra" }, "geometry": { "type": "Point", "coordinates": [ 73.8557209, 18.5271375 ] } },
{ "type": "Feature", "properties": { "ccd_name": "Removal of illegal hawkers / stall / hut / workshop / garage structure on footpath/roads", "com_location": "purvI bhAU mahArAja rastA, Pune, Maharashtra" }, "geometry": { "type": "Point", "coordinates": [ 73.8550719, 18.5124887 ] } },
{ "type": "Feature", "properties": { "ccd_name": "Removal of illegal hawkers / stall / hut / workshop / garage structure on footpath/roads", "com_location": "pattA-paramAra vilA-1 cha Isa mArkeTa shejArI jagatApa nagara  vAnavaDI puNe-411040" }, "geometry": { "type": "Point", "coordinates": [ 73.9046055, 18.4845188 ] } },
{ "type": "Feature", "properties": { "ccd_name": "Illegal pandals/arches etc. on road/footpath", "com_location": "gAMdhI bhavana kotharuDa , Pune, Maharashtra" }, "geometry": { "type": "Point", "coordinates": [ 73.8034821, 18.4964395 ] } },
{ "type": "Feature", "properties": { "ccd_name": "Removal of illegal hawkers / stall / hut / workshop / garage structure on footpath/roads", "com_location": "On paud road  kothrud ( near Anand Nagar and Ideal colony, Pune, Maharashtra" }, "geometry": { "type": "Point", "coordinates": [ 73.8176451, 18.5084314 ] } },
{ "type": "Feature", "properties": { "ccd_name": "Removal of illegal hawkers / stall / hut / workshop / garage structure on footpath/roads", "com_location": "Pruthwi complex tupe kirad assiciates sasane nagar hadapsar near jansewa sahkari bank, Pune, Maharashtra" }, "geometry": { "type": "Point", "coordinates": [ 73.9310226, 18.4929595 ] } },
{ "type": "Feature", "properties": { "ccd_name": "Removal of illegal hawkers / stall / hut / workshop / garage structure on footpath/roads", "com_location": "On baner pashan link road near star bazar opp rolling hill society , Pune, Maharashtra" }, "geometry": { "type": "Point", "coordinates": [ 73.7944837, 18.5523171 ] } },
{ "type": "Feature", "properties": { "ccd_name": "Removal of illegal hawkers / stall / hut / workshop / garage structure on footpath/roads", "com_location": "senTla ba.cMka javaLa, mayUra kA.clanI kotharUDa, Pune, Maharashtra" }, "geometry": { "type": "Point", "coordinates": [ 73.8076543, 18.5073514 ] } },
{ "type": "Feature", "properties": { "ccd_name": "Illegal Cutting of tree", "com_location": " United western society karvenagara puNe 52. sabhAgRRiha rastA" }, "geometry": { "type": "Point", "coordinates": [ 73.826618, 18.4906952 ] } },
{ "type": "Feature", "properties": { "ccd_name": "Others (Encroachment W.O.)", "com_location": "770, Bhandarkar Rd\r\n770, Bhandarkar Rd, Deccan Gymkhana, Pune, Maharashtra 411004" }, "geometry": { "type": "Point", "coordinates": [ 73.8371968, 18.5172706 ] } },
{ "type": "Feature", "properties": { "ccd_name": "Illegal pandals/arches etc. on road/footpath", "com_location": "kharadi rajaram patil nagar, , Pune, Maharashtra" }, "geometry": { "type": "Point", "coordinates": [ 73.9537885, 18.5589043 ] } },
{ "type": "Feature", "properties": { "ccd_name": "Removal of illegal hawkers / stall / hut / workshop / garage structure on footpath/roads", "com_location": " bhAU mahArAja rastA , Pune, Maharashtra" }, "geometry": { "type": "Point", "coordinates": [ 73.8550719, 18.5124887 ] } },
{ "type": "Feature", "properties": { "ccd_name": "Unauthorised Banners/advertisement/Boards on roads/Footpath/Buildings/Gantry", "com_location": "ApalyA prabhAgAtIla  basa sTa pa, jhADAvara sabave , roDa DivhAyaDara vara lAvaNyAta AlelyA jAhirAtI, posTarsa kADhU, Pune, Maharashtra" }, "geometry": { "type": "Point", "coordinates": [ 73.8786239, 18.5246091 ] } },
{ "type": "Feature", "properties": { "ccd_name": "Removal of illegal hawkers / stall / hut / workshop / garage structure on footpath/roads", "com_location": "pAMDhare maLA, navIna ka.cna la sasANe nagara, Pune, Maharashtra" }, "geometry": { "type": "Point", "coordinates": [ 73.9345125, 18.4919553 ] } },
{ "type": "Feature", "properties": { "ccd_name": "Others (Encroachment W.O.)", "com_location": "parIhAra chauka auMdha yethe parihAra svITa, Pune, Maharashtra" }, "geometry": { "type": "Point", "coordinates": [ 73.8695838, 18.4987168 ] } },
{ "type": "Feature", "properties": { "ccd_name": "Other (Encroachment H.O.)", "com_location": "Sr no 73, Opp Vaishnavi Complex, besides Mahavitaran Office, Behind Wondercity ,Katraj-411046, Pune, Maharashtra" }, "geometry": { "type": "Point", "coordinates": [ 73.8543906, 18.4515875 ] } },
{ "type": "Feature", "properties": { "ccd_name": "Removal of illegal hawkers / stall / hut / workshop / garage structure on footpath/roads", "com_location": " Tavare Colony Road. Sahakarnagar., Pune, Maharashtra" }, "geometry": { "type": "Point", "coordinates": [ 73.855506, 18.4868947 ] } },
{ "type": "Feature", "properties": { "ccd_name": "Removal of illegal hawkers / stall / hut / workshop / garage structure on footpath/roads", "com_location": "paMchavaTI ka mpleksa samora, vaibhava thIyaTara javala, 111 no basa sTa pa chyA mAge, ha.Dapasara gAva, Pune, Maharashtra" }, "geometry": { "type": "Point", "coordinates": [ 73.8786239, 18.5246091 ] } },
{ "type": "Feature", "properties": { "ccd_name": "Removal of illegal hawkers / stall / hut / workshop / garage structure on footpath/roads", "com_location": "Mehunpura gaNapatI chA jAgevara paNa bhAjI va phaLa vAle basatAta, Pune, Maharashtra" }, "geometry": { "type": "Point", "coordinates": [ 73.8530359, 18.5176715 ] } },
{ "type": "Feature", "properties": { "ccd_name": "Removal of illegal hawkers / stall / hut / workshop / garage structure on footpath/roads", "com_location": "Porwal dhanori road pride asiana , Pune, Maharashtra" }, "geometry": { "type": "Point", "coordinates": [ 73.9087629, 18.597047 ] } },
{ "type": "Feature", "properties": { "ccd_name": "Illegal Cutting of tree", "com_location": "Shewale park - new society Karve nagar, Pune, Maharashtra" }, "geometry": { "type": "Point", "coordinates": [ 73.81792080000001, 18.4844289 ] } },
{ "type": "Feature", "properties": { "ccd_name": "Unauthorised alteration/renovation of building", "com_location": "Flat no C1108 Atria grande,  Autade handewadi, hadapsar pune." }, "geometry": { "type": "Point", "coordinates": [ 73.9365821, 18.5008783 ] } },
{ "type": "Feature", "properties": { "ccd_name": "Removal of illegal hawkers / stall / hut / workshop / garage structure on footpath/roads", "com_location": " Mukundnagar. Opp Sujay Gardens. Pune 411037\r\n\r\n" }, "geometry": { "type": "Point", "coordinates": [ 73.8611315, 18.4965828 ] } },
{ "type": "Feature", "properties": { "ccd_name": "Removal of illegal hawkers / stall / hut / workshop / garage structure on footpath/roads", "com_location": "gokhalenagara yethIla kusALakara putaLA chauka, lAlachALa somanAtha mitra maMDaLa gaNapatI maMdirAsamora , Pune, Maharashtra" }, "geometry": { "type": "Point", "coordinates": [ 73.82708550000001, 18.5291524 ] } },
{ "type": "Feature", "properties": { "ccd_name": "Removal of illegal hawkers / stall / hut / workshop / garage structure on footpath/roads", "com_location": "n empty plot next to Aditya Garden Floraa, S.No.83, Warje, Pune. " }, "geometry": { "type": "Point", "coordinates": [ 73.7886932, 18.4879945 ] } },
{ "type": "Feature", "properties": { "ccd_name": "Removal of illegal hawkers / stall / hut / workshop / garage structure on footpath/roads", "com_location": "  sugandhi vale yancha dukana shejari aani shanipar te mandai rd, Pune, Maharashtra" }, "geometry": { "type": "Point", "coordinates": [ 73.853792, 18.51217 ] } },
{ "type": "Feature", "properties": { "ccd_name": "Unauthorised alteration/renovation of building", "com_location": "FLAT NUMBER 202 PELESTINA APPARTMENT NATAWADI VIKRAM TILES SAMOOR SHIVAJI NAGAR PUNE 5 " }, "geometry": { "type": "Point", "coordinates": [ 73.846894, 18.530104 ] } },
{ "type": "Feature", "properties": { "ccd_name": "Unauthorised alteration/renovation of building", "com_location": "Row house no 3 ganga landmark ganga dham bunglow society phase 1 bibewadi rd next to market yard pune 37 " }, "geometry": { "type": "Point", "coordinates": [ 73.8602178, 18.4829272 ] } },
{ "type": "Feature", "properties": { "ccd_name": "Removal of illegal hawkers / stall / hut / workshop / garage structure on footpath/roads", "com_location": "near COEP college hostel, Kalaniket chowk, towards JM road., Pune, Maharashtra" }, "geometry": { "type": "Point", "coordinates": [ 73.8519684, 18.5290226 ] } },
{ "type": "Feature", "properties": { "ccd_name": "Unauthorised alteration/renovation of building", "com_location": "Shree Ram hillview sathe vasti, Lohagaon/dhanori 411047, Pune, Maharashtra" }, "geometry": { "type": "Point", "coordinates": [ 73.9190133, 18.6019767 ] } },
{ "type": "Feature", "properties": { "ccd_name": "Removal of illegal hawkers / stall / hut / workshop / garage structure on footpath/roads", "com_location": "shrikAMta ThAkare patha , kotharuDa , puNe 411038\t" }, "geometry": { "type": "Point", "coordinates": [ 73.8021023, 18.4992609 ] } },
{ "type": "Feature", "properties": { "ccd_name": "Illegal Cutting of tree", "com_location": " near sirvi medical balagi mandir lane pashan Pune" }, "geometry": { "type": "Point", "coordinates": [ 73.7890003, 18.5408665 ] } },
{ "type": "Feature", "properties": { "ccd_name": "Other (Encroachment H.O.)", "com_location": "near Shant honda Airport road, tingrenagar.\r\n, Pune, Maharashtra" }, "geometry": { "type": "Point", "coordinates": [ 73.8873499, 18.5739183 ] } },
{ "type": "Feature", "properties": { "ccd_name": "Removal of illegal hawkers / stall / hut / workshop / garage structure on footpath/roads", "com_location": "NDA road from maratha Mandir to bavdhan police chowk, Pune, Maharashtra" }, "geometry": { "type": "Point", "coordinates": [ 73.779683, 18.522467 ] } },
{ "type": "Feature", "properties": { "ccd_name": "Removal of illegal hawkers / stall / hut / workshop / garage structure on footpath/roads", "com_location": "Plot 21 corner, Gulatekadi Industrial Estate, Meenatai Thakare Vasahat Road, Plot 427, Gultekadi,, Pune, Maharashtra" }, "geometry": { "type": "Point", "coordinates": [ 73.8679115, 18.4957045 ] } },
{ "type": "Feature", "properties": { "ccd_name": "Unauthorised Banners/advertisement/Boards on roads/Footpath/Buildings/Gantry", "com_location": "Kumar Primavera,\r\nWadgaonsheri\r\nPUNE, MAHARASHTRA 411014\r\nIndia" }, "geometry": { "type": "Point", "coordinates": [ 73.928083, 18.5412748 ] } },
{ "type": "Feature", "properties": { "ccd_name": "Others (Encroachment W.O.)", "com_location": "Indira Nagar Barmasel vasahat Lohegaon Road Pune Airport Road 509 chowk pune 411032" }, "geometry": { "type": "Point", "coordinates": [ 73.9275889, 18.5944704 ] } },
{ "type": "Feature", "properties": { "ccd_name": "Removal of illegal hawkers / stall / hut / workshop / garage structure on footpath/roads", "com_location": "Lane number 5 surve number 74 sant nagar lohegaon wagholi road opposite world class bekri lohegaon pune 47 " }, "geometry": { "type": "Point", "coordinates": [ 73.9317589, 18.5972395 ] } },
{ "type": "Feature", "properties": { "ccd_name": "Removal of illegal hawkers / stall / hut / workshop / garage structure on footpath/roads", "com_location": "jagatap hospital to manik baug , Pune, Maharashtra" }, "geometry": { "type": "Point", "coordinates": [ 73.82095360000001, 18.4745254 ] } },
{ "type": "Feature", "properties": { "ccd_name": "Unauthorised Banners/advertisement/Boards on roads/Footpath/Buildings/Gantry", "com_location": "ApalyA prabhAgAtIla  basa sTa pa, jhADAvara sabave , roDa DivhAyaDara vara lAvaNyAta AlelyA jAhirAtI, posTarsa kADhU, Pune, Maharashtra" }, "geometry": { "type": "Point", "coordinates": [ 73.8786239, 18.5246091 ] } },
{ "type": "Feature", "properties": { "ccd_name": "Removal of illegal hawkers / stall / hut / workshop / garage structure on footpath/roads", "com_location": " at Gangadham street. , Pune, Maharashtra" }, "geometry": { "type": "Point", "coordinates": [ 73.8767524, 18.466156 ] } },
{ "type": "Feature", "properties": { "ccd_name": "Removal of illegal hawkers / stall / hut / workshop / garage structure on footpath/roads", "com_location": "Erandwane co op society, opp landmark -Deenanath hospital lane 4 Erandwane PUNE 411004" }, "geometry": { "type": "Point", "coordinates": [ 73.8311229, 18.5003346 ] } },
{ "type": "Feature", "properties": { "ccd_name": "Unauthorised Banners/advertisement/Boards on roads/Footpath/Buildings/Gantry", "com_location": "dhayari, rutu nagari society, near bus stop, Pune, Maharashtra" }, "geometry": { "type": "Point", "coordinates": [ 73.8152185, 18.4453437 ] } },
{ "type": "Feature", "properties": { "ccd_name": "Unauthorised Banners/advertisement/Boards on roads/Footpath/Buildings/Gantry", "com_location": " on katraj - kondhwa Rd , Pune, Maharashtra" }, "geometry": { "type": "Point", "coordinates": [ 73.8747982, 18.4498089 ] } },
{ "type": "Feature", "properties": { "ccd_name": "Unauthorised Banners/advertisement/Boards on roads/Footpath/Buildings/Gantry", "com_location": "visaveshvara ba.Nka javaLa mANika bAga yethe, Pune, Maharashtra" }, "geometry": { "type": "Point", "coordinates": [ 73.8786239, 18.5246091 ] } },
{ "type": "Feature", "properties": { "ccd_name": "Others (Encroachment W.O.)", "com_location": "Sr no 74 Lane no 5 Sant nagar  lohegaon wagholi road lohegaon  pune 411047." }, "geometry": { "type": "Point", "coordinates": [ 73.9376533, 18.6060192 ] } },
{ "type": "Feature", "properties": { "ccd_name": "Unauthorised alteration/renovation of building", "com_location": "R-EUPHORIA, PH-II, Opp. Talab Factory, Kondhwa Budruk. Pune-411048" }, "geometry": { "type": "Point", "coordinates": [ 73.8922572, 18.4612883 ] } },
{ "type": "Feature", "properties": { "ccd_name": "Unauthorised Banners/advertisement/Boards on roads/Footpath/Buildings/Gantry", "com_location": "Complete Pashan-Sus road from Balaji Chowk to Pashan-Sus khind, Pune, Maharashtra" }, "geometry": { "type": "Point", "coordinates": [ 73.7777885, 18.5454191 ] } },
{ "type": "Feature", "properties": { "ccd_name": "Removal of illegal hawkers / stall / hut / workshop / garage structure on footpath/roads", "com_location": ".Shriman Society Karvenagar.\r\n\r\n, Pune, Maharashtra" }, "geometry": { "type": "Point", "coordinates": [ 73.8230785, 18.4884655 ] } },
{ "type": "Feature", "properties": { "ccd_name": "Illegal religious structures on road/footpath", "com_location": "Between River Bridge & public toilet.. On mundhawa kharadi road.., Pune, Maharashtra" }, "geometry": { "type": "Point", "coordinates": [ 73.9328965, 18.5324891 ] } },
{ "type": "Feature", "properties": { "ccd_name": "Unauthorised Banners/advertisement/Boards on roads/Footpath/Buildings/Gantry", "com_location": " Koregaon Park lane 6, Pune, Maharashtra" }, "geometry": { "type": "Point", "coordinates": [ 73.8988541, 18.5386326 ] } },
{ "type": "Feature", "properties": { "ccd_name": "Removal of illegal hawkers / stall / hut / workshop / garage structure on footpath/roads", "com_location": "Kotak bank, bibewadi-kondhwa road, bibewadi. Pune 411037" }, "geometry": { "type": "Point", "coordinates": [ 73.8619527, 18.481084 ] } },
{ "type": "Feature", "properties": { "ccd_name": "Removal of illegal hawkers / stall / hut / workshop / garage structure on footpath/roads", "com_location": "in front of our PLOT at road no 9 Survey  no 163 of ADARSH  Colony  Tingre nagar  on main airport  visrantwadi road., Pune, Maharashtra" }, "geometry": { "type": "Point", "coordinates": [ 73.8913195, 18.5755247 ] } },
{ "type": "Feature", "properties": { "ccd_name": "Removal of illegal hawkers / stall / hut / workshop / garage structure on footpath/roads", "com_location": "Final Plot No. 1205/2009, Jangali Maharaj Road, Shivaji Nagar Pune- 411005" }, "geometry": { "type": "Point", "coordinates": [ 73.8469374, 18.5218107 ] } },
{ "type": "Feature", "properties": { "ccd_name": "Removal of illegal hawkers / stall / hut / workshop / garage structure on footpath/roads", "com_location": "Chandan Nagar BRT bus stop near bata showroom, Pune, Maharashtra" }, "geometry": { "type": "Point", "coordinates": [ 73.9325552, 18.5635511 ] } },
{ "type": "Feature", "properties": { "ccd_name": "Unauthorised alteration/renovation of building", "com_location": " Naylor road is security threat to clover gardens co-op housing society., Pune, Maharashtra" }, "geometry": { "type": "Point", "coordinates": [ 73.8599257, 18.4940735 ] } },
{ "type": "Feature", "properties": { "ccd_name": "Removal of illegal hawkers / stall / hut / workshop / garage structure on footpath/roads", "com_location": "shikShaka nagara gallI naM 10 kotharuDa puNe 38." }, "geometry": { "type": "Point", "coordinates": [ 73.8786239, 18.5246091 ] } },
{ "type": "Feature", "properties": { "ccd_name": "Removal of illegal hawkers / stall / hut / workshop / garage structure on footpath/roads", "com_location": " 171 Ghorpade peth...Pune 42.." }, "geometry": { "type": "Point", "coordinates": [ 73.8662917, 18.5019469 ] } },
{ "type": "Feature", "properties": { "ccd_name": "Illegal Cutting of tree", "com_location": "EUPHORIA PH2, Survey No 18-PART 19-PART, OPP. Talab Factory KONDHWA BUDRUK 411048, Pune, Maharashtra" }, "geometry": { "type": "Point", "coordinates": [ 73.8902704, 18.4611922 ] } },
{ "type": "Feature", "properties": { "ccd_name": "Unauthorised alteration/renovation of building", "com_location": ", kvAliTI gArDana A bilDiMga, sarvhe naMbara : 18/7+8A/2/1, gallI naM.21, ena.Aya.bI.ema. roDa, koMDhavA khurda, puNe 411048." }, "geometry": { "type": "Point", "coordinates": [ 73.8889779, 18.4695088 ] } },
{ "type": "Feature", "properties": { "ccd_name": "Unauthorised alteration/renovation of building", "com_location": " 723/24 shukravAra peTha , sanAtana apArTamenTa , puNe 411002" }, "geometry": { "type": "Point", "coordinates": [ 73.8611812, 18.512489 ] } },
{ "type": "Feature", "properties": { "ccd_name": "Removal of illegal hawkers / stall / hut / workshop / garage structure on footpath/roads", "com_location": "Flat 103/104,Hastinapuram building,Opp Ambamata Temple, Sukhsagar Nagar, Pune, Maharashtra 411046" }, "geometry": { "type": "Point", "coordinates": [ 73.8698001, 18.4565779 ] } },
{ "type": "Feature", "properties": { "ccd_name": "Removal of illegal hawkers / stall / hut / workshop / garage structure on footpath/roads", "com_location": "Akashvani Tower solapur highway hadapsar pune 28" }, "geometry": { "type": "Point", "coordinates": [ 73.9707266, 18.5001922 ] } },
{ "type": "Feature", "properties": { "ccd_name": "Unauthorised Banners/advertisement/Boards on roads/Footpath/Buildings/Gantry", "com_location": "Dattnagar chowk to ambegaon road , Pune, Maharashtra" }, "geometry": { "type": "Point", "coordinates": [ 73.8440181, 18.4488413 ] } },
{ "type": "Feature", "properties": { "ccd_name": "Removal of illegal hawkers / stall / hut / workshop / garage structure on footpath/roads", "com_location": "Ankur plaza warje near ramesh wanjale chowk pune 411052" }, "geometry": { "type": "Point", "coordinates": [ 73.8046403, 18.4808852 ] } },
{ "type": "Feature", "properties": { "ccd_name": "Unauthorised Banners/advertisement/Boards on roads/Footpath/Buildings/Gantry", "com_location": "gholeroDa kShetrIya kAryAlayAMtargata asalelyA shetI mahAmaMDaLa chauka tasecha  saMta gajAnana mahArAja udyAna ,janavADI, kusALakara chauka ityAdI , Pune, Maharashtra" }, "geometry": { "type": "Point", "coordinates": [ 73.8249973, 18.5292326 ] } },
{ "type": "Feature", "properties": { "ccd_name": "Unauthorised alteration/renovation of building", "com_location": "Father Michael Hsg Society,\r\nPlot-5, Vishrantwadi, Pune - 411015" }, "geometry": { "type": "Point", "coordinates": [ 73.8784, 18.5703 ] } },
{ "type": "Feature", "properties": { "ccd_name": "Unauthorised alteration/renovation of building", "com_location": "MIT Villa society road  3 A  Kalyani Nagar, Pune,411006" }, "geometry": { "type": "Point", "coordinates": [ 73.9000333, 18.5446888 ] } },
{ "type": "Feature", "properties": { "ccd_name": "Unauthorised alteration/renovation of building", "com_location": "  CHANDRAKUNJ , B/3-B,  Abhimanshree Housing Society ,Pashan Road,Aundh,Pune-411008." }, "geometry": { "type": "Point", "coordinates": [ 73.8187923, 18.5410502 ] } },
{ "type": "Feature", "properties": { "ccd_name": "Removal of illegal hawkers / stall / hut / workshop / garage structure on footpath/roads", "com_location": "kAtraja madhIla saMtoShaNagara\r\nkAtraja madhye sAtArA rastyAlA lAgUna bhAjI maMDaI Ahe tyA ThikANI, Pune, Maharashtra" }, "geometry": { "type": "Point", "coordinates": [ 73.8185255, 18.4469134 ] } },
{ "type": "Feature", "properties": { "ccd_name": "Removal of illegal hawkers / stall / hut / workshop / garage structure on footpath/roads", "com_location": "Gandhi & Associates Sr.No/ 3/2, Sutarwadi, Next to Bank of Maharashtra, Sutarwadi, Pashan , Pune" }, "geometry": { "type": "Point", "coordinates": [ 73.782136, 18.542849 ] } },
{ "type": "Feature", "properties": { "ccd_name": "Unauthorised Banners/advertisement/Boards on roads/Footpath/Buildings/Gantry", "com_location": "shivajinagar main road, opp Pride Hotel , Pune, Maharashtra" }, "geometry": { "type": "Point", "coordinates": [ 73.8472873, 18.531138 ] } },
{ "type": "Feature", "properties": { "ccd_name": "Removal of illegal hawkers / stall / hut / workshop / garage structure on footpath/roads", "com_location": "Opp to Felicita society on Baner Pashan Link Road, Pune, Maharashtra" }, "geometry": { "type": "Point", "coordinates": [ 73.7912895, 18.5491346 ] } },
{ "type": "Feature", "properties": { "ccd_name": "Illegal Cutting of tree", "com_location": "kumaThekara roDa , Pune, Maharashtra" }, "geometry": { "type": "Point", "coordinates": [ 73.8490734, 18.5133441 ] } },
{ "type": "Feature", "properties": { "ccd_name": "Removal of illegal hawkers / stall / hut / workshop / garage structure on footpath/roads", "com_location": "Goodwill Orchids Jakat Naka Star Gej Socity Dhanori-Lohegaon Rd, Pune, Maharashtra" }, "geometry": { "type": "Point", "coordinates": [ 73.9056232, 18.5986959 ] } },
{ "type": "Feature", "properties": { "ccd_name": "Unauthorised alteration/renovation of building", "com_location": "Prakash Gadade and Bhau Khaire\r\nsr no, 36/14, Vanrai colany Dhankawadi,Pune 43 " }, "geometry": { "type": "Point", "coordinates": [ 73.8482239, 18.4635153 ] } },
{ "type": "Feature", "properties": { "ccd_name": "Illegal Cutting of tree", "com_location": "Margosa Heights, Mohammadwadi, Pune-411060" }, "geometry": { "type": "Point", "coordinates": [ 73.920163, 18.472093 ] } },
{ "type": "Feature", "properties": { "ccd_name": "Unauthorised alteration/renovation of building", "com_location": " Harsh Paradise, Nagras Road, Aundh, Pune   411 007 " }, "geometry": { "type": "Point", "coordinates": [ 73.8051318, 18.5668697 ] } },
{ "type": "Feature", "properties": { "ccd_name": "Illegal Cutting of tree", "com_location": "Margosa Heights, Mohammadwadi, Pune-411060" }, "geometry": { "type": "Point", "coordinates": [ 73.920163, 18.472093 ] } },
{ "type": "Feature", "properties": { "ccd_name": "Unauthorised Banners/advertisement/Boards on roads/Footpath/Buildings/Gantry", "com_location": "ApalyA prabhAgAtIla  basa sTa pa, jhADAvara sabave , roDa DivhAyaDara vara lAvaNyAta AlelyA jAhirAtI, posTarsa kADhU, Pune, Maharashtra" }, "geometry": { "type": "Point", "coordinates": [ 73.8786239, 18.5246091 ] } },
{ "type": "Feature", "properties": { "ccd_name": "Removal of illegal hawkers / stall / hut / workshop / garage structure on footpath/roads", "com_location": "nanaware chowk to ghorpade peth udyan pune 411042" }, "geometry": { "type": "Point", "coordinates": [ 73.8662917, 18.5019469 ] } },
{ "type": "Feature", "properties": { "ccd_name": "Removal of illegal hawkers / stall / hut / workshop / garage structure on footpath/roads", "com_location": "Sohrab Hall Gate number 2, Tadiwala Rd, Pune -411001" }, "geometry": { "type": "Point", "coordinates": [ 73.8749342, 18.5307757 ] } },
{ "type": "Feature", "properties": { "ccd_name": "Removal of illegal hawkers / stall / hut / workshop / garage structure on footpath/roads", "com_location": "baMDa gArDana pANI puravaThA koregAva pArka  javaLa baMDa gArDana maMdirA javaLa, Pune, Maharashtra" }, "geometry": { "type": "Point", "coordinates": [ 73.8786239, 18.5246091 ] } },
{ "type": "Feature", "properties": { "ccd_name": "Removal of illegal hawkers / stall / hut / workshop / garage structure on footpath/roads", "com_location": " is Flat No.36, Ganga Vishnu Heights, Near Alankar Police chowky, Karvenagar, Pune." }, "geometry": { "type": "Point", "coordinates": [ 73.8251846, 18.4942972 ] } },
{ "type": "Feature", "properties": { "ccd_name": "Unauthorized banners / advertisements / Permit / license in Pune City", "com_location": "Bitwise TerraTower, Mumbai Pune Bypass Road, Mohan Nagar , Baner" }, "geometry": { "type": "Point", "coordinates": [ 73.7812463, 18.5373061 ] } },
{ "type": "Feature", "properties": { "ccd_name": "Illegal Cutting of tree", "com_location": "1308 Da, kasabA peTha, agravAla tAlIma javaLa,puNe -11 " }, "geometry": { "type": "Point", "coordinates": [ 73.8610191, 18.5258965 ] } },
{ "type": "Feature", "properties": { "ccd_name": "Illegal Cutting of tree", "com_location": "vidyAMkura shALA sainikavADI vaDagAva sherI \r\nnagararoDala rAmavADI hayAta ha Tela shejArIla vRRikShAMchI , Pune, Maharashtra" }, "geometry": { "type": "Point", "coordinates": [ 73.9109977, 18.553295 ] } },
{ "type": "Feature", "properties": { "ccd_name": "Nullfying Property tax Bill regarding Double Bill / Reconstructive Property / Demolished Property", "com_location": "S.No.23/1, Rd. No.1, Prajasattak Colony, Munjabawasti, Dhanori, Pune 411015" }, "geometry": { "type": "Point", "coordinates": [ 73.8959201, 18.591066 ] } },
{ "type": "Feature", "properties": { "ccd_name": "Illegal Cutting of tree", "com_location": " on baner-pashan link road, Pune, Maharashtra" }, "geometry": { "type": "Point", "coordinates": [ 73.7912895, 18.5491346 ] } }
]
}
