{
"type": "FeatureCollection",
"name": "2021_Road",
"crs": { "type": "name", "properties": { "name": "urn:ogc:def:crs:OGC:1.3:CRS84" } },
"features": [
{ "type": "Feature", "properties": { "ccd_name": "Others road", "com_location": " lane no.9 of Tulja Bhavani nagar , Pune, Maharashtra" }, "geometry": { "type": "Point", "coordinates": [ 73.9485018, 18.5639908 ] } },
{ "type": "Feature", "properties": { "ccd_name": "Repair/re-sufacing of roads/footpaths", "com_location": "Aundh samshan bhumi road  The Siddharth Nagar phase 3, Pune, Maharashtra" }, "geometry": { "type": "Point", "coordinates": [ 73.8141571, 18.5675713 ] } },
{ "type": "Feature", "properties": { "ccd_name": "Repair/re-sufacing of roads/footpaths", "com_location": "Uttam Townscapes, Near to Savanth Petrol Pump, Vishrantwadi -411006, Pune, Maharashtra" }, "geometry": { "type": "Point", "coordinates": [ 73.8834376, 18.5714214 ] } },
{ "type": "Feature", "properties": { "ccd_name": "Others road", "com_location": "Police Commissioner office, Pune." }, "geometry": { "type": "Point", "coordinates": [ 73.8757651, 18.5219542 ] } },
{ "type": "Feature", "properties": { "ccd_name": "Other (Traffic-Planning)", "com_location": " plot no 5 sant tukaram hausing society ashirwad sant nagar aryaneshwar pune 411009" }, "geometry": { "type": "Point", "coordinates": [ 73.8535968, 18.4859312 ] } },
{ "type": "Feature", "properties": { "ccd_name": "Lifiting of debris on road and footpath", "com_location": "Corner of Prabhat road n Income tax lane near the fruit wala, Pune, Maharashtra" }, "geometry": { "type": "Point", "coordinates": [ 73.8324375, 18.5097564 ] } },
{ "type": "Feature", "properties": { "ccd_name": "Trimming of branches in Roadside trees", "com_location": "Indrayani Society,Near Zakoba Mandir,New D P Road,near Shantiban,Kothrud,Pne-411038, Pune, Maharashtra" }, "geometry": { "type": "Point", "coordinates": [ 73.8021023, 18.4992609 ] } },
{ "type": "Feature", "properties": { "ccd_name": "Repairing potholes on Road", "com_location": " 427, Indira Nagar, Gultekdi, Pune,opp khadda" }, "geometry": { "type": "Point", "coordinates": [ 73.8691622, 18.4941245 ] } },
{ "type": "Feature", "properties": { "ccd_name": "Others road", "com_location": " lane 13 E Tingre nagar, Pune, Maharashtra" }, "geometry": { "type": "Point", "coordinates": [ 73.8952483, 18.5761707 ] } },
{ "type": "Feature", "properties": { "ccd_name": "Sweeping /cleaning the road", "com_location": "Shreeyash garden, mohannagar http://sr.no.35, dhankawadi, , Pune, Maharashtra" }, "geometry": { "type": "Point", "coordinates": [ 73.8484306, 18.4611711 ] } },
{ "type": "Feature", "properties": { "ccd_name": "Others road", "com_location": "at near Veritas baner , Pune, Maharashtra" }, "geometry": { "type": "Point", "coordinates": [ 73.7740708, 18.5716625 ] } },
{ "type": "Feature", "properties": { "ccd_name": "PMC Parking Related Complaint", "com_location": "he mahAtmA phule maMDaI vAhanataLa, Pune, Maharashtra" }, "geometry": { "type": "Point", "coordinates": [ 73.8562871, 18.512928 ] } },
{ "type": "Feature", "properties": { "ccd_name": "Repair/re-sufacing of roads/footpaths", "com_location": "ashima pArka bibevADI mArutI maMdira pAThImAge , Pune, Maharashtra" }, "geometry": { "type": "Point", "coordinates": [ 73.8640944, 18.4690213 ] } },
{ "type": "Feature", "properties": { "ccd_name": "Repair/re-sufacing of roads/footpaths", "com_location": " JM road opposite of puma showroom, before z bridge.\r\n, Pune, Maharashtra" }, "geometry": { "type": "Point", "coordinates": [ 73.8443499, 18.5179166 ] } },
{ "type": "Feature", "properties": { "ccd_name": "Others road", "com_location": "neharU TeDIyama somorI puThpAta dAdAvADI yethIla Ahe, Pune, Maharashtra" }, "geometry": { "type": "Point", "coordinates": [ 73.85587360000001, 18.5016866 ] } },
{ "type": "Feature", "properties": { "ccd_name": "Others road", "com_location": "Road from kondhwa NIBM sunshrer kangan leading to Anandvan,\r\nSainik vihar bunglowd, Pune, Maharashtra" }, "geometry": { "type": "Point", "coordinates": [ 73.9085296, 18.4770651 ] } },
{ "type": "Feature", "properties": { "ccd_name": "Repair/re-sufacing of roads/footpaths", "com_location": "Mangaldas Road outside WADIA College, Pune, Maharashtra" }, "geometry": { "type": "Point", "coordinates": [ 73.8806824, 18.5333787 ] } },
{ "type": "Feature", "properties": { "ccd_name": "Repair/re-sufacing of roads/footpaths", "com_location": "prabhAga na 14 bhAMDArakara roDa , bAlashikShaNa  maMdira shALA, Pune, Maharashtra" }, "geometry": { "type": "Point", "coordinates": [ 73.9258785, 18.5039906 ] } },
{ "type": "Feature", "properties": { "ccd_name": "Others road", "com_location": "Shantinagar chowk...Vishrantwadi..., Pune, Maharashtra" }, "geometry": { "type": "Point", "coordinates": [ 73.8786076, 18.5723961 ] } },
{ "type": "Feature", "properties": { "ccd_name": "Repair/re-sufacing of roads/footpaths", "com_location": "SR NO 4,BANTAR SCHOOL BACK SIDE,GADITAL,HADAPSAR,PUNE 411028." }, "geometry": { "type": "Point", "coordinates": [ 73.9429625, 18.5009698 ] } },
{ "type": "Feature", "properties": { "ccd_name": "Repair/re-sufacing of roads/footpaths", "com_location": "At Amrapali apartments near IDBI bank opp Pantry Baner Main road, Pune, Maharashtra" }, "geometry": { "type": "Point", "coordinates": [ 73.7934436, 18.557362 ] } },
{ "type": "Feature", "properties": { "ccd_name": "Others road", "com_location": "katraj kondhwa road, Pune, Maharashtra" }, "geometry": { "type": "Point", "coordinates": [ 73.8747982, 18.4498089 ] } },
{ "type": "Feature", "properties": { "ccd_name": "Repairing potholes on Road (HO)", "com_location": "tarava~NI phurasuMgI jilhA pariShada shALA  tarava~NI-sAyakaravA~NI rastyAvara , Pune, Maharashtra" }, "geometry": { "type": "Point", "coordinates": [ 73.8786239, 18.5246091 ] } },
{ "type": "Feature", "properties": { "ccd_name": "Repair/re-sufacing of roads/footpaths", "com_location": "Kumar sublime entrance road\t Kondhwa, Pune, Maharashtra 411048" }, "geometry": { "type": "Point", "coordinates": [ 73.8935756, 18.4661298 ] } },
{ "type": "Feature", "properties": { "ccd_name": "Repair/re-sufacing of roads/footpaths", "com_location": "haDapasara madhe solApUra rastyAvarIla, Pune, Maharashtra" }, "geometry": { "type": "Point", "coordinates": [ 73.8786239, 18.5246091 ] } },
{ "type": "Feature", "properties": { "ccd_name": "Sweeping /cleaning the road", "com_location": "susa roDa sAI AshirvAda kaDe yeNArA lena naMbara 4 , Pune, Maharashtra" }, "geometry": { "type": "Point", "coordinates": [ 73.9352572, 18.6090253 ] } },
{ "type": "Feature", "properties": { "ccd_name": "Others road", "com_location": "khaDUMjIbAbA/Dekkana chaukAta rastA, Pune, Maharashtra" }, "geometry": { "type": "Point", "coordinates": [ 73.8786239, 18.5246091 ] } },
{ "type": "Feature", "properties": { "ccd_name": "Others road", "com_location": " in front of MJM Hospital, FC Road , Pune, Maharashtra" }, "geometry": { "type": "Point", "coordinates": [ 73.8438811, 18.5245717 ] } },
{ "type": "Feature", "properties": { "ccd_name": "Repairing potholes on Road", "com_location": "Old sai baba mandir Sr no 36/3/1 kharadi pune 14." }, "geometry": { "type": "Point", "coordinates": [ 73.9341573, 18.5552251 ] } },
{ "type": "Feature", "properties": { "ccd_name": "Others road", "com_location": " Karve statue chowk., Pune, Maharashtra" }, "geometry": { "type": "Point", "coordinates": [ 73.816393, 18.502507 ] } },
{ "type": "Feature", "properties": { "ccd_name": "Trimming of branches in Roadside trees", "com_location": " kindly remove branches ., Pune, Maharashtra" }, "geometry": { "type": "Point", "coordinates": [ 73.8786239, 18.5246091 ] } },
{ "type": "Feature", "properties": { "ccd_name": "Repair/re-sufacing of roads/footpaths", "com_location": "Ram Indu Park, Baner, Pune, Maharashtra" }, "geometry": { "type": "Point", "coordinates": [ 73.7801709, 18.5654759 ] } },
{ "type": "Feature", "properties": { "ccd_name": "Repair/re-sufacing of roads/footpaths", "com_location": "Baner road turning to pan card, Pune, Maharashtra" }, "geometry": { "type": "Point", "coordinates": [ 73.7925792, 18.5581625 ] } },
{ "type": "Feature", "properties": { "ccd_name": "Marking of Parking Line (HO)", "com_location": "dhayeri main road near solapure dress shop pune" }, "geometry": { "type": "Point", "coordinates": [ 73.8117835, 18.4541643 ] } },
{ "type": "Feature", "properties": { "ccd_name": "Trimming of branches in Roadside trees", "com_location": "janta sahkari bank,happy colony kothrud, Pune, Maharashtra" }, "geometry": { "type": "Point", "coordinates": [ 73.8135772, 18.4950297 ] } },
{ "type": "Feature", "properties": { "ccd_name": "Repairing potholes on Road", "com_location": "prabhAga 21 ghorapaDI gAva jahAMgIra nagara \r\n, Pune, Maharashtra" }, "geometry": { "type": "Point", "coordinates": [ 73.9045991, 18.5283451 ] } },
{ "type": "Feature", "properties": { "ccd_name": "Trimming of branches in Roadside trees", "com_location": "kalpavRRikSha apArTameMTsa, amRRita kalasha nagarI lena, AMbegAva budruka, puNe 411046" }, "geometry": { "type": "Point", "coordinates": [ 73.8754258, 18.4504283 ] } },
{ "type": "Feature", "properties": { "ccd_name": "Repair/re-sufacing of roads/footpaths", "com_location": "Aundh road . Siddharthnagar housing society phase 2 ., Pune, Maharashtra" }, "geometry": { "type": "Point", "coordinates": [ 73.8117579, 18.5669787 ] } },
{ "type": "Feature", "properties": { "ccd_name": "Repairing potholes on Road", "com_location": "Sr 44 kondhwa khurd vitthal mandir to raviraj colorado society to malik nagar., Pune, Maharashtra" }, "geometry": { "type": "Point", "coordinates": [ 73.8810718, 18.4661002 ] } },
{ "type": "Feature", "properties": { "ccd_name": "Repair/re-sufacing of roads/footpaths", "com_location": "Florida River Bank society, Keshavnagar, Mundhwa. , Pune, Maharashtra" }, "geometry": { "type": "Point", "coordinates": [ 73.9488426, 18.5377738 ] } },
{ "type": "Feature", "properties": { "ccd_name": "Repairing potholes on Road", "com_location": "Bund garden road Kanishka jewelry opposite, Pune, Maharashtra" }, "geometry": { "type": "Point", "coordinates": [ 73.8839428, 18.5412651 ] } },
{ "type": "Feature", "properties": { "ccd_name": "Repairing potholes on Road", "com_location": "chAMdaNI chaukA pAsUna te parAMjape athashrI bAvadhana paryaMta, Pune, Maharashtra" }, "geometry": { "type": "Point", "coordinates": [ 73.7904731, 18.548687 ] } },
{ "type": "Feature", "properties": { "ccd_name": "Repair/re-sufacing of roads/footpaths", "com_location": "Dhavale Park, BG Shirke Road, Ghorpadi, Pune 411036" }, "geometry": { "type": "Point", "coordinates": [ 73.9089612, 18.5262262 ] } },
{ "type": "Feature", "properties": { "ccd_name": "Repairing potholes on Road", "com_location": "prabhAga kra.18madhIla neharU mitrA maMDaLa chauka,17,ghorapaDe peTha,puNe:-42" }, "geometry": { "type": "Point", "coordinates": [ 73.8418604, 18.5065402 ] } },
{ "type": "Feature", "properties": { "ccd_name": "Others road", "com_location": " Tejas Elysian Society, Pallod Farm no.3, Baner Road, Pune 411 045." }, "geometry": { "type": "Point", "coordinates": [ 73.796145, 18.5593127 ] } },
{ "type": "Feature", "properties": { "ccd_name": "Others road", "com_location": " at ganga dham., Pune, Maharashtra" }, "geometry": { "type": "Point", "coordinates": [ 73.874985, 18.4788691 ] } },
{ "type": "Feature", "properties": { "ccd_name": "Repair/re-sufacing of roads/footpaths", "com_location": "Diamond water park HP pump upto Wageshwar Temple, Pune, Maharashtra" }, "geometry": { "type": "Point", "coordinates": [ 73.9777212, 18.5817586 ] } },
{ "type": "Feature", "properties": { "ccd_name": "Repair/re-sufacing of roads/footpaths", "com_location": "Gulmohar Park Lane No. 2 , ITI Road Aundh , Pune , 411007." }, "geometry": { "type": "Point", "coordinates": [ 73.8093817, 18.5542844 ] } },
{ "type": "Feature", "properties": { "ccd_name": "Repairing potholes on Road", "com_location": "Lane no 4 sathe vasti lohegoan pune 47 \r\nNear splendid square society" }, "geometry": { "type": "Point", "coordinates": [ 73.9334879, 18.5960343 ] } },
{ "type": "Feature", "properties": { "ccd_name": "Repairing potholes on Road", "com_location": "427, Indira Nagar, Gultekdi, Pune,opp khadda" }, "geometry": { "type": "Point", "coordinates": [ 73.8691622, 18.4941245 ] } },
{ "type": "Feature", "properties": { "ccd_name": "Repair/re-sufacing of roads/footpaths", "com_location": "Sr. No. 128/5, plot 109, Shilp Cozy Nook, Ram Indu Park, Baner 411045, Pune, Maharashtra" }, "geometry": { "type": "Point", "coordinates": [ 73.7795204, 18.5681697 ] } },
{ "type": "Feature", "properties": { "ccd_name": "Repair/re-sufacing of roads/footpaths", "com_location": "Dhanori gaon, smashan bhumi, Pune, Maharashtra" }, "geometry": { "type": "Point", "coordinates": [ 73.897963, 18.59662 ] } },
{ "type": "Feature", "properties": { "ccd_name": "Others road", "com_location": " Jambhulwadi road, Ambegaon Kh, Pune 46" }, "geometry": { "type": "Point", "coordinates": [ 73.8468226, 18.4424495 ] } },
{ "type": "Feature", "properties": { "ccd_name": "Repair/re-sufacing of roads/footpaths", "com_location": " Laxmi road from post office to kunthe chowk, Pune, Maharashtra" }, "geometry": { "type": "Point", "coordinates": [ 73.8523497, 18.5144852 ] } },
{ "type": "Feature", "properties": { "ccd_name": "Sweeping /cleaning the road", "com_location": "APURV MOTORS \r\nS NO 19 A/B PLOT NO 2 PUNE SATARA ROAD DHANKWADI TRUCK TERMINAL DHANKWADI PUNE 43  " }, "geometry": { "type": "Point", "coordinates": [ 73.857929500000012, 18.4516596 ] } },
{ "type": "Feature", "properties": { "ccd_name": "Repairing potholes on Road", "com_location": "prabhAga kramAMka 6 #yeravaDA bhAgAtIla dilIpa bhAU #kusALe yAMchyA gharAsamora , Pune, Maharashtra" }, "geometry": { "type": "Point", "coordinates": [ 73.8918659, 18.556235 ] } },
{ "type": "Feature", "properties": { "ccd_name": "Repair and maintenance of Bridge ,Sub-ways & Pedestrian", "com_location": "bopodi railway bridge, Pune, Maharashtra" }, "geometry": { "type": "Point", "coordinates": [ 73.8449566, 18.5091044 ] } },
{ "type": "Feature", "properties": { "ccd_name": "Sweeping /cleaning the road", "com_location": "668 /6 bibavevADI puNe 37 svapnila sosAyaTI shrI svAmI samartha maMdirA samorIla rastA" }, "geometry": { "type": "Point", "coordinates": [ 73.8640689, 18.4626695 ] } },
{ "type": "Feature", "properties": { "ccd_name": "Others road", "com_location": "lohagAva-vAgholI rastyAvara dAdAchI vastI, shivanerI misaLa, Pune, Maharashtra" }, "geometry": { "type": "Point", "coordinates": [ 73.935446, 18.5949596 ] } },
{ "type": "Feature", "properties": { "ccd_name": "Repairing potholes on Road", "com_location": "kAtraja jAMbhuLavADI-dattanagara madhye, Pune, Maharashtra" }, "geometry": { "type": "Point", "coordinates": [ 73.865238, 18.4529322 ] } },
{ "type": "Feature", "properties": { "ccd_name": "Others road", "com_location": "jahA.cgIra ha spiTala javaLIla #pulAvarUna , Pune, Maharashtra" }, "geometry": { "type": "Point", "coordinates": [ 73.8786239, 18.5246091 ] } },
{ "type": "Feature", "properties": { "ccd_name": "Repairing potholes on Road", "com_location": "Mohammad Wadi pune -411060." }, "geometry": { "type": "Point", "coordinates": [ 73.9163246, 18.4751462 ] } },
{ "type": "Feature", "properties": { "ccd_name": "Trimming of branches in Roadside trees", "com_location": "asmitA apArTameMTa, jijAU mA.NsAheba mArga, ujavI bhusArI, borase ha spiTala mAge, pauDa roDa, kotharUDa, puNe 411038" }, "geometry": { "type": "Point", "coordinates": [ 73.7897557, 18.509391 ] } },
{ "type": "Feature", "properties": { "ccd_name": "Fallen tree on road", "com_location": "818 , Shukrawar peth, Gadikhana, Pune -2" }, "geometry": { "type": "Point", "coordinates": [ 73.8585957, 18.5112522 ] } },
{ "type": "Feature", "properties": { "ccd_name": "Others road", "com_location": "jm road Pune" }, "geometry": { "type": "Point", "coordinates": [ 73.8467508, 18.5211595 ] } },
{ "type": "Feature", "properties": { "ccd_name": "Others road", "com_location": "vaibhava theTara chyA alIkaDe, gujara mastAnI chyA samora, haDapasara gAva , Pune, Maharashtra" }, "geometry": { "type": "Point", "coordinates": [ 73.8786239, 18.5246091 ] } },
{ "type": "Feature", "properties": { "ccd_name": "Repairing potholes on Road", "com_location": "naLasTa pa chauka , gaMgara Ayaneshana samora, Pune, Maharashtra" }, "geometry": { "type": "Point", "coordinates": [ 73.8786239, 18.5246091 ] } },
{ "type": "Feature", "properties": { "ccd_name": "Repair/re-sufacing of roads/footpaths", "com_location": "Baner - Mahalunge Rd, Lalit Estate, Baner, Pune, Maharashtra 411045" }, "geometry": { "type": "Point", "coordinates": [ 73.7810291, 18.5641009 ] } },
{ "type": "Feature", "properties": { "ccd_name": "Others road", "com_location": "Sr. No.101/9B   Aarambh hotel beside internal road  in Ambegaon(kh), Pune, Maharashtra" }, "geometry": { "type": "Point", "coordinates": [ 73.8380766, 18.4436952 ] } },
{ "type": "Feature", "properties": { "ccd_name": "Others road", "com_location": "\"Dengale\" briedge walls at starting point to avoid risks of vehicles hitting at night, Pune, Maharashtra" }, "geometry": { "type": "Point", "coordinates": [ 73.8576653, 18.524569 ] } },
{ "type": "Feature", "properties": { "ccd_name": "Others road", "com_location": "vishrantwadi sr no-112/, v anand rikshwa stand , Pune, Maharashtra" }, "geometry": { "type": "Point", "coordinates": [ 73.8060179, 18.5102454 ] } },
{ "type": "Feature", "properties": { "ccd_name": "Others road", "com_location": "uparokta bhAga. jaina i t park foot path, Pune, Maharashtra" }, "geometry": { "type": "Point", "coordinates": [ 73.8786239, 18.5246091 ] } },
{ "type": "Feature", "properties": { "ccd_name": "Repair/re-sufacing of roads/footpaths", "com_location": "Amanora Victory Towers, Amanora Park Town, Sadesatranali, Pune, Maharashtra" }, "geometry": { "type": "Point", "coordinates": [ 73.9490242, 18.5232834 ] } },
{ "type": "Feature", "properties": { "ccd_name": "Others road", "com_location": "Ganga Aria building,  Gokul Nagar, Dhanori Pune 411015." }, "geometry": { "type": "Point", "coordinates": [ 73.8940027, 18.5915206 ] } },
{ "type": "Feature", "properties": { "ccd_name": "Repairing potholes on Road", "com_location": "Opp euro kids Undri , marvel isola, Pune, Maharashtra" }, "geometry": { "type": "Point", "coordinates": [ 73.9126862, 18.4547298 ] } },
{ "type": "Feature", "properties": { "ccd_name": "Repair/re-sufacing of roads/footpaths", "com_location": "Mangalwar peth \r\nPune Railway station down Bridge " }, "geometry": { "type": "Point", "coordinates": [ 73.8646945, 18.5240566 ] } },
{ "type": "Feature", "properties": { "ccd_name": "Others road", "com_location": "gaNesha nagara yeravaDA vArDa kra.4 , Pune, Maharashtra" }, "geometry": { "type": "Point", "coordinates": [ 73.8257325, 18.4940191 ] } },
{ "type": "Feature", "properties": { "ccd_name": "Others road", "com_location": "yeravaDA prabhAga kra. 6  kAMbaLe dUdha keMdra samorIla roDavara spIDa brekara vara , Pune, Maharashtra" }, "geometry": { "type": "Point", "coordinates": [ 73.8786239, 18.5246091 ] } },
{ "type": "Feature", "properties": { "ccd_name": "Repair/re-sufacing of roads/footpaths", "com_location": "aMbegAva budraka sarve na 16 sAisiddhi chauka TeM chiMtAmaNi shAlA nyU DIpI roDa puNe 46 aMbegoA.N paThAra " }, "geometry": { "type": "Point", "coordinates": [ 73.8786239, 18.5246091 ] } },
{ "type": "Feature", "properties": { "ccd_name": "Trimming of branches in Roadside trees", "com_location": "goMdhalenagara, bhAjI maMDaI javaLa golDana wing sosAyaTI, Pune, Maharashtra" }, "geometry": { "type": "Point", "coordinates": [ 73.9531189, 18.5646495 ] } },
{ "type": "Feature", "properties": { "ccd_name": "Repair/re-sufacing of roads/footpaths", "com_location": "A-301, Camellia, Opp Mayuresh Apts, Balewadi Road, Baner, Pune 411045" }, "geometry": { "type": "Point", "coordinates": [ 73.7809778, 18.5684713 ] } },
{ "type": "Feature", "properties": { "ccd_name": "Fallen tree on road", "com_location": "Plot no. 20 Shayadri park ,Salunke vihar road near ABC Farms ,pune 411048.\r\nContact me:+91 9881199672" }, "geometry": { "type": "Point", "coordinates": [ 73.8993906, 18.4806845 ] } },
{ "type": "Feature", "properties": { "ccd_name": "Repairing potholes on Road (HO)", "com_location": "Swarajya colony ambegaon khurd .\r\n, Pune, Maharashtra" }, "geometry": { "type": "Point", "coordinates": [ 73.8306278, 18.456677 ] } },
{ "type": "Feature", "properties": { "ccd_name": "Others road", "com_location": " pashan road at \"Panchavati\" diversion, Pune, Maharashtra" }, "geometry": { "type": "Point", "coordinates": [ 73.8132075, 18.5397263 ] } },
{ "type": "Feature", "properties": { "ccd_name": "Others road", "com_location": "Pandurang colony, erandwane, Pune, Maharashtra" }, "geometry": { "type": "Point", "coordinates": [ 73.8294085, 18.5051389 ] } },
{ "type": "Feature", "properties": { "ccd_name": "Others (Road Project(H.O))", "com_location": "tirupatInagara, vArajenAkA, prabhAga.31, Pune, Maharashtra" }, "geometry": { "type": "Point", "coordinates": [ 73.8786239, 18.5246091 ] } },
{ "type": "Feature", "properties": { "ccd_name": "Sweeping /cleaning the road", "com_location": "Plot No. 51,53 Sant ramdas housing society sant nagar arranyshwar pune 411009" }, "geometry": { "type": "Point", "coordinates": [ 73.8539801, 18.484889 ] } },
{ "type": "Feature", "properties": { "ccd_name": "Sweeping /cleaning the road", "com_location": "Yash rythm Phase 2 B wing parge nagar kondwa nibm link road Pune 411048" }, "geometry": { "type": "Point", "coordinates": [ 73.8927166, 18.4662783 ] } },
{ "type": "Feature", "properties": { "ccd_name": "Others (Road Project(H.O))", "com_location": "abhinava ka leja roDa narhe ,ChatrapatI saMbhAjI rAje pArka yA ThikANI narhe ,puNe 411041" }, "geometry": { "type": "Point", "coordinates": [ 73.8695486, 18.4644355 ] } },
{ "type": "Feature", "properties": { "ccd_name": "Others road", "com_location": "Regency classic, Mohan nagar, 411045, Pune, Maharashtra" }, "geometry": { "type": "Point", "coordinates": [ 73.8496252, 18.4597452 ] } },
{ "type": "Feature", "properties": { "ccd_name": "Others road", "com_location": "Old Motar Stand Bhawani Peth , Pune, Maharashtra" }, "geometry": { "type": "Point", "coordinates": [ 73.872713, 18.5091935 ] } },
{ "type": "Feature", "properties": { "ccd_name": "Repair/re-sufacing of roads/footpaths (HO)", "com_location": "Yerwada petrol pump nagar road near amit hospital, Pune, Maharashtra" }, "geometry": { "type": "Point", "coordinates": [ 73.8939088, 18.5504419 ] } },
{ "type": "Feature", "properties": { "ccd_name": "Others road", "com_location": "Sr no 34/1, Plot no 74, Lane 11 C, Vidhyanagar, Tingrenagar Pune 411032" }, "geometry": { "type": "Point", "coordinates": [ 73.7903361, 18.4975487 ] } },
{ "type": "Feature", "properties": { "ccd_name": "Repair/re-sufacing of roads/footpaths", "com_location": "\r\nSumangal bunglow plot no 1/3/13 opp shivshakti complex lane next kotak mahindra ATM baner road, Pune, Maharashtra" }, "geometry": { "type": "Point", "coordinates": [ 73.7936107, 18.557759 ] } },
{ "type": "Feature", "properties": { "ccd_name": "Repair/re-sufacing of roads/footpaths", "com_location": "vishrAMtavADI TiMgarenagara roDa  ha Tela flying INN , Pune, Maharashtra" }, "geometry": { "type": "Point", "coordinates": [ 73.8941977, 18.5746837 ] } },
{ "type": "Feature", "properties": { "ccd_name": "Lifiting of debris on road and footpath", "com_location": "vAraje karvenagara kShetrIya kAryAlaya aMtargata karvenagara parisarAtIla chiMtAmaNI resiDensI va golDana peTalsa sosAyaTIchyA shejArIla phuTapAthavara , Pune, Maharashtra" }, "geometry": { "type": "Point", "coordinates": [ 73.9531189, 18.5646495 ] } },
{ "type": "Feature", "properties": { "ccd_name": "Repair/re-sufacing of roads/footpaths", "com_location": "kirakaTavADI phATyAvara, Pune, Maharashtra" }, "geometry": { "type": "Point", "coordinates": [ 73.8786239, 18.5246091 ] } },
{ "type": "Feature", "properties": { "ccd_name": "Repair/re-sufacing of roads/footpaths", "com_location": "kotharUDa, chitaLe miThAI pAshI kotharUDa basa sTa.NDa javaLa., Pune, Maharashtra" }, "geometry": { "type": "Point", "coordinates": [ 73.822121, 18.6325898 ] } },
{ "type": "Feature", "properties": { "ccd_name": "Sweeping /cleaning the road", "com_location": "Lane number 1 Bavdhan Near Passiflora Avenue CHS...near La villa casa society....Plz do the needful..thanx. Dr Sachin Nagapurkar, Pune, Maharashtra" }, "geometry": { "type": "Point", "coordinates": [ 73.7698579, 18.513463 ] } },
{ "type": "Feature", "properties": { "ccd_name": "Others road", "com_location": "flat number 202 f.j.prime, sai park lane number 2,ganesh nagar, mohammed wadi 411060,\r\n, Pune, Maharashtra" }, "geometry": { "type": "Point", "coordinates": [ 73.9146782, 18.4783794 ] } },
{ "type": "Feature", "properties": { "ccd_name": "Others road", "com_location": "bapodi near river, Pune" }, "geometry": { "type": "Point", "coordinates": [ 73.8333804, 18.5852963 ] } },
{ "type": "Feature", "properties": { "ccd_name": "Repair/re-sufacing of roads/footpaths", "com_location": "At Dahanukar Colony Kothrud Pune around circle " }, "geometry": { "type": "Point", "coordinates": [ 73.8110279, 18.4956151 ] } },
{ "type": "Feature", "properties": { "ccd_name": "Repair/re-sufacing of roads/footpaths", "com_location": "Hadapsar sade satra nali sr no 203 pune\t" }, "geometry": { "type": "Point", "coordinates": [ 73.9501677, 18.5133271 ] } },
{ "type": "Feature", "properties": { "ccd_name": "Other (Traffic-Planning)", "com_location": " Gunjan Chowk Yerwada, Pune, Maharashtra" }, "geometry": { "type": "Point", "coordinates": [ 73.8903509, 18.5478739 ] } },
{ "type": "Feature", "properties": { "ccd_name": "Others road", "com_location": "pAShANa susa roDa datta maMdirA javaLIla , Pune, Maharashtra" }, "geometry": { "type": "Point", "coordinates": [ 73.852304, 18.451527 ] } },
{ "type": "Feature", "properties": { "ccd_name": "Trimming of branches in government / public place / road", "com_location": "Sno 17/1c/4 Siddharth nagar, dhanori lohegoan  road, pune 411015" }, "geometry": { "type": "Point", "coordinates": [ 73.906432200000012, 18.5988118 ] } },
{ "type": "Feature", "properties": { "ccd_name": "Repairing potholes on Road", "com_location": "siMhagaDa roDa, pariNaya maMgala kAryAlaya javaLa,rAjamAtA pharnichara sha pa samora mANikabAga puNe" }, "geometry": { "type": "Point", "coordinates": [ 73.8212379, 18.4727755 ] } },
{ "type": "Feature", "properties": { "ccd_name": "Others road", "com_location": "behind the land located near kumar prerana behind wada hotel., Pune, Maharashtra" }, "geometry": { "type": "Point", "coordinates": [ 73.7763111, 18.5436612 ] } },
{ "type": "Feature", "properties": { "ccd_name": "Repairing potholes on Road", "com_location": "on Prayeja city road, Pune, Maharashtra" }, "geometry": { "type": "Point", "coordinates": [ 73.8131866, 18.4686 ] } },
{ "type": "Feature", "properties": { "ccd_name": "Repair/re-sufacing of roads/footpaths", "com_location": "on baner pashan link road near orange county and kubera bahar. from kubera bahar till balaji chowk , Pune, Maharashtra" }, "geometry": { "type": "Point", "coordinates": [ 73.7914507, 18.5476252 ] } },
{ "type": "Feature", "properties": { "ccd_name": "Others road", "com_location": "on new yerwada Bridge, Pune, Maharashtra" }, "geometry": { "type": "Point", "coordinates": [ 73.8849071, 18.5433215 ] } },
{ "type": "Feature", "properties": { "ccd_name": "Development of Bridge , Sub-ways & Pedestrian", "com_location": "EON IT Park Kharadi and Keshavnagar , Pune, Maharashtra" }, "geometry": { "type": "Point", "coordinates": [ 73.9505483, 18.5509447 ] } },
{ "type": "Feature", "properties": { "ccd_name": "Trimming of branches in Roadside trees", "com_location": "gajarAja klaba gajarAja mitra maMDaLa javaLa lakShmI nagara  yeravaDA puNe 6" }, "geometry": { "type": "Point", "coordinates": [ 73.8821613, 18.550567 ] } },
{ "type": "Feature", "properties": { "ccd_name": "Repair/re-sufacing of roads/footpaths", "com_location": "Sangam World Centre , Alandi Road, Opp Quick Heal , Phule Nagar , Adarsh Indra Nagar , New RTO offic, Pune, Maharashtra" }, "geometry": { "type": "Point", "coordinates": [ 73.8756312, 18.5599919 ] } },
{ "type": "Feature", "properties": { "ccd_name": "Others road", "com_location": "vAgholI kesnaMda rastA grIna nAIna ha Tela chyA puDhIla sAIDa kesanaMda roDachyA dishene sAI resiDensI rAdhikA vihAra rAjarShI shAhU ba.Nka\r\n2) je nagara sosAyaTI 2, Pune, Maharashtra" }, "geometry": { "type": "Point", "coordinates": [ 73.9531189, 18.5646495 ] } },
{ "type": "Feature", "properties": { "ccd_name": "Others road", "com_location": "Sarja Hotel lane Aundh, Pune, Maharashtra" }, "geometry": { "type": "Point", "coordinates": [ 73.764253, 18.615999 ] } },
{ "type": "Feature", "properties": { "ccd_name": "Others (Road Project(H.O))", "com_location": "near Baroda Men's parlour at Nakoda Pratap, New era soc, on Gangadhar - Lullanagar Road, Pune 411037" }, "geometry": { "type": "Point", "coordinates": [ 73.8755778, 18.482242 ] } },
{ "type": "Feature", "properties": { "ccd_name": "Others road", "com_location": " near Kumar primrose kharadi , Pune, Maharashtra" }, "geometry": { "type": "Point", "coordinates": [ 73.9497589, 18.5572036 ] } },
{ "type": "Feature", "properties": { "ccd_name": "Others road", "com_location": "Near shivprasad family restaurant, bavdhan service road entrance Near bavdhan service road exit Near seetai corner board\r\n, Pune, Maharashtra" }, "geometry": { "type": "Point", "coordinates": [ 73.776556, 18.5269961 ] } },
{ "type": "Feature", "properties": { "ccd_name": "Repair/re-sufacing of roads/footpaths", "com_location": "from suncity to prayeja city, wadgao bk, Pune, Maharashtra" }, "geometry": { "type": "Point", "coordinates": [ 73.8131866, 18.4686 ] } },
{ "type": "Feature", "properties": { "ccd_name": "Repair/re-sufacing of roads/footpaths", "com_location": "svAmI nArAyaNa maMdIra chyA pAThImAgIla rastA AMbegAva khurda puNe 46 " }, "geometry": { "type": "Point", "coordinates": [ 73.8668551, 18.5176246 ] } },
{ "type": "Feature", "properties": { "ccd_name": "Trimming of branches in Roadside trees", "com_location": "sr no 146/2 near vitthalnagar pashan sutarwadi road pashan pune 21  before pashan smashan bhoomi" }, "geometry": { "type": "Point", "coordinates": [ 73.785219, 18.5380764 ] } },
{ "type": "Feature", "properties": { "ccd_name": "Lifiting of debris on road and footpath", "com_location": " keshavnagar road, belcafel society, manjari road , Pune, Maharashtra" }, "geometry": { "type": "Point", "coordinates": [ 73.9439523, 18.5346484 ] } },
{ "type": "Feature", "properties": { "ccd_name": "Others road", "com_location": "Baner pashan Link Road, Pune, Maharashtra" }, "geometry": { "type": "Point", "coordinates": [ 73.7912895, 18.5491346 ] } },
{ "type": "Feature", "properties": { "ccd_name": "Repair/re-sufacing of roads/footpaths (HO)", "com_location": "next to Ruby Hall Wanowrie , in Azad Nagar, Pune, Maharashtra" }, "geometry": { "type": "Point", "coordinates": [ 73.9046542, 18.4851685 ] } },
{ "type": "Feature", "properties": { "ccd_name": "Others road", "com_location": "I am Pravinkumar Shinde my address is Balkrushna Residency, Behind ISKCON NVCC Temple, Pune, Maharashtra 411048" }, "geometry": { "type": "Point", "coordinates": [ 73.8806678, 18.4468722 ] } },
{ "type": "Feature", "properties": { "ccd_name": "Sweeping /cleaning the road", "com_location": "at newly developed Sus Road , Pune, Maharashtra" }, "geometry": { "type": "Point", "coordinates": [ 73.7777885, 18.5454191 ] } },
{ "type": "Feature", "properties": { "ccd_name": "Repair/re-sufacing of roads/footpaths", "com_location": " near crown plaza hotel, Sassoon road Pune 1" }, "geometry": { "type": "Point", "coordinates": [ 73.875710400000017, 18.531064 ] } },
{ "type": "Feature", "properties": { "ccd_name": "Repairing potholes on Road", "com_location": "KATRAJ SHIVANI KHAN VASTI RAM NAGAR , Pune, Maharashtra" }, "geometry": { "type": "Point", "coordinates": [ 73.8029997, 18.4725734 ] } },
{ "type": "Feature", "properties": { "ccd_name": "Repairing potholes on Road", "com_location": "427 indira nagar gultekdi near power house , Pune, Maharashtra" }, "geometry": { "type": "Point", "coordinates": [ 73.8691622, 18.4941245 ] } },
{ "type": "Feature", "properties": { "ccd_name": "Repairing potholes on Road", "com_location": "shiMde peTrolapaMpAsamorachA bAvadhana, Pune, Maharashtra" }, "geometry": { "type": "Point", "coordinates": [ 73.8786239, 18.5246091 ] } },
{ "type": "Feature", "properties": { "ccd_name": "Others road", "com_location": "koMDhavA khurda miThAnagara prabhAga kra.27 madhye gallI na. 12 shivanerI nagara koMDhavA khurda puNe yethIla" }, "geometry": { "type": "Point", "coordinates": [ 73.8811015, 18.4754216 ] } },
{ "type": "Feature", "properties": { "ccd_name": "Trimming of branches in Roadside trees", "com_location": "mANika nagara sarve naMbara 10 yeravaDA puNe 6 prabhAga kramAMka sahA " }, "geometry": { "type": "Point", "coordinates": [ 73.88129, 18.5527222 ] } },
{ "type": "Feature", "properties": { "ccd_name": "Others road", "com_location": "nagar road from Khandve nagar to Wagheswar temple, Pune, Maharashtra" }, "geometry": { "type": "Point", "coordinates": [ 73.9777212, 18.5817586 ] } },
{ "type": "Feature", "properties": { "ccd_name": "Sweeping /cleaning the road", "com_location": "plot no.2/5, nasheman bungalow, next to airforce gate, viman nagar pune-411014" }, "geometry": { "type": "Point", "coordinates": [ 73.9189549, 18.5683146 ] } },
{ "type": "Feature", "properties": { "ccd_name": "Others road", "com_location": " from sai aamrai society Ambegaon , Pune, Maharashtra" }, "geometry": { "type": "Point", "coordinates": [ 73.8337372, 18.4589793 ] } },
{ "type": "Feature", "properties": { "ccd_name": "Others road", "com_location": "nakShatra baMgalA yogI pArka bANera puNe 45" }, "geometry": { "type": "Point", "coordinates": [ 73.7744934, 18.5526813 ] } },
{ "type": "Feature", "properties": { "ccd_name": "Repair/re-sufacing of roads/footpaths", "com_location": "226 maMgaLavAra peTha shivAjI sTeDIyama shejArI lagata asanA-yA vastI, Pune, Maharashtra" }, "geometry": { "type": "Point", "coordinates": [ 73.8505741, 18.6303827 ] } },
{ "type": "Feature", "properties": { "ccd_name": "Repair/re-sufacing of roads/footpaths", "com_location": "Rajas Housing Society  Plot no 57, galli 7, Pune, Maharashtra" }, "geometry": { "type": "Point", "coordinates": [ 73.8786239, 18.5246091 ] } },
{ "type": "Feature", "properties": { "ccd_name": "Repair/re-sufacing of roads/footpaths", "com_location": "vADa naMbara 30 janatA vasAhata jaya bhavAnI nagara yethe, Pune, Maharashtra" }, "geometry": { "type": "Point", "coordinates": [ 73.8397009, 18.4901977 ] } },
{ "type": "Feature", "properties": { "ccd_name": "Others road", "com_location": "Panchmi hotel signal , Pune, Maharashtra" }, "geometry": { "type": "Point", "coordinates": [ 73.857634, 18.492828 ] } },
{ "type": "Feature", "properties": { "ccd_name": "Trimming of branches in Roadside trees", "com_location": "Janta Nagar, Yerwada Village, Yerawada, Pune, Maharashtra 411006" }, "geometry": { "type": "Point", "coordinates": [ 73.8882149, 18.5505912 ] } },
{ "type": "Feature", "properties": { "ccd_name": "Fallen tree on road", "com_location": "Bunglow No 5, Vishrambaug HSG. Society, Senapati Bapat Road Pune 411016" }, "geometry": { "type": "Point", "coordinates": [ 73.8306176, 18.5337215 ] } },
{ "type": "Feature", "properties": { "ccd_name": "Repairing potholes on Road (HO)", "com_location": "near sarang boys hostel, next to st  residency or ananya heights, nimbalkar nagar, lohegaon, Pune, Maharashtra" }, "geometry": { "type": "Point", "coordinates": [ 73.9147523, 18.6089336 ] } },
{ "type": "Feature", "properties": { "ccd_name": "Others road", "com_location": "Matoshree Old Age Home, Karve Road, Hingne Budrukh, Pune - 411052 (Behind Vittal Mandir & Near Rajaram Bridge)" }, "geometry": { "type": "Point", "coordinates": [ 73.82646, 18.489323 ] } },
{ "type": "Feature", "properties": { "ccd_name": "Sweeping /cleaning the road", "com_location": "Emress court society, sopan baug area, ghorpadi pune 411001" }, "geometry": { "type": "Point", "coordinates": [ 73.9027816, 18.5193301 ] } },
{ "type": "Feature", "properties": { "ccd_name": "Repair/re-sufacing of roads/footpaths", "com_location": "salisbury park main road bothside footpaths , Pune, Maharashtra" }, "geometry": { "type": "Point", "coordinates": [ 73.8765781, 18.4913256 ] } },
{ "type": "Feature", "properties": { "ccd_name": "Repair/re-sufacing of roads/footpaths", "com_location": "Pate Fiesta, near Renault Showroom, Baner, Pune, Maharashtra" }, "geometry": { "type": "Point", "coordinates": [ 73.771105, 18.555134 ] } },
{ "type": "Feature", "properties": { "ccd_name": "Repairing potholes on Road", "com_location": "mitra maMDaLa chauka, naivaidhama ha Tela javaLa rikShA sTa.cMDa, Pune, Maharashtra" }, "geometry": { "type": "Point", "coordinates": [ 73.8786239, 18.5246091 ] } },
{ "type": "Feature", "properties": { "ccd_name": "Trimming of branches in government / public place / road", "com_location": "Om Sai Restaurant and next to Nature ice cream on NDA Pashan Road Bavdhan., Pune, Maharashtra" }, "geometry": { "type": "Point", "coordinates": [ 73.7822777, 18.5141308 ] } },
{ "type": "Feature", "properties": { "ccd_name": "Others road", "com_location": "Infront of shree banglow Lane.no29/b mahervat road ganesh nagar dhayri pune-411041" }, "geometry": { "type": "Point", "coordinates": [ 73.9278896, 18.5540384 ] } },
{ "type": "Feature", "properties": { "ccd_name": "Repairing potholes on Road", "com_location": "   Kamthe patil nagar yevlewadi road D101 ceratek city tilekar nagar kondhwa budruk, Pune, Maharashtra" }, "geometry": { "type": "Point", "coordinates": [ 73.893636, 18.4442326 ] } },
{ "type": "Feature", "properties": { "ccd_name": "Trimming of branches in Roadside trees", "com_location": "Flat No. 36, Ganga Vishnu Heights, Near Natraj Society, Karvenagar, Pune 411052" }, "geometry": { "type": "Point", "coordinates": [ 73.8251846, 18.4942972 ] } },
{ "type": "Feature", "properties": { "ccd_name": "Repair/re-sufacing of roads/footpaths", "com_location": "Press colony yerwada pune6" }, "geometry": { "type": "Point", "coordinates": [ 73.8866665, 18.5619979 ] } },
{ "type": "Feature", "properties": { "ccd_name": "Others road", "com_location": "haDapasara bhAjI maMDaI mena geTa samora va naTarAja pAna shA.cpa samorIla, Pune, Maharashtra" }, "geometry": { "type": "Point", "coordinates": [ 73.8840522, 18.547189 ] } },
{ "type": "Feature", "properties": { "ccd_name": "Repairing potholes on Road", "com_location": "viThThalanagara sosAyaTIsamora,jAMbhuLavADI roDa, mahesha DrAiviMga skUla samora,puNe 46." }, "geometry": { "type": "Point", "coordinates": [ 73.865695, 18.4427252 ] } },
{ "type": "Feature", "properties": { "ccd_name": "Others road", "com_location": "NIBM Post office road to get to Dorabjee mall, Pune, Maharashtra" }, "geometry": { "type": "Point", "coordinates": [ 73.9074274, 18.5685523 ] } },
{ "type": "Feature", "properties": { "ccd_name": "Fallen tree on road", "com_location": "129 S.T.Society Sahakar Nagar No 2 Pune 411009" }, "geometry": { "type": "Point", "coordinates": [ 73.8464854, 18.4857991 ] } },
{ "type": "Feature", "properties": { "ccd_name": "Others road", "com_location": "VimanNagar, Nagar road, Eden Garden corner, Kashmiri souf road\r\n, Pune, Maharashtra" }, "geometry": { "type": "Point", "coordinates": [ 73.9142816, 18.5611663 ] } },
{ "type": "Feature", "properties": { "ccd_name": "Sweeping /cleaning the road", "com_location": " Da . koTaNIsa ( gADIkhAnA ) davAkhAnA , Pune, Maharashtra" }, "geometry": { "type": "Point", "coordinates": [ 73.9227912, 18.5033443 ] } },
{ "type": "Feature", "properties": { "ccd_name": "Repair/re-sufacing of roads/footpaths", "com_location": "prayeja city  to funtime theatre, wadgaon bk, Pune, Maharashtra" }, "geometry": { "type": "Point", "coordinates": [ 73.8169099, 18.4615757 ] } },
{ "type": "Feature", "properties": { "ccd_name": "Others (Road Project(H.O))", "com_location": " At Hadapsar, Pune, Maharashtra" }, "geometry": { "type": "Point", "coordinates": [ 73.9259102, 18.508934 ] } },
{ "type": "Feature", "properties": { "ccd_name": "Others road", "com_location": "mAgarapaTTA yethe sAUtha geTa samora , Pune, Maharashtra" }, "geometry": { "type": "Point", "coordinates": [ 73.9271644, 18.5158057 ] } },
{ "type": "Feature", "properties": { "ccd_name": "Sweeping /cleaning the road", "com_location": "Near Gayatri Society, Ramchandra Nagar, Jyoti Park, Dhankawadi, Pune, Maharashtra 411043" }, "geometry": { "type": "Point", "coordinates": [ 73.8468685, 18.4694041 ] } },
{ "type": "Feature", "properties": { "ccd_name": "Repair/re-sufacing of roads/footpaths", "com_location": "near Lakeshire Building Ambegaon Khurd, Pune, Maharashtra" }, "geometry": { "type": "Point", "coordinates": [ 73.8407653, 18.4330705 ] } },
{ "type": "Feature", "properties": { "ccd_name": "Sweeping /cleaning the road", "com_location": "kumar Primavera, Pune, Maharashtra" }, "geometry": { "type": "Point", "coordinates": [ 73.928083, 18.5412748 ] } },
{ "type": "Feature", "properties": { "ccd_name": "Sweeping /cleaning the road", "com_location": "55/2 Alpana,ganesh khind road,aund pune411007" }, "geometry": { "type": "Point", "coordinates": [ 73.8153701, 18.5578296 ] } },
{ "type": "Feature", "properties": { "ccd_name": "Others (Road Project(H.O))", "com_location": "Near Gajanan maharaj mandir, Kalepadal, Hadapsar \r\nPUNE 411028" }, "geometry": { "type": "Point", "coordinates": [ 73.9456018, 18.4848646 ] } },
{ "type": "Feature", "properties": { "ccd_name": "Repairing potholes on Road", "com_location": "sAsavaDa puNe roDa phurasuMgI phATA" }, "geometry": { "type": "Point", "coordinates": [ 73.9372291, 18.5626928 ] } },
{ "type": "Feature", "properties": { "ccd_name": "Sweeping /cleaning the road", "com_location": "sana klAsika ImArata, lena kramAMka 2C, bAvadhana khurda yethe rAhato. , Pune, Maharashtra" }, "geometry": { "type": "Point", "coordinates": [ 73.8786239, 18.5246091 ] } },
{ "type": "Feature", "properties": { "ccd_name": "Others road", "com_location": "j~nAna prabodhinI mArga., Pune, Maharashtra" }, "geometry": { "type": "Point", "coordinates": [ 73.8456217, 18.5117363 ] } },
{ "type": "Feature", "properties": { "ccd_name": "Others road", "com_location": "Dagdewadi to sant teresa church swargate, Pune, Maharashtra" }, "geometry": { "type": "Point", "coordinates": [ 73.861146, 18.5038835 ] } },
{ "type": "Feature", "properties": { "ccd_name": "Trimming of branches in government / public place / road", "com_location": "dattavADI chauka siMhagaDa roDa, Pune, Maharashtra" }, "geometry": { "type": "Point", "coordinates": [ 73.8384476, 18.4961383 ] } },
{ "type": "Feature", "properties": { "ccd_name": "Trimming of branches in Roadside trees", "com_location": "opp Aswad hotel lane no 1, Pune, Maharashtra" }, "geometry": { "type": "Point", "coordinates": [ 73.8131291, 18.4953011 ] } },
{ "type": "Feature", "properties": { "ccd_name": "Repairing potholes on Road", "com_location": "Sahvas society galli no 1 Karve nagar Pune 52" }, "geometry": { "type": "Point", "coordinates": [ 73.8196792, 18.4962265 ] } },
{ "type": "Feature", "properties": { "ccd_name": "Others road", "com_location": "shukarwarpeth, near sahuchowk, Pune, Maharashtra" }, "geometry": { "type": "Point", "coordinates": [ 73.857967, 18.5092406 ] } },
{ "type": "Feature", "properties": { "ccd_name": "Others road", "com_location": " NIBM Road, Pune, Maharashtra" }, "geometry": { "type": "Point", "coordinates": [ 73.900183, 18.4702556 ] } },
{ "type": "Feature", "properties": { "ccd_name": "Trimming of branches in Roadside trees", "com_location": " 128/7 vyaMkaTesha serenITI, dhAyarI,pune- 411041.\r\nDI esa ke vishva kamAnI javaLa." }, "geometry": { "type": "Point", "coordinates": [ 73.8101999, 18.4471444 ] } },
{ "type": "Feature", "properties": { "ccd_name": "Others road", "com_location": " Location: Shankar sheth road opp PMPML depot, starting point of underground tunnel, Swargate Pune" }, "geometry": { "type": "Point", "coordinates": [ 73.9527661, 18.4844831 ] } },
{ "type": "Feature", "properties": { "ccd_name": "Repairing potholes on Road", "com_location": "chandan nagar market balaji food trader sangharsh chowk, new heighlight dukhan samor, chandan nagar 411012\r\n\r\n, Pune, Maharashtra" }, "geometry": { "type": "Point", "coordinates": [ 73.9306916, 18.5620319 ] } },
{ "type": "Feature", "properties": { "ccd_name": "Sweeping /cleaning the road", "com_location": "Majestique Magnum, Behind Dharmavat Petrol , Pisoli, Pune, Maharashtra" }, "geometry": { "type": "Point", "coordinates": [ 73.9217379, 18.4520079 ] } },
{ "type": "Feature", "properties": { "ccd_name": "Others road", "com_location": "Sun Empire road, Pune, Maharashtra" }, "geometry": { "type": "Point", "coordinates": [ 73.8124175, 18.475973 ] } },
{ "type": "Feature", "properties": { "ccd_name": "Others road", "com_location": "S.no.26 Jambulkar Mala wanawadi Pune 411013." }, "geometry": { "type": "Point", "coordinates": [ 73.9027122, 18.509882 ] } },
{ "type": "Feature", "properties": { "ccd_name": "Repair/re-sufacing of roads/footpaths", "com_location": "*sarvhe naMbara 83 , mhaske vastI ALaMdI roDa ba.Nka  pha baDodA javaLa puNe" }, "geometry": { "type": "Point", "coordinates": [ 73.8950336, 18.6782865 ] } },
{ "type": "Feature", "properties": { "ccd_name": "Repair/re-sufacing of roads/footpaths", "com_location": "Sr no 154 majhi sainik nagar near ram mandir Yerwada Pune 6" }, "geometry": { "type": "Point", "coordinates": [ 73.879711, 18.5529226 ] } },
{ "type": "Feature", "properties": { "ccd_name": "Repair/re-sufacing of roads/footpaths", "com_location": "Near A mart shop, next to navale bridge, near kateel hotel, ambegaon budruk ,pune 411046" }, "geometry": { "type": "Point", "coordinates": [ 73.8236996, 18.459654 ] } },
{ "type": "Feature", "properties": { "ccd_name": "Repair/re-sufacing of roads/footpaths", "com_location": "AnaMda pArka  auMdha yethe  rastyAvarIla, Pune, Maharashtra" }, "geometry": { "type": "Point", "coordinates": [ 73.8786239, 18.5246091 ] } },
{ "type": "Feature", "properties": { "ccd_name": "Repair/re-sufacing of roads/footpaths", "com_location": "lakShmInArAyaNa te paMchavaTI ha Tela(svArageTa) rastA donhI bAjUne, Pune, Maharashtra" }, "geometry": { "type": "Point", "coordinates": [ 73.87822, 18.570672 ] } },
{ "type": "Feature", "properties": { "ccd_name": "Repairing potholes on Road", "com_location": "Gokul nagar chowk paramount soc samor katraj kondhwa rd kondhwa bk pune 411048." }, "geometry": { "type": "Point", "coordinates": [ 73.8745391, 18.4497792 ] } },
{ "type": "Feature", "properties": { "ccd_name": "Others road", "com_location": "Jahangir square, RTO,, Pune, Maharashtra" }, "geometry": { "type": "Point", "coordinates": [ 73.8636116, 18.5304701 ] } },
{ "type": "Feature", "properties": { "ccd_name": "Others road", "com_location": " DP Road ,pune" }, "geometry": { "type": "Point", "coordinates": [ 73.8034923, 18.5021136 ] } },
{ "type": "Feature", "properties": { "ccd_name": "Repair/re-sufacing of roads/footpaths", "com_location": " vADiyA ka leja chaukAtIla , Pune, Maharashtra" }, "geometry": { "type": "Point", "coordinates": [ 73.8786239, 18.5246091 ] } },
{ "type": "Feature", "properties": { "ccd_name": "Trimming of branches in Roadside trees", "com_location": "Plot no 5, Nirmal Baug Society, Parvati, Pune- 411009 Near Muktangan English School" }, "geometry": { "type": "Point", "coordinates": [ 73.8512792, 18.4899465 ] } },
{ "type": "Feature", "properties": { "ccd_name": "Sweeping /cleaning the road", "com_location": "Koregaon Park road Khodad petrol pump to hotel blue diamond, Pune, Maharashtra" }, "geometry": { "type": "Point", "coordinates": [ 73.886309, 18.538199 ] } },
{ "type": "Feature", "properties": { "ccd_name": "Others road", "com_location": "singhagad ward office vadagaon to singhgad clg police station , Pune, Maharashtra" }, "geometry": { "type": "Point", "coordinates": [ 73.8360089, 18.4620069 ] } },
{ "type": "Feature", "properties": { "ccd_name": "Repair/re-sufacing of roads/footpaths", "com_location": "hotel kalinga percestance company mhatre pool , Pune, Maharashtra" }, "geometry": { "type": "Point", "coordinates": [ 73.836519, 18.5046691 ] } },
{ "type": "Feature", "properties": { "ccd_name": "Repair/re-sufacing of roads/footpaths", "com_location": "Lane No 22B, Ganesh Nagar, Dhayari, Pune-4110141" }, "geometry": { "type": "Point", "coordinates": [ 73.8129629, 18.4531133 ] } },
{ "type": "Feature", "properties": { "ccd_name": "Others road", "com_location": " Pune University circle" }, "geometry": { "type": "Point", "coordinates": [ 73.8335364, 18.5390428 ] } },
{ "type": "Feature", "properties": { "ccd_name": "Repairing potholes on Road", "com_location": "Prabhav 13, ota vasti near shani maruti mandir ganesh nagar  pot hole + chamber sunk, Pune, Maharashtra" }, "geometry": { "type": "Point", "coordinates": [ 73.8505741, 18.6303827 ] } },
{ "type": "Feature", "properties": { "ccd_name": "Repair/re-sufacing of roads/footpaths", "com_location": "prabhAga kramAMka 29 patrakAra bhavana rastA navI peTha, Pune, Maharashtra" }, "geometry": { "type": "Point", "coordinates": [ 73.840436, 18.506821 ] } },
{ "type": "Feature", "properties": { "ccd_name": "Others road", "com_location": "siMhagaDa roDa dhAyarIta ThikaThikANI raste, Pune, Maharashtra" }, "geometry": { "type": "Point", "coordinates": [ 73.8123814, 18.4606623 ] } },
{ "type": "Feature", "properties": { "ccd_name": "Others road", "com_location": "PMC colony no 11,CHAL no.41 ,  PMC colony no-11, samoril lane lalalajparay hostel jawal pulawar Pune-411016 ," }, "geometry": { "type": "Point", "coordinates": [ 73.8617237, 18.5922314 ] } },
{ "type": "Feature", "properties": { "ccd_name": "Repair/re-sufacing of roads/footpaths", "com_location": "Mit college road....rambaug colony...kothrud pune 38" }, "geometry": { "type": "Point", "coordinates": [ 73.8160319, 18.5139175 ] } },
{ "type": "Feature", "properties": { "ccd_name": "Repair/re-sufacing of roads/footpaths", "com_location": "Samarth Path in Kothrud , Pune, Maharashtra" }, "geometry": { "type": "Point", "coordinates": [ 73.8256364, 18.494289 ] } },
{ "type": "Feature", "properties": { "ccd_name": "Repair/re-sufacing of roads/footpaths", "com_location": "vimAna nagara yamunAnagara puNe 14 rAmachaMdra viThThala shirasATha patha roDa durgA mAtA maMdira samrATa chauka pina koDa 411014" }, "geometry": { "type": "Point", "coordinates": [ 73.7845569, 18.6660993 ] } },
{ "type": "Feature", "properties": { "ccd_name": "Sweeping /cleaning the road", "com_location": "gallI naMbara e 17 dhAyarI yethe , Pune, Maharashtra" }, "geometry": { "type": "Point", "coordinates": [ 73.8163667, 18.4549244 ] } },
{ "type": "Feature", "properties": { "ccd_name": "Other (Traffic-Planning)", "com_location": "Parin Empire, Highbliss soc. lane, Nahre-Dhayri road, Dhayri, Pune -41" }, "geometry": { "type": "Point", "coordinates": [ 73.8217118, 18.4450112 ] } },
{ "type": "Feature", "properties": { "ccd_name": "Sweeping /cleaning the road", "com_location": "katraj kondhwa road shiv parvati karyalay samor kheteshwar ashram road pune" }, "geometry": { "type": "Point", "coordinates": [ 73.8747982, 18.4498089 ] } },
{ "type": "Feature", "properties": { "ccd_name": "Repair/re-sufacing of roads/footpaths", "com_location": "Hadapsar Industrial Estate,From Tata Consultancy Services untill Shinde vasti The road , Pune, Maharashtra" }, "geometry": { "type": "Point", "coordinates": [ 73.9160571, 18.5111574 ] } },
{ "type": "Feature", "properties": { "ccd_name": "Others road", "com_location": "auMdha madhye , Pune, Maharashtra" }, "geometry": { "type": "Point", "coordinates": [ 73.8185255, 18.4469134 ] } },
{ "type": "Feature", "properties": { "ccd_name": "Repair/re-sufacing of roads/footpaths", "com_location": "Baner Pashan link road, opp. new Passport office.\r\n, Pune, Maharashtra" }, "geometry": { "type": "Point", "coordinates": [ 73.7969897, 18.5526163 ] } },
{ "type": "Feature", "properties": { "ccd_name": "Others road", "com_location": "Bhekrainagar , Pune, Maharashtra" }, "geometry": { "type": "Point", "coordinates": [ 73.9521468, 18.4819581 ] } },
{ "type": "Feature", "properties": { "ccd_name": "Others road", "com_location": "Orchards society to the Clover Hills Plaza mall on NIBM Road, Pune, Maharashtra" }, "geometry": { "type": "Point", "coordinates": [ 73.9014928, 18.4674459 ] } },
{ "type": "Feature", "properties": { "ccd_name": "Repair/re-sufacing of roads/footpaths", "com_location": "svarUpa kA.clanI AnaMdanagara annapUrNA baMgalyA samora siMhagaDa roDa  puNe 51" }, "geometry": { "type": "Point", "coordinates": [ 73.9415104, 18.5042984 ] } },
{ "type": "Feature", "properties": { "ccd_name": "Repairing potholes on Road", "com_location": " lane number 14 khese park dhanori , Pune, Maharashtra" }, "geometry": { "type": "Point", "coordinates": [ 73.9107978, 18.5934504 ] } },
{ "type": "Feature", "properties": { "ccd_name": "Others road", "com_location": "chandan nagar serve no 49/2 shivaraj chowk to nagar road, lukkad washing centre, Pune, Maharashtra" }, "geometry": { "type": "Point", "coordinates": [ 73.9347167, 18.5592383 ] } },
{ "type": "Feature", "properties": { "ccd_name": "Lifiting of debris on road and footpath", "com_location": "lane no 11, tingre nagar, yamah showroom, highway, Pune, Maharashtra" }, "geometry": { "type": "Point", "coordinates": [ 73.8943196, 18.5753543 ] } },
{ "type": "Feature", "properties": { "ccd_name": "Sweeping /cleaning the road", "com_location": "maharShI karve vidyAlaya shejArIla phUTapAtha, karvenagara, Pune, Maharashtra" }, "geometry": { "type": "Point", "coordinates": [ 73.812847800000014, 18.4879635 ] } },
{ "type": "Feature", "properties": { "ccd_name": "Others (Road Project(H.O))", "com_location": "131/2, rAjayoga sosAyaTI. samrATa mitra maMDaLa . vAraje puNe 411058" }, "geometry": { "type": "Point", "coordinates": [ 73.8034485, 18.4854687 ] } },
{ "type": "Feature", "properties": { "ccd_name": "Repair/re-sufacing of roads/footpaths", "com_location": "683 shukravar peth,rameshwar mandir samor  namdev cycle mart. rameshwar chowk 411002, Pune, Maharashtra" }, "geometry": { "type": "Point", "coordinates": [ 73.857203, 18.513395 ] } },
{ "type": "Feature", "properties": { "ccd_name": "Trimming of branches in government / public place / road", "com_location": "Kalyani Nagar river road along metro route , Pune, Maharashtra" }, "geometry": { "type": "Point", "coordinates": [ 73.903951, 18.5462313 ] } },
{ "type": "Feature", "properties": { "ccd_name": "Trimming of branches in Roadside trees", "com_location": "Khdk police line room no. 3,\t, Pune, Maharashtra" }, "geometry": { "type": "Point", "coordinates": [ 73.8450359, 18.5274317 ] } },
{ "type": "Feature", "properties": { "ccd_name": "Others road", "com_location": " f c road divider at Lalit mahal hotel, Pune, Maharashtra" }, "geometry": { "type": "Point", "coordinates": [ 73.8427937, 18.528494 ] } },
{ "type": "Feature", "properties": { "ccd_name": "Others road", "com_location": "BG Shirke Road Magarpatta Hadapsar Pune" }, "geometry": { "type": "Point", "coordinates": [ 73.9252052, 18.5217575 ] } },
{ "type": "Feature", "properties": { "ccd_name": "Repair/re-sufacing of roads/footpaths", "com_location": "pArshva nagara sosAyaTI mahAvIra resiDensI\r\nsvAmI vivekAnaMda gArDana samorIla rastA   koMDhavA budruka yevale vADI prabhAga 41 , Pune, Maharashtra" }, "geometry": { "type": "Point", "coordinates": [ 73.9719549, 18.5121611 ] } },
{ "type": "Feature", "properties": { "ccd_name": "Others road", "com_location": "Swami vivekanand rd bibvewdi nr vidya bank, Pune, Maharashtra" }, "geometry": { "type": "Point", "coordinates": [ 73.863654, 18.471214 ] } },
{ "type": "Feature", "properties": { "ccd_name": "Others road", "com_location": "at Kalubai chok in between Chroma and 93 Avenue when going toward Pune station.  solapur Road. 411028" }, "geometry": { "type": "Point", "coordinates": [ 73.9065028, 18.5061039 ] } },
{ "type": "Feature", "properties": { "ccd_name": "Others (Road Project(H.O))", "com_location": "Shubhanagari society, near Rahul nagar, Pune, Maharashtra" }, "geometry": { "type": "Point", "coordinates": [ 73.8185525, 18.4994904 ] } },
{ "type": "Feature", "properties": { "ccd_name": "Others road", "com_location": "an entrance/ exit road to NIBM Rd (Paradise villas ser no 23 NIBM), Pune, Maharashtra" }, "geometry": { "type": "Point", "coordinates": [ 73.8996156, 18.4694058 ] } },
{ "type": "Feature", "properties": { "ccd_name": "Repairing potholes on Road", "com_location": "bhAMDArakara roDavara hdfc samora, Pune, Maharashtra" }, "geometry": { "type": "Point", "coordinates": [ 73.8219862, 18.4749602 ] } },
{ "type": "Feature", "properties": { "ccd_name": "Repairing potholes on Road (HO)", "com_location": "katraj jain mandir, sachhai mata road, Pune, Maharashtra" }, "geometry": { "type": "Point", "coordinates": [ 73.8535887, 18.4462282 ] } },
{ "type": "Feature", "properties": { "ccd_name": "Others road", "com_location": "nyaymurti waze road behind ghole road ward office at junction of road with apate road, Pune, Maharashtra" }, "geometry": { "type": "Point", "coordinates": [ 73.8442196, 18.523956 ] } },
{ "type": "Feature", "properties": { "ccd_name": "Repair/re-sufacing of roads/footpaths", "com_location": "sarvha no. 16 , shrI kRRipA nivAsa , rAjamAtA jijAU nagara , AMbegAva paThAra ,puNe 46\r\nsahyAdrI complex shejArI , chaMdrAgaNa society javaLa,  chiMtAmaNI j~nAnapITha shALejavaLa." }, "geometry": { "type": "Point", "coordinates": [ 73.8786239, 18.5246091 ] } },
{ "type": "Feature", "properties": { "ccd_name": "Repair/re-sufacing of roads/footpaths", "com_location": "Road bumper infront of ganesh mandir and on the otherside of road in front of earlier reliance fresh , Pune, Maharashtra" }, "geometry": { "type": "Point", "coordinates": [ 73.8786239, 18.5246091 ] } },
{ "type": "Feature", "properties": { "ccd_name": "Others road", "com_location": "246 GANDHI  PETH NEAR APALA MARUTI TEMLE,MAHRANAPRATAP ROAD PUNE 411041.\r\n" }, "geometry": { "type": "Point", "coordinates": [ 73.862981, 18.5241008 ] } },
{ "type": "Feature", "properties": { "ccd_name": "Repair/re-sufacing of roads/footpaths", "com_location": " sarve naMbara 203 sahakAra ka lanI sADesatarAnaLI haDapasara puNe 28  " }, "geometry": { "type": "Point", "coordinates": [ 73.9398818, 18.5009288 ] } },
{ "type": "Feature", "properties": { "ccd_name": "Repair/re-sufacing of roads/footpaths", "com_location": "Kasab lanka late JM kulkarni path in front of karishma society , Pune, Maharashtra" }, "geometry": { "type": "Point", "coordinates": [ 73.8229386, 18.5033094 ] } },
{ "type": "Feature", "properties": { "ccd_name": "Sweeping /cleaning the road", "com_location": "nAgarasaroDa auMdha SBI ATM samora, Pune, Maharashtra" }, "geometry": { "type": "Point", "coordinates": [ 73.8786239, 18.5246091 ] } },
{ "type": "Feature", "properties": { "ccd_name": "Repair/re-sufacing of roads/footpaths", "com_location": "nAMdeDa phATA  gAvAta jANARyA mena roDalA, Pune, Maharashtra" }, "geometry": { "type": "Point", "coordinates": [ 73.8036752, 18.4647402 ] } },
{ "type": "Feature", "properties": { "ccd_name": "Repairing potholes on Road", "com_location": "Warje Highway To Chandni Chowk, Pune, Maharashtra" }, "geometry": { "type": "Point", "coordinates": [ 73.7794093, 18.506527 ] } },
{ "type": "Feature", "properties": { "ccd_name": "Trimming of branches in Roadside trees", "com_location": "Sinhagad road anand nagar 411051 IDBI bank chya baheril zad, Pune, Maharashtra" }, "geometry": { "type": "Point", "coordinates": [ 73.8235723, 18.4783885 ] } },
{ "type": "Feature", "properties": { "ccd_name": "PMC Parking Related Complaint", "com_location": "Shirole Road, Off FC Rd, Deccan Gymkhana, Pune" }, "geometry": { "type": "Point", "coordinates": [ 73.8403265, 18.5201893 ] } },
{ "type": "Feature", "properties": { "ccd_name": "Others road", "com_location": "137 paravati gav shiv lok building bhagvat hall samor 411009\r\n, Pune, Maharashtra" }, "geometry": { "type": "Point", "coordinates": [ 73.8500189, 18.4973487 ] } },
{ "type": "Feature", "properties": { "ccd_name": "Repairing potholes on Road", "com_location": "dhAnori jakAta nAkA (kalyANI ha spiTala) samora, Pune, Maharashtra" }, "geometry": { "type": "Point", "coordinates": [ 73.907548, 18.597132 ] } },
{ "type": "Feature", "properties": { "ccd_name": "Repairing potholes on Road", "com_location": "sijhana ma la kaDUna brija varUna muMDhavA signala javaLa , Pune, Maharashtra" }, "geometry": { "type": "Point", "coordinates": [ 73.8786239, 18.5246091 ] } },
{ "type": "Feature", "properties": { "ccd_name": "Others road", "com_location": "Place corner of Noble hospital Magarpatta road #Pune" }, "geometry": { "type": "Point", "coordinates": [ 73.927137, 18.50502 ] } },
{ "type": "Feature", "properties": { "ccd_name": "Sweeping /cleaning the road", "com_location": "Gurunanak nagar bhawani peth  Pune 2" }, "geometry": { "type": "Point", "coordinates": [ 73.8719645, 18.505349 ] } },
{ "type": "Feature", "properties": { "ccd_name": "Repair/re-sufacing of roads/footpaths", "com_location": "Lane no 14 Gokul nagar dhanori road bhairav nagar pune 15 " }, "geometry": { "type": "Point", "coordinates": [ 73.889784, 18.5889491 ] } },
{ "type": "Feature", "properties": { "ccd_name": "Repairing potholes on Road", "com_location": "A203, Riverdale Heights, Kharadi Shivane road, Kharadi pune 411014" }, "geometry": { "type": "Point", "coordinates": [ 73.9396043, 18.5427057 ] } },
{ "type": "Feature", "properties": { "ccd_name": "Others road", "com_location": "in front of kamble dudh kentra maharastra shasan yerwada, Pune, Maharashtra" }, "geometry": { "type": "Point", "coordinates": [ 73.8492986, 18.5685187 ] } },
{ "type": "Feature", "properties": { "ccd_name": "Repairing potholes on Road", "com_location": "Trejhara pArka pAsUna rAjIva gAMdhI I larniMga skUla chyA chauka,pune." }, "geometry": { "type": "Point", "coordinates": [ 73.8786239, 18.5246091 ] } },
{ "type": "Feature", "properties": { "ccd_name": "PMC Parking Related Complaint", "com_location": "Mahatma Phule Mandai Pune" }, "geometry": { "type": "Point", "coordinates": [ 73.8562871, 18.512928 ] } },
{ "type": "Feature", "properties": { "ccd_name": "Others road", "com_location": " in front of custom office Pune 1" }, "geometry": { "type": "Point", "coordinates": [ 73.8786239, 18.5246091 ] } },
{ "type": "Feature", "properties": { "ccd_name": "Others road", "com_location": "auMdha roDa chikhalavADI mArga.\r\n54 , auMdha roDa rilAyansa phresha mArTa javaLa., Pune, Maharashtra" }, "geometry": { "type": "Point", "coordinates": [ 73.8786239, 18.5246091 ] } },
{ "type": "Feature", "properties": { "ccd_name": "Others road", "com_location": "Bharat jyoti bus stop bibwewadit  near  meera medical, Pune, Maharashtra" }, "geometry": { "type": "Point", "coordinates": [ 73.863315, 18.471778 ] } },
{ "type": "Feature", "properties": { "ccd_name": "Repairing potholes on Road", "com_location": "LMD chowk, Bavdhan, Pune - 411021" }, "geometry": { "type": "Point", "coordinates": [ 73.777771, 18.511031 ] } },
{ "type": "Feature", "properties": { "ccd_name": "Trimming of branches in Roadside trees", "com_location": "Namste sir mi Rahul Awale (Gultekdi Dhole Mala Prabhag no 28), Pune, Maharashtra" }, "geometry": { "type": "Point", "coordinates": [ 73.9449972, 18.4876627 ] } },
{ "type": "Feature", "properties": { "ccd_name": "Repairing potholes on Road", "com_location": "nadikath cha ratsa omkareshwar mandira jvl meera tapri samor,savarkar bhavan chy side balgandarchy poolachy khali nadicha rasta\r\n, Pune, Maharashtra" }, "geometry": { "type": "Point", "coordinates": [ 73.849992, 18.522136 ] } },
{ "type": "Feature", "properties": { "ccd_name": "Fallen tree on road", "com_location": "siMhagaDa rastA viThThala vADI , Pune, Maharashtra" }, "geometry": { "type": "Point", "coordinates": [ 73.9102857, 18.5049557 ] } },
{ "type": "Feature", "properties": { "ccd_name": "Sweeping /cleaning the road", "com_location": " Honda 2weelar showroom,or Shewale washing center\r\nCorporation koti Padmavati, Pune, Maharashtra" }, "geometry": { "type": "Point", "coordinates": [ 73.7703157, 18.5192598 ] } },
{ "type": "Feature", "properties": { "ccd_name": "Others road", "com_location": "In Sayyed Nagar lane no 21/A , Pune, Maharashtra" }, "geometry": { "type": "Point", "coordinates": [ 73.9286758, 18.4856994 ] } },
{ "type": "Feature", "properties": { "ccd_name": "Repairing potholes on Road", "com_location": "Empress court society sopan bag, Pune, Maharashtra" }, "geometry": { "type": "Point", "coordinates": [ 73.9027816, 18.5193301 ] } },
{ "type": "Feature", "properties": { "ccd_name": "Repair/re-sufacing of roads/footpaths", "com_location": "kalmadi school chowk till alankar police chowky, karve nagar, Pune, Maharashtra" }, "geometry": { "type": "Point", "coordinates": [ 73.7844661, 18.5649107 ] } },
{ "type": "Feature", "properties": { "ccd_name": "Trimming of branches in Roadside trees", "com_location": "Flat no-10 ,bhag- 2 sahjanand socity,pune." }, "geometry": { "type": "Point", "coordinates": [ 73.8015967, 18.4951906 ] } },
{ "type": "Feature", "properties": { "ccd_name": "Repair/re-sufacing of roads/footpaths", "com_location": "Magnolia society to till Jogger's Park kalyani nagar , Pune, Maharashtra" }, "geometry": { "type": "Point", "coordinates": [ 73.9024604, 18.5496917 ] } },
{ "type": "Feature", "properties": { "ccd_name": "Repairing potholes on Road", "com_location": "164,ghorapaDe peTha,puNe :-42.\r\nmuniyAkA tAkkIyA ANi ka lanI na.7 " }, "geometry": { "type": "Point", "coordinates": [ 73.8662836, 18.5020349 ] } },
{ "type": "Feature", "properties": { "ccd_name": "Repair/re-sufacing of roads/footpaths", "com_location": "Lajpatray hostel Samor PMC colony jodanara rasta Shivaji HSG society  Pune pin - 411016." }, "geometry": { "type": "Point", "coordinates": [ 73.8356575, 18.5262039 ] } },
{ "type": "Feature", "properties": { "ccd_name": "Repair/re-sufacing of roads/footpaths", "com_location": "shilavihar colony, Pune, Maharashtra" }, "geometry": { "type": "Point", "coordinates": [ 73.8231593, 18.5063932 ] } },
{ "type": "Feature", "properties": { "ccd_name": "Repair and maintenance of Bridge ,Sub-ways & Pedestrian", "com_location": "Sub Way Near Viman nagar Corner BRT Bus Stop, Nagar Road, Pune" }, "geometry": { "type": "Point", "coordinates": [ 73.9372291, 18.5626928 ] } },
{ "type": "Feature", "properties": { "ccd_name": "Repairing potholes on Road", "com_location": "puNe solApUra roDa phAtimA nagara vAnavaDI" }, "geometry": { "type": "Point", "coordinates": [ 73.9052922, 18.5064079 ] } },
{ "type": "Feature", "properties": { "ccd_name": "Repairing potholes on Road", "com_location": " road at Marriot chowk senapati bapat road, Pune, Maharashtra" }, "geometry": { "type": "Point", "coordinates": [ 73.8299152, 18.5304378 ] } },
{ "type": "Feature", "properties": { "ccd_name": "Sweeping /cleaning the road", "com_location": "Benkar Vasti, Dhayari, Pune 41" }, "geometry": { "type": "Point", "coordinates": [ 73.8155368, 18.4424678 ] } },
{ "type": "Feature", "properties": { "ccd_name": "Trimming of branches in Roadside trees", "com_location": "591, Rasta Peth suyog housing society opposite indraprastha shopping complex 3rd floor\r\nPune 411011" }, "geometry": { "type": "Point", "coordinates": [ 73.8643505, 18.5185425 ] } },
{ "type": "Feature", "properties": { "ccd_name": "Trimming of branches in Roadside trees", "com_location": "girijAshaMkara bilDiMga , kA.Ngresa bhavana shejArI , 562/4, shivAjInagara , puNe 411005" }, "geometry": { "type": "Point", "coordinates": [ 73.8477754, 18.530947 ] } },
{ "type": "Feature", "properties": { "ccd_name": "Repairing potholes on Road", "com_location": " near Umarji hospital Balewadi. , Pune, Maharashtra" }, "geometry": { "type": "Point", "coordinates": [ 73.780775, 18.5716854 ] } },
{ "type": "Feature", "properties": { "ccd_name": "Sweeping /cleaning the road", "com_location": "s.n. 110/11/12 sai prasad apartment rajyog society samor near dhande lab baner mhlunge road baner , Pune, Maharashtra" }, "geometry": { "type": "Point", "coordinates": [ 73.7726924, 18.5653979 ] } },
{ "type": "Feature", "properties": { "ccd_name": "Trimming of branches in government / public place / road", "com_location": "1540/41 Sadashiv peth\r\nTilak road \r\nOpposite baba computer \r\nPune 411030" }, "geometry": { "type": "Point", "coordinates": [ 73.846981, 18.5095562 ] } },
{ "type": "Feature", "properties": { "ccd_name": "Others road", "com_location": "OPP KEM hospital Gate no 1\r\n, Pune, Maharashtra" }, "geometry": { "type": "Point", "coordinates": [ 73.8699683, 18.4865346 ] } },
{ "type": "Feature", "properties": { "ccd_name": "Trimming of branches in government / public place / road", "com_location": " jai VARDHAMAN society bibwewadi OPP esic office near lucky bakery pune" }, "geometry": { "type": "Point", "coordinates": [ 73.8594778, 18.4827594 ] } },
{ "type": "Feature", "properties": { "ccd_name": "Others road", "com_location": "Enzigma HQ2 Lane, Croma Junction, Baner Road, Pune - 411045." }, "geometry": { "type": "Point", "coordinates": [ 73.7715893, 18.5658727 ] } },
{ "type": "Feature", "properties": { "ccd_name": "Repair/re-sufacing of roads/footpaths (HO)", "com_location": "Prayeja city to madhukosh, wadgaon budruk. near sinhagad road., Pune, Maharashtra" }, "geometry": { "type": "Point", "coordinates": [ 73.8132107, 18.4645598 ] } },
{ "type": "Feature", "properties": { "ccd_name": "Sweeping /cleaning the road", "com_location": "Natraj colony gondhale nagar hadapsar, Pune, Maharashtra" }, "geometry": { "type": "Point", "coordinates": [ 73.9478961, 18.4937072 ] } },
{ "type": "Feature", "properties": { "ccd_name": "Repairing potholes on Road (HO)", "com_location": "sarve naMbara 45 kAtraja koMDhavA roDa polIsa sTeshana  te TiLekara nagara roDa.. meTro grInsa bilDiMgachyA yethe va bekarsa pa IMTa bekarIchyA yethe, Pune, Maharashtra" }, "geometry": { "type": "Point", "coordinates": [ 73.8786239, 18.5246091 ] } },
{ "type": "Feature", "properties": { "ccd_name": "Repair/re-sufacing of roads/footpaths", "com_location": "Sr. No. 281, Aanand nagar lane 4. Near khalsa dairy, Dhanori jakat naka\r\nLohegaon 411047, Pune, Maharashtra" }, "geometry": { "type": "Point", "coordinates": [ 73.9572448, 18.5933043 ] } },
{ "type": "Feature", "properties": { "ccd_name": "Trimming of branches in Roadside trees", "com_location": "sarve naMbara 101 janavADI janatA vasAhata ,oma sAI maMjU mitra maMDaLA javaLa puNe 411016" }, "geometry": { "type": "Point", "coordinates": [ 73.8252858, 18.5308229 ] } },
{ "type": "Feature", "properties": { "ccd_name": "Others road", "com_location": "Vadgaon sheri,  opposite Fiserv,  opposite Shakti Sport, Nagar road, Pune, Maharashtra" }, "geometry": { "type": "Point", "coordinates": [ 73.9198572, 18.5609151 ] } },
{ "type": "Feature", "properties": { "ccd_name": "Trimming of branches in Roadside trees", "com_location": "SB Road, Dr. babasaheb aambedkar musium To Symbiosis College., Pune, Maharashtra" }, "geometry": { "type": "Point", "coordinates": [ 73.8299521, 18.52425 ] } },
{ "type": "Feature", "properties": { "ccd_name": "PMC Parking Related Complaint", "com_location": "kamalA neharU pArka eraMDavaNe yethe, Pune, Maharashtra" }, "geometry": { "type": "Point", "coordinates": [ 73.8344134, 18.5170408 ] } },
{ "type": "Feature", "properties": { "ccd_name": "Repairing potholes on Road", "com_location": "sadashiv peth dhynprabodhini shala,samor ,purva plaza soc samor 411030, Pune, Maharashtra" }, "geometry": { "type": "Point", "coordinates": [ 73.8455516, 18.5122706 ] } },
{ "type": "Feature", "properties": { "ccd_name": "Trimming of branches in Roadside trees", "com_location": "ROAD NUMBER 9A, KALYANI NAGAR, NEAR ROW HOUSE NUMBER 4 PUNE 411006" }, "geometry": { "type": "Point", "coordinates": [ 73.9043995, 18.5488441 ] } },
{ "type": "Feature", "properties": { "ccd_name": "Repairing potholes on Road", "com_location": "in front of karol bagh hotel on baner pashan link road, Pune, Maharashtra" }, "geometry": { "type": "Point", "coordinates": [ 73.7912895, 18.5491346 ] } },
{ "type": "Feature", "properties": { "ccd_name": "Repairing potholes on Road", "com_location": "Dattakrushnai mangal karyalay Sihagad road pune " }, "geometry": { "type": "Point", "coordinates": [ 73.8188201, 18.4678997 ] } },
{ "type": "Feature", "properties": { "ccd_name": "Repairing potholes on Road", "com_location": ".  Near Smarth pavbhaji center datar complex lane.Near Pegasus health club, Pune, 411052" }, "geometry": { "type": "Point", "coordinates": [ 73.8252667, 18.4936129 ] } },
{ "type": "Feature", "properties": { "ccd_name": "Repair/re-sufacing of roads/footpaths", "com_location": "Sharad Hospital to Prayeja City, Pune, Maharashtra" }, "geometry": { "type": "Point", "coordinates": [ 73.8136013, 18.4666858 ] } },
{ "type": "Feature", "properties": { "ccd_name": "Repair/re-sufacing of roads/footpaths", "com_location": "Tingre nagar lane no 7 pune 32" }, "geometry": { "type": "Point", "coordinates": [ 73.899926, 18.5362482 ] } },
{ "type": "Feature", "properties": { "ccd_name": "Sweeping /cleaning the road", "com_location": "sr. No 46/2/1, sus road, Baner ,\r\n: Abhinuj apartment,\r\nSr. No. 46/2/1, behind Audi showroom , sus road, Baner., Pune, Maharashtra" }, "geometry": { "type": "Point", "coordinates": [ 73.7754846, 18.5630305 ] } },
{ "type": "Feature", "properties": { "ccd_name": "Repairing potholes on Road", "com_location": "jahangir hospital, kothrud , poud road nr metro piller , bank of baroda , Pune, Maharashtra" }, "geometry": { "type": "Point", "coordinates": [ 73.821171, 18.5094636 ] } },
{ "type": "Feature", "properties": { "ccd_name": "Lifiting of debris on road and footpath", "com_location": " Near Gangadham Phase 2 Society Central main Gate, opp. Gagan Galaxy soc. On Sahid Ashok Kamate Marg., Pune, Maharashtra" }, "geometry": { "type": "Point", "coordinates": [ 73.8753306, 18.4802813 ] } },
{ "type": "Feature", "properties": { "ccd_name": "Others road", "com_location": "Shop No-4, 15th, August Chowk, manalwar, Raviwar Peth Rd, Sadanand Nagar, Mangalwar Peth, Kasba Peth, Pune, Maharashtra 411011, India" }, "geometry": { "type": "Point", "coordinates": [ 73.8629428, 18.5225926 ] } },
{ "type": "Feature", "properties": { "ccd_name": "Others road", "com_location": "The road at Mohmmadwadi 100 mtrs from Jarande petrol pump, Pune, Maharashtra" }, "geometry": { "type": "Point", "coordinates": [ 73.9121879, 18.481235 ] } },
{ "type": "Feature", "properties": { "ccd_name": "Others road", "com_location": "851 bhavani peth  nr bharat theater , Pune, Maharashtra" }, "geometry": { "type": "Point", "coordinates": [ 73.8699182, 18.5116565 ] } },
{ "type": "Feature", "properties": { "ccd_name": "Repairing potholes on Road", "com_location": "Parvati sadan apartment nivruttinath society mukund nagar road 1 pune 37. " }, "geometry": { "type": "Point", "coordinates": [ 73.8588336, 18.4942893 ] } },
{ "type": "Feature", "properties": { "ccd_name": "Others road", "com_location": " sa .na. 44 vasaMta nagara chauka  gallI kramAMka 4  vasaMta nagara pauDa roDa kotharuDa puNe 38" }, "geometry": { "type": "Point", "coordinates": [ 73.8786239, 18.5246091 ] } },
{ "type": "Feature", "properties": { "ccd_name": "Repairing potholes on Road", "com_location": "Ganesh Vihar Near canara Bank bibwewadi pune 411037" }, "geometry": { "type": "Point", "coordinates": [ 73.864536, 18.4708247 ] } },
{ "type": "Feature", "properties": { "ccd_name": "Shopkeeper s material on road/footpath", "com_location": "Opp orchid school near state bank OF INDIA BANER., Pune, Maharashtra" }, "geometry": { "type": "Point", "coordinates": [ 73.7741237, 18.5653181 ] } },
{ "type": "Feature", "properties": { "ccd_name": "Lifiting of debris on road and footpath", "com_location": "in front of Shalini Residency, Karvenagar, Pune 411052" }, "geometry": { "type": "Point", "coordinates": [ 73.8221024, 18.4911377 ] } },
{ "type": "Feature", "properties": { "ccd_name": "Sweeping /cleaning the road", "com_location": "Sanjay Park, Pune, Maharashtra" }, "geometry": { "type": "Point", "coordinates": [ 73.9035006, 18.5701841 ] } },
{ "type": "Feature", "properties": { "ccd_name": "Painting of Footpath / Divider / Beautification of Chowk etc", "com_location": "PRABHAT ROAD LANE NO 1 TO LAW COLLEGE ROAD, Pune, Maharashtra" }, "geometry": { "type": "Point", "coordinates": [ 73.8289119, 18.5126003 ] } },
{ "type": "Feature", "properties": { "ccd_name": "Trimming of branches in Roadside trees", "com_location": "sa. na.103,gAMdhInagara masjida gallI yethila yerwada , Pune, Maharashtra" }, "geometry": { "type": "Point", "coordinates": [ 73.89046, 18.548855 ] } },
{ "type": "Feature", "properties": { "ccd_name": "Trimming of branches in government / public place / road", "com_location": "44/381 Gokhale nagar shivaji nagar Pune 16" }, "geometry": { "type": "Point", "coordinates": [ 73.8295042, 18.5347041 ] } },
{ "type": "Feature", "properties": { "ccd_name": "Repairing potholes on Road", "com_location": "Vadgaon bk shivaji putala next to ganpati mandir dhabadi parisar pune." }, "geometry": { "type": "Point", "coordinates": [ 73.8246309, 18.4659813 ] } },
{ "type": "Feature", "properties": { "ccd_name": "Fallen tree on road", "com_location": "at Hill View Society Ambegaon (BK) & one at Relicon Garden jogging track area., Pune, Maharashtra" }, "geometry": { "type": "Point", "coordinates": [ 73.8431492, 18.4491059 ] } },
{ "type": "Feature", "properties": { "ccd_name": "Repairing potholes on Road", "com_location": "Crystal honda showroom next to granite showroom pune 21\r\n" }, "geometry": { "type": "Point", "coordinates": [ 73.7606219, 18.5241913 ] } },
{ "type": "Feature", "properties": { "ccd_name": "Trimming of branches in Roadside trees", "com_location": "mANika nagara sarve naMbara 10 prabhAga kramAMka 6 yeravaDA puNe 6" }, "geometry": { "type": "Point", "coordinates": [ 73.8918659, 18.556235 ] } },
{ "type": "Feature", "properties": { "ccd_name": "Repairing potholes on Road", "com_location": "mahAnagara pAlikechyA shivaNe saMrpaka kAryAlayA  \r\n, Pune, Maharashtra" }, "geometry": { "type": "Point", "coordinates": [ 73.8291389, 18.4489481 ] } },
{ "type": "Feature", "properties": { "ccd_name": "Others road", "com_location": "Near galli no 11 CCD Prabhat road, Pune, Maharashtra" }, "geometry": { "type": "Point", "coordinates": [ 73.8351835, 18.5140933 ] } },
{ "type": "Feature", "properties": { "ccd_name": "Shopkeeper s material on road/footpath", "com_location": "AnaMda nagara signala va durgA ka phI pauDa roDa kotharUDa, Pune, Maharashtra" }, "geometry": { "type": "Point", "coordinates": [ 73.8786239, 18.5246091 ] } },
{ "type": "Feature", "properties": { "ccd_name": "Repair/re-sufacing of roads/footpaths", "com_location": "va rDa naMbara 29 mitra maMDaLa shiva darshana rastA rastyAvarIla, Pune, Maharashtra" }, "geometry": { "type": "Point", "coordinates": [ 73.8786239, 18.5246091 ] } },
{ "type": "Feature", "properties": { "ccd_name": "Repair/re-sufacing of roads/footpaths", "com_location": "DahANUkara ka lanI, gallI 5, sAgara sweets chya bAjUchI rastyA,puNe " }, "geometry": { "type": "Point", "coordinates": [ 73.9201921, 18.5483448 ] } },
{ "type": "Feature", "properties": { "ccd_name": "Repair/re-sufacing of roads/footpaths", "com_location": "AyavhI isTeTa, Pune, Maharashtra" }, "geometry": { "type": "Point", "coordinates": [ 73.8786239, 18.5246091 ] } },
{ "type": "Feature", "properties": { "ccd_name": "Repair/re-sufacing of roads/footpaths", "com_location": "TiLekara nagara madhIla  Hubtown Countywoods , Pune, Maharashtra" }, "geometry": { "type": "Point", "coordinates": [ 73.8841905, 18.4435782 ] } },
{ "type": "Feature", "properties": { "ccd_name": "Others road", "com_location": "bibavevADI rastyAvarIla  HOTEL NIMANTRAN lagata, Pune, Maharashtra" }, "geometry": { "type": "Point", "coordinates": [ 73.9721776, 18.4959358 ] } },
{ "type": "Feature", "properties": { "ccd_name": "Others road", "com_location": "Pallod Farms 3 Baner. Opposite Veritas,pune" }, "geometry": { "type": "Point", "coordinates": [ 73.7956329, 18.5590163 ] } },
{ "type": "Feature", "properties": { "ccd_name": "Repairing potholes on Road", "com_location": "Auroville Apartment,Rohan seher lane.pancard club road.Murkute garden jawal .Baner, Pune  45" }, "geometry": { "type": "Point", "coordinates": [ 73.7739819, 18.5538015 ] } },
{ "type": "Feature", "properties": { "ccd_name": "Others road", "com_location": "front of Gate no 1,2&3 of Forest county , EON Free Zone, Kharadi., Pune, Maharashtra" }, "geometry": { "type": "Point", "coordinates": [ 73.948554, 18.558301 ] } },
{ "type": "Feature", "properties": { "ccd_name": "Trimming of branches in government / public place / road", "com_location": "Ft No. 11, Madhuram Soc., Sitabag Colony, Near Moreshwar Sabhagruh, Above Tejaswini Gas Agency, Sinhagad Road, Dattawadi, Pune   411030" }, "geometry": { "type": "Point", "coordinates": [ 73.8395849, 18.4971079 ] } },
{ "type": "Feature", "properties": { "ccd_name": "Repairing potholes on Road", "com_location": "5 Shakyata apt \n2163/4 Sadashiv Peth \nBehind neelayam theater\nPune 411030" }, "geometry": { "type": "Point", "coordinates": [ 73.8504898, 18.5028837 ] } },
{ "type": "Feature", "properties": { "ccd_name": "Others road", "com_location": "near Om Super Market, Model colony area, Pune, Maharashtra" }, "geometry": { "type": "Point", "coordinates": [ 73.8340346, 18.5328736 ] } },
{ "type": "Feature", "properties": { "ccd_name": "Shopkeeper s material on road/footpath", "com_location": "Ramesh Dyeing, near Gai Ali Chowk, Pune, Maharashtra" }, "geometry": { "type": "Point", "coordinates": [ 73.8521627, 18.5125855 ] } },
{ "type": "Feature", "properties": { "ccd_name": "Repair and maintenance of Bridge ,Sub-ways & Pedestrian", "com_location": "muMbaI puNe hAyave roDakhAlIla natAvADI bhuyArI mArga" }, "geometry": { "type": "Point", "coordinates": [ 73.8786239, 18.5246091 ] } },
{ "type": "Feature", "properties": { "ccd_name": "Others road", "com_location": "survey no 37/15A Sai colony no 10,kalebhorate nagar,kalepadal, hadpasar pune,\r\n" }, "geometry": { "type": "Point", "coordinates": [ 73.938854, 18.4871884 ] } },
{ "type": "Feature", "properties": { "ccd_name": "Others (Road Project(H.O))", "com_location": "FOOTHPATH OUTSIDE VAIBHAV CHAMBERS KARVE ROAD, OPPOSITE JANANTA SAHAKARI BANK, Pune, Maharashtra" }, "geometry": { "type": "Point", "coordinates": [ 73.8390448, 18.5126765 ] } },
{ "type": "Feature", "properties": { "ccd_name": "Trimming of branches in Roadside trees", "com_location": "Sr.No 59/A sukhsagar, sai nagar near yogesh super market shope kondhawa BK 411048, Pune, Maharashtra" }, "geometry": { "type": "Point", "coordinates": [ 73.8694517, 18.4599906 ] } },
{ "type": "Feature", "properties": { "ccd_name": "Repairing potholes on Road", "com_location": "Law college main road, opp. Law college, out side Aboli society, Dabhade path's end at law college road., Pune, Maharashtra" }, "geometry": { "type": "Point", "coordinates": [ 73.8287313, 18.5142405 ] } },
{ "type": "Feature", "properties": { "ccd_name": "Repair/re-sufacing of roads/footpaths", "com_location": "survey number 52, baner , pune 41105" }, "geometry": { "type": "Point", "coordinates": [ 73.7678576, 18.5502818 ] } },
{ "type": "Feature", "properties": { "ccd_name": "Others road", "com_location": "shivAjI nagara lokamaMgala chauka puNe" }, "geometry": { "type": "Point", "coordinates": [ 73.8498588, 18.530263 ] } },
{ "type": "Feature", "properties": { "ccd_name": "Repairing potholes on Road", "com_location": "akhila mAtA ramAI AMbeDakara roDa (tADIvAlA roDa)  bAla mitra taruNa maMDaLa te lokasevA vasAhata , Pune, Maharashtra" }, "geometry": { "type": "Point", "coordinates": [ 73.8786239, 18.5246091 ] } },
{ "type": "Feature", "properties": { "ccd_name": "Trimming of branches in Roadside trees", "com_location": "Sb road, shivAjI hau sosA kaDUna Ashanagara kaDe jAtAnA shramika nagara rikShA sTa.NDa javaLa, Pune, Maharashtra" }, "geometry": { "type": "Point", "coordinates": [ 73.8299152, 18.5304378 ] } },
{ "type": "Feature", "properties": { "ccd_name": "Repair/re-sufacing of roads/footpaths", "com_location": "shivashaktI chauka sUsaroDa, Pune, Maharashtra" }, "geometry": { "type": "Point", "coordinates": [ 73.8786239, 18.5246091 ] } },
{ "type": "Feature", "properties": { "ccd_name": "Repair/re-sufacing of roads/footpaths", "com_location": "Aundh Road near Macdonalds restaurant , Pune, Maharashtra" }, "geometry": { "type": "Point", "coordinates": [ 73.8266073, 18.5627653 ] } },
{ "type": "Feature", "properties": { "ccd_name": "Others road", "com_location": " Sus Road Pashan opp Vardayani, Pune, Maharashtra" }, "geometry": { "type": "Point", "coordinates": [ 73.7844578, 18.5436541 ] } },
{ "type": "Feature", "properties": { "ccd_name": "Repair/re-sufacing of roads/footpaths", "com_location": "63/1/7 Gulmohar Gold coast society rajaram patil nagar Kharadi , Pune, Maharashtra" }, "geometry": { "type": "Point", "coordinates": [ 73.9528356, 18.5594968 ] } },
{ "type": "Feature", "properties": { "ccd_name": "Repairing potholes on Road", "com_location": "Giridhar bhavan chowk, Pune, Maharashtra" }, "geometry": { "type": "Point", "coordinates": [ 73.868862, 18.4925315 ] } },
{ "type": "Feature", "properties": { "ccd_name": "Others road", "com_location": " Kalwad Dhanori Road, Lohegaon, next to sainath super market., Pune, Maharashtra" }, "geometry": { "type": "Point", "coordinates": [ 73.9071863, 18.5936193 ] } },
{ "type": "Feature", "properties": { "ccd_name": "Other (Traffic-Planning)", "com_location": "Salil Apartment, Sanewadi, Aundh, Pune, Maharashtra" }, "geometry": { "type": "Point", "coordinates": [ 73.8056895, 18.5546478 ] } },
{ "type": "Feature", "properties": { "ccd_name": "Others road", "com_location": "Taljai Mandir footpath sahkarnagar war, Pune, Maharashtra" }, "geometry": { "type": "Point", "coordinates": [ 73.8475344, 18.4817238 ] } },
{ "type": "Feature", "properties": { "ccd_name": "Others road", "com_location": "at Sheetal hotel F C road, Pune, Maharashtra" }, "geometry": { "type": "Point", "coordinates": [ 73.8428236, 18.5276106 ] } },
{ "type": "Feature", "properties": { "ccd_name": "Sweeping /cleaning the road", "com_location": "shivtirth nagar near rajgarh society paud road pune " }, "geometry": { "type": "Point", "coordinates": [ 73.7933809, 18.5084698 ] } },
{ "type": "Feature", "properties": { "ccd_name": "Repair/re-sufacing of roads/footpaths", "com_location": "Shreeji lawns, ganga dham-kondhwa road, Pune, Maharashtra" }, "geometry": { "type": "Point", "coordinates": [ 73.8772182, 18.4666417 ] } },
{ "type": "Feature", "properties": { "ccd_name": "Repair/re-sufacing of roads/footpaths", "com_location": " Pushpadevi Dugad Vidyalaya behind Sachaimata Mata mandir ambegaon Khaurd Pune" }, "geometry": { "type": "Point", "coordinates": [ 73.851278400000012, 18.4427892 ] } },
{ "type": "Feature", "properties": { "ccd_name": "Repairing potholes on Road", "com_location": "vedabhavana kaDUna PVPIT(bhugAva) kaDe jANAra rastA , Pune, Maharashtra" }, "geometry": { "type": "Point", "coordinates": [ 73.7507669, 18.5011162 ] } },
{ "type": "Feature", "properties": { "ccd_name": "Repair/re-sufacing of roads/footpaths", "com_location": "Sinhgad Rd,Manik Baug Sr no 18 & 15,Road Opp to Hotel Bramha towards Shivsagar Ph 2 soc wadekar hos , Pune, Maharashtra" }, "geometry": { "type": "Point", "coordinates": [ 73.8221152, 18.4738232 ] } },
{ "type": "Feature", "properties": { "ccd_name": "Repair/re-sufacing of roads/footpaths", "com_location": "Ganjave chowk signal chyA javaLa Thosara paga smashAnabhUmI kaDUna yetAnA kohinUra ArTsa samora , Pune, Maharashtra" }, "geometry": { "type": "Point", "coordinates": [ 73.8786239, 18.5246091 ] } },
{ "type": "Feature", "properties": { "ccd_name": "Repairing potholes on Road", "com_location": "ke ke mArkeTa roDa ahilyAdevI chauka alIkaDe bhAjIvAle basatAta tithe klAsika suparamArkeTa , Pune, Maharashtra" }, "geometry": { "type": "Point", "coordinates": [ 73.8598401, 18.4352681 ] } },
{ "type": "Feature", "properties": { "ccd_name": "Repairing potholes on Road", "com_location": "427, Indira Nagar, Gultekdi, Pune,opp khadda" }, "geometry": { "type": "Point", "coordinates": [ 73.8691622, 18.4941245 ] } },
{ "type": "Feature", "properties": { "ccd_name": "Trimming of branches in government / public place / road", "com_location": " sa.clisabarI pArka mirA sosAyaTI samorIla rastyAvara, Pune, Maharashtra" }, "geometry": { "type": "Point", "coordinates": [ 73.9531189, 18.5646495 ] } },
{ "type": "Feature", "properties": { "ccd_name": "Repairing potholes on Road", "com_location": "Pari company chowk, Dhyari Narhe road pune" }, "geometry": { "type": "Point", "coordinates": [ 73.8216698, 18.4459988 ] } },
{ "type": "Feature", "properties": { "ccd_name": "Trimming of branches in Roadside trees", "com_location": "Dangat Patil Colony, Opp. Abhiruchi Multiplex, Street light pole opposite Vedant Apartment, Pune, Maharashtra" }, "geometry": { "type": "Point", "coordinates": [ 73.809358, 18.678847 ] } },
{ "type": "Feature", "properties": { "ccd_name": "Sweeping /cleaning the road", "com_location": "aMbegAoM budraka sAI bAbA maMdira pa.Dhe  , Pune, Maharashtra" }, "geometry": { "type": "Point", "coordinates": [ 73.8786239, 18.5246091 ] } },
{ "type": "Feature", "properties": { "ccd_name": "Others road", "com_location": " on FC Road and JM road, Pune, Maharashtra" }, "geometry": { "type": "Point", "coordinates": [ 73.8415572, 18.5173124 ] } },
{ "type": "Feature", "properties": { "ccd_name": "Repair/re-sufacing of roads/footpaths", "com_location": " 711 te 715  ghorapaDe peTha seMTa TeresA charcha khabakamALa ALI , Pune, Maharashtra" }, "geometry": { "type": "Point", "coordinates": [ 73.9338651, 18.5595997 ] } },
{ "type": "Feature", "properties": { "ccd_name": "Sweeping /cleaning the road", "com_location": "High Bliss Society, Dhayari, Pune, Maharashtra" }, "geometry": { "type": "Point", "coordinates": [ 73.81666, 18.4487747 ] } },
{ "type": "Feature", "properties": { "ccd_name": "Sweeping /cleaning the road", "com_location": "14th Lane, Bhandarkar Road., Pune, Maharashtra" }, "geometry": { "type": "Point", "coordinates": [ 73.8361462, 18.5180824 ] } },
{ "type": "Feature", "properties": { "ccd_name": "Repairing potholes on Road", "com_location": "ke ke mArkeTa roDa ahilyAdevI chauka alIkaDe , Pune, Maharashtra" }, "geometry": { "type": "Point", "coordinates": [ 73.8598401, 18.4352681 ] } },
{ "type": "Feature", "properties": { "ccd_name": "Sweeping /cleaning the road", "com_location": "Ganesh Baug lane, \r\n(behind Punjab National Bank),\r\nAundh, Pune 411007" }, "geometry": { "type": "Point", "coordinates": [ 73.8047551, 18.5539435 ] } },
{ "type": "Feature", "properties": { "ccd_name": "Others road", "com_location": "Bharat petrol pump in dnyaneshwar paduka chowk f c road, Pune, Maharashtra" }, "geometry": { "type": "Point", "coordinates": [ 73.842534, 18.532693 ] } },
{ "type": "Feature", "properties": { "ccd_name": "Repairing potholes on Road", "com_location": "gaMgAdhAma chaukAtUna lullA nagara brija,netAjI nagara kaDe jAtAnA ka.cnTonmeMTa TolachyA agodara, Pune, Maharashtra" }, "geometry": { "type": "Point", "coordinates": [ 73.88362, 18.4852672 ] } },
{ "type": "Feature", "properties": { "ccd_name": "Trimming of branches in government / public place / road", "com_location": " 992/ 93 lakShmI-pArka/\r\n rAjeMdra nagara puNe 30" }, "geometry": { "type": "Point", "coordinates": [ 73.8429597, 18.5047368 ] } },
{ "type": "Feature", "properties": { "ccd_name": "Sweeping /cleaning the road", "com_location": "Kothari Plaza, Bibwewadi Kondhwa Rd, Lullanagar, Pune, Maharashtra 411040" }, "geometry": { "type": "Point", "coordinates": [ 73.888146, 18.4856604 ] } },
{ "type": "Feature", "properties": { "ccd_name": "Repair/re-sufacing of roads/footpaths", "com_location": "laxminagar, dahanukar colony , galli no 4A, Pune, Maharashtra" }, "geometry": { "type": "Point", "coordinates": [ 73.8110314, 18.4956333 ] } },
{ "type": "Feature", "properties": { "ccd_name": "Trimming of branches in Roadside trees", "com_location": "451 ba budhavAra peTha tapakIra gallI , puNe 411002" }, "geometry": { "type": "Point", "coordinates": [ 73.8604134, 18.5131751 ] } },
{ "type": "Feature", "properties": { "ccd_name": "Fallen tree on road", "com_location": "lane 9 a kalyani nagar pune " }, "geometry": { "type": "Point", "coordinates": [ 73.8988815, 18.5482903 ] } },
{ "type": "Feature", "properties": { "ccd_name": "Repair/re-sufacing of roads/footpaths", "com_location": "DLRC school in Sus area , Pune, Maharashtra" }, "geometry": { "type": "Point", "coordinates": [ 73.7613094, 18.5493782 ] } },
{ "type": "Feature", "properties": { "ccd_name": "Repair/re-sufacing of roads/footpaths", "com_location": "Red DP at Urmila society , oppo. siddihivinayak medical , Dhankawadi, Pune 43" }, "geometry": { "type": "Point", "coordinates": [ 73.853117, 18.4670681 ] } },
{ "type": "Feature", "properties": { "ccd_name": "Trimming of branches in Roadside trees", "com_location": "Peru gate police chowki peru gate bhave high school opp sadashiv peth, Pune, Maharashtra" }, "geometry": { "type": "Point", "coordinates": [ 73.8487835, 18.5114632 ] } },
{ "type": "Feature", "properties": { "ccd_name": "Repair/re-sufacing of roads/footpaths", "com_location": "ghorapaDI peTha 410 Arogya koTI te dhobI ghATa rastyAvarIla , Pune, Maharashtra" }, "geometry": { "type": "Point", "coordinates": [ 73.8168295, 18.4656064 ] } },
{ "type": "Feature", "properties": { "ccd_name": "Repair/re-sufacing of roads/footpaths", "com_location": "Lane 3 Shinde Nagar near Maratha Mandir off NDA Pashan Road Bavdhan , Pune, Maharashtra" }, "geometry": { "type": "Point", "coordinates": [ 73.781295, 18.5110199 ] } },
{ "type": "Feature", "properties": { "ccd_name": "Repair/re-sufacing of roads/footpaths", "com_location": "Dolphin chauk , upper to Chimtamani nagar, bibvewadi Pune. " }, "geometry": { "type": "Point", "coordinates": [ 73.8661633, 18.4663131 ] } },
{ "type": "Feature", "properties": { "ccd_name": "Others road", "com_location": "In front of UKO bank kothrud gawthan , Pune, Maharashtra" }, "geometry": { "type": "Point", "coordinates": [ 73.8140327, 18.5019393 ] } },
{ "type": "Feature", "properties": { "ccd_name": "Repair/re-sufacing of roads/footpaths", "com_location": "lb shastri road navi peth tilak bhavan pune " }, "geometry": { "type": "Point", "coordinates": [ 73.844237, 18.5074848 ] } },
{ "type": "Feature", "properties": { "ccd_name": "Repairing potholes on Road", "com_location": "yeravaDA prabhAga kraM 6 parNa kuTI chauka yethe brIja jANyAsAThI iMTarI karaNyAchyA agodara roDavaratI , Pune, Maharashtra" }, "geometry": { "type": "Point", "coordinates": [ 73.7871664, 18.4452538 ] } },
{ "type": "Feature", "properties": { "ccd_name": "Repair and maintenance of Bridge ,Sub-ways & Pedestrian", "com_location": "nagara roDa chaMdananagara puNe 14" }, "geometry": { "type": "Point", "coordinates": [ 73.9119182, 18.5595501 ] } },
{ "type": "Feature", "properties": { "ccd_name": "Sweeping /cleaning the road", "com_location": "Sr 34/2Borate vasti near Sai park socity lane no 4 kharadi road pune 14" }, "geometry": { "type": "Point", "coordinates": [ 73.9316388, 18.5540567 ] } },
{ "type": "Feature", "properties": { "ccd_name": "Repair/re-sufacing of roads/footpaths", "com_location": "7TH HEAVEN SOCIETY Dhanori. Off to porwal road, Near Ganga New Town, Pune, Maharashtra" }, "geometry": { "type": "Point", "coordinates": [ 73.904808, 18.6041963 ] } },
{ "type": "Feature", "properties": { "ccd_name": "Others road", "com_location": "Shamrat Ashok Vidya Mandir 117B  SynandaJadhav H.M., Pune, Maharashtra" }, "geometry": { "type": "Point", "coordinates": [ 73.8156099, 18.4909768 ] } },
{ "type": "Feature", "properties": { "ccd_name": "Repair/re-sufacing of roads/footpaths", "com_location": "Sai siddhi chowk ambegaon bk, Pune, Maharashtra" }, "geometry": { "type": "Point", "coordinates": [ 73.842437, 18.462668 ] } },
{ "type": "Feature", "properties": { "ccd_name": "Trimming of branches in government / public place / road", "com_location": "Row House No 24, Omega Residency.,\r\nLa Ratan Lane, Opp KFC Baner Main Road,\r\nBaner , Pune 411045" }, "geometry": { "type": "Point", "coordinates": [ 73.7744623, 18.5645173 ] } },
{ "type": "Feature", "properties": { "ccd_name": "Repair/re-sufacing of roads/footpaths", "com_location": "yeravaDA prabhAga kraM 6 yeravaDA gADItaLa chauka kAbaMLe dUdha kedraM samorIla roDavara, Pune, Maharashtra" }, "geometry": { "type": "Point", "coordinates": [ 73.8918659, 18.556235 ] } },
{ "type": "Feature", "properties": { "ccd_name": "Sweeping /cleaning the road", "com_location": "SR NO 585 SALISBURY PARK DARSHANI CHOUK MARKET YARD PUNE -411037" }, "geometry": { "type": "Point", "coordinates": [ 73.8761489, 18.4870481 ] } },
{ "type": "Feature", "properties": { "ccd_name": "Others road", "com_location": "Tarun Vikas Mandal Chowk (Ganapati Mandir Chowk), Dhole Patil Road, Pune." }, "geometry": { "type": "Point", "coordinates": [ 73.8761362, 18.535033 ] } },
{ "type": "Feature", "properties": { "ccd_name": "Others road", "com_location": "katraj to navle service road , Pune, Maharashtra" }, "geometry": { "type": "Point", "coordinates": [ 73.8052656, 18.4794949 ] } },
{ "type": "Feature", "properties": { "ccd_name": "Sweeping /cleaning the road", "com_location": "Vadgaon sheri, maruti nagar lane no 3, Pune, Maharashtra" }, "geometry": { "type": "Point", "coordinates": [ 73.9295526, 18.5453642 ] } },
{ "type": "Feature", "properties": { "ccd_name": "Sweeping /cleaning the road", "com_location": "Gangadham Lullanagar Road, from Ravi Raj CRU building at New Era Society to Jyoti Ashram, opposite Parsi Colony. , Pune, Maharashtra" }, "geometry": { "type": "Point", "coordinates": [ 73.8828774, 18.4844525 ] } },
{ "type": "Feature", "properties": { "ccd_name": "Sweeping /cleaning the road", "com_location": "Lane na A17 PRM Divine Prm Infra Project By Pritam Mandlecha Dhayari, Pune" }, "geometry": { "type": "Point", "coordinates": [ 73.8094568, 18.4549578 ] } },
{ "type": "Feature", "properties": { "ccd_name": "Others road", "com_location": "Abhimanshree road., Pune, Maharashtra" }, "geometry": { "type": "Point", "coordinates": [ 73.8176451, 18.5458696 ] } },
{ "type": "Feature", "properties": { "ccd_name": "Others road", "com_location": "in front of old RTO Office Pune 1" }, "geometry": { "type": "Point", "coordinates": [ 73.8636116, 18.5304701 ] } },
{ "type": "Feature", "properties": { "ccd_name": "Trimming of branches in government / public place / road", "com_location": "Disha Residency Co-Op Hsg. Society Ltd.\r\nS-45/1/2/7 45/1/4/3 Near   Dnyaneshwarngr\r\nKondhwa K. Pune 411048" }, "geometry": { "type": "Point", "coordinates": [ 73.8889779, 18.4695088 ] } },
{ "type": "Feature", "properties": { "ccd_name": "Repairing potholes on Road", "com_location": "University chowk,baner road,pune." }, "geometry": { "type": "Point", "coordinates": [ 73.8267993, 18.542403 ] } },
{ "type": "Feature", "properties": { "ccd_name": "Others road", "com_location": " from income tax office to vijay sales, sadhu vaswani crossing Pune 1" }, "geometry": { "type": "Point", "coordinates": [ 73.8769106, 18.5268358 ] } },