{
"type": "FeatureCollection",
"name": "2021_Health",
"crs": { "type": "name", "properties": { "name": "urn:ogc:def:crs:OGC:1.3:CRS84" } },
"features": [
{ "type": "Feature", "properties": { "ccd_name": "Voilent / Suspected Rabies dogs", "com_location": "13 tadiwala road vishwajit tarun mandal chodhari shop shejari., Pune, Maharashtra" }, "geometry": { "type": "Point", "coordinates": [ 73.873548, 18.5368902 ] } },
{ "type": "Feature", "properties": { "ccd_name": "Others (Health H.O.)", "com_location": " in Gera Emerald City Baner., Pune, Maharashtra" }, "geometry": { "type": "Point", "coordinates": [ 73.777395, 18.560847 ] } },
{ "type": "Feature", "properties": { "ccd_name": "Others (Health H.O.)", "com_location": "Pashan-Sutarwadi link road.\r\n, Pune, Maharashtra" }, "geometry": { "type": "Point", "coordinates": [ 73.7847851, 18.540875 ] } },
{ "type": "Feature", "properties": { "ccd_name": "Voilent / Suspected Rabies dogs", "com_location": " Bhau Patil Road Bopodi, Pune." }, "geometry": { "type": "Point", "coordinates": [ 73.8322962, 18.5688266 ] } },
{ "type": "Feature", "properties": { "ccd_name": "Stray Dogs - Unsterilised Dogs", "com_location": "Sagar Heights Co.op.soc, Ambegaon Bk. Pune 411046. Near Pristine pacific  building." }, "geometry": { "type": "Point", "coordinates": [ 73.8416664, 18.45179 ] } },
{ "type": "Feature", "properties": { "ccd_name": "other (Stray Dogs)", "com_location": "Address -  Chaitrangan society , sukhsagar nagar , near lake town , katraj , Pune 411046" }, "geometry": { "type": "Point", "coordinates": [ 73.8672739, 18.4551213 ] } },
{ "type": "Feature", "properties": { "ccd_name": "Stray Dogs - Unsterilised Dogs", "com_location": "Seventh-Day Adventist mission campus.\r\nSalisbury park \r\nPune 411037" }, "geometry": { "type": "Point", "coordinates": [ 73.87572, 18.4926135 ] } },
{ "type": "Feature", "properties": { "ccd_name": "Diseases like Swine Flu, Dengue, Chikungunya etc", "com_location": "Godrej Infinity Rd,Sharad Nagar,Mundhwa,Pune,Maharashtra 411036,India" }, "geometry": { "type": "Point", "coordinates": [ 73.94661, 18.5373893 ] } },
{ "type": "Feature", "properties": { "ccd_name": "Stray Dogs - Unsterilised Dogs", "com_location": "Serum company opposite gate no 4A, Pune, Maharashtra" }, "geometry": { "type": "Point", "coordinates": [ 73.9442388, 18.5020025 ] } },
{ "type": "Feature", "properties": { "ccd_name": "Treatment for Injured / Sick Dogs", "com_location": "Dhanori tushar park Vead apartment near goodwill apartment , Pune, Maharashtra" }, "geometry": { "type": "Point", "coordinates": [ 73.9044984, 18.5977261 ] } },
{ "type": "Feature", "properties": { "ccd_name": "Stray Dogs - Unsterilised Dogs", "com_location": "prathamesha pArka sosAyaTI , chAkaNa karmALA ma.cksa lena,  gArDana  vilA  gArDana  ,avenyU  vilA  vana bAlevADI phATA, Pune, Maharashtra" }, "geometry": { "type": "Point", "coordinates": [ 73.7838215, 18.5645048 ] } },
{ "type": "Feature", "properties": { "ccd_name": "other (Stray Dogs)", "com_location": "Muktai agall chase sai ,ganesh nagar,bhockel road no 7,near durga mata mandir,pune411031." }, "geometry": { "type": "Point", "coordinates": [ 73.8786239, 18.5246091 ] } },
{ "type": "Feature", "properties": { "ccd_name": "Others (Health H.O.)", "com_location": " Sangam Solitaire Kothrud Near Joshi railway museum, Pune, Maharashtra" }, "geometry": { "type": "Point", "coordinates": [ 73.8223322, 18.5020914 ] } },
{ "type": "Feature", "properties": { "ccd_name": "hyacinth at river", "com_location": "Sai Heritage, Aundh, Pune" }, "geometry": { "type": "Point", "coordinates": [ 73.8009638, 18.5652436 ] } },
{ "type": "Feature", "properties": { "ccd_name": "Stray Dogs - Unsterilised Dogs", "com_location": "malika soc, bhosale nagr ics colony, univercity road , Pune, Maharashtra" }, "geometry": { "type": "Point", "coordinates": [ 73.8416287, 18.5330098 ] } },
{ "type": "Feature", "properties": { "ccd_name": "Voilent / Suspected Rabies dogs", "com_location": "vadgaon sheri malhar nagar near bhaji mandai , Pune, Maharashtra" }, "geometry": { "type": "Point", "coordinates": [ 73.9231688, 18.5439542 ] } },
{ "type": "Feature", "properties": { "ccd_name": "Stray Dogs - Unsterilised Dogs", "com_location": "Shivsagar City, ph. 1,Suncity, Anandnagar, Pune-51. " }, "geometry": { "type": "Point", "coordinates": [ 73.8190926, 18.4756453 ] } },
{ "type": "Feature", "properties": { "ccd_name": "other (Stray Dogs)", "com_location": "hadpsar fursungi bekrai bhosle vilage unit plaza nrar achal plaza, Pune, Maharashtra" }, "geometry": { "type": "Point", "coordinates": [ 73.9580953, 18.4827527 ] } },
{ "type": "Feature", "properties": { "ccd_name": "Voilent / Suspected Rabies dogs", "com_location": "from Ujjwal terraces, lane B 20, Raikarnagar, Dhayari, Pune, Maharashtra" }, "geometry": { "type": "Point", "coordinates": [ 73.8123175, 18.4547552 ] } },
{ "type": "Feature", "properties": { "ccd_name": "hyacinth at river", "com_location": "Aundh, Pune, Maharashtra" }, "geometry": { "type": "Point", "coordinates": [ 73.8031335, 18.5601649 ] } },
{ "type": "Feature", "properties": { "ccd_name": "Stray Dogs - Unsterilised Dogs", "com_location": "Vidhate wasti vijay nagar lane near DAV public school , Pune, Maharashtra" }, "geometry": { "type": "Point", "coordinates": [ 73.8038028, 18.5600007 ] } },
{ "type": "Feature", "properties": { "ccd_name": "Others (Health H.O.)", "com_location": "Shree Apartment, Shinde Nagar, Lane no 3, Behind Shinde Complex, Bavdhan Kh, Pune411021" }, "geometry": { "type": "Point", "coordinates": [ 73.7817841, 18.5127782 ] } },
{ "type": "Feature", "properties": { "ccd_name": "Related to PMC Hospital, Treatment and Staff", "com_location": "rAjIva gAMdhI ha spiTala yeravaDA., Pune, Maharashtra" }, "geometry": { "type": "Point", "coordinates": [ 73.879711, 18.5529226 ] } },
{ "type": "Feature", "properties": { "ccd_name": "Others (Health H.O.)", "com_location": "Sr no-28, plot no-11, house no-200, balkrishna housing society, akshay nagar, near bsnl telephone exchange, Dhankawadi, Pune-411043" }, "geometry": { "type": "Point", "coordinates": [ 73.8544034, 18.4612406 ] } },
{ "type": "Feature", "properties": { "ccd_name": "other (Stray Dogs)", "com_location": "S, 289, Nilkhant Building DY Patil Knowledge City Rd, Lohegaon, Pune, Maharashtra 411047" }, "geometry": { "type": "Point", "coordinates": [ 73.9104924, 18.6177257 ] } },
{ "type": "Feature", "properties": { "ccd_name": "Others (Health H.O.)", "com_location": "at Sant tukaram school vaccination centre, baner pashan link road ,, Pune, Maharashtra" }, "geometry": { "type": "Point", "coordinates": [ 73.7920022, 18.5491135 ] } },
{ "type": "Feature", "properties": { "ccd_name": "Stray Dogs - Unsterilised Dogs", "com_location": "Labour Camp,\r\nBehind New Scientist Hostel,\r\nArmament Estate - Pashan 411021, Pune, Maharashtra" }, "geometry": { "type": "Point", "coordinates": [ 73.790072, 18.5301363 ] } },
{ "type": "Feature", "properties": { "ccd_name": "Stray Dogs - Unsterilised Dogs", "com_location": "lane no 3 ganpati housing society tukaram nagar kharadi pune 14" }, "geometry": { "type": "Point", "coordinates": [ 73.9270841, 18.5504732 ] } },
{ "type": "Feature", "properties": { "ccd_name": "Voilent / Suspected Rabies dogs", "com_location": "near Park express society Balewdi high street pune" }, "geometry": { "type": "Point", "coordinates": [ 73.7771795, 18.5717947 ] } },
{ "type": "Feature", "properties": { "ccd_name": "Voilent / Suspected Rabies dogs", "com_location": "Bunglow no 9 backside \r\nShivaji housing society \r\nMountain view society road \r\nBehind Jw Marriott hotel \r\nPune 411016" }, "geometry": { "type": "Point", "coordinates": [ 73.8279381, 18.5309296 ] } },
{ "type": "Feature", "properties": { "ccd_name": "other (Stray Dogs)", "com_location": "munjava vasti, tingre nagar l,ane-13,arkepuram society pune." }, "geometry": { "type": "Point", "coordinates": [ 73.8953938, 18.5805411 ] } },
{ "type": "Feature", "properties": { "ccd_name": "Stray Dogs - Unsterilised Dogs", "com_location": "Plot no 20 savali society near MIT college Kothrud Pune 38" }, "geometry": { "type": "Point", "coordinates": [ 73.8160319, 18.5139175 ] } },
{ "type": "Feature", "properties": { "ccd_name": "Voilent / Suspected Rabies dogs", "com_location": "Narhe Manaji Nagar Ganpati Narhe Pune" }, "geometry": { "type": "Point", "coordinates": [ 73.8239226, 18.4527749 ] } },
{ "type": "Feature", "properties": { "ccd_name": "Stray Dogs - Unsterilised Dogs", "com_location": "sarve naMbara 294 niMbALakara nagara lohagAva DI vAya pATIla ka leja roDa 411047, Pune, Maharashtra" }, "geometry": { "type": "Point", "coordinates": [ 73.9153682, 18.6087064 ] } },
{ "type": "Feature", "properties": { "ccd_name": "other (Stray Dogs)", "com_location": "Dhanori,jakat nakka torwal road,ajinkay d.ypatil college gate,pune." }, "geometry": { "type": "Point", "coordinates": [ 73.907548, 18.597132 ] } },
{ "type": "Feature", "properties": { "ccd_name": "Stray Dogs - Unsterilised Dogs", "com_location": "mundhwa keshav nagar lonkar vasti pune " }, "geometry": { "type": "Point", "coordinates": [ 73.9495064, 18.5289752 ] } },
{ "type": "Feature", "properties": { "ccd_name": "Stray Dogs - Unsterilised Dogs", "com_location": " near Khalsa Sweets & Sujata Mastani corner.. in Viman Nagar , Nr Dutta Mandir Chowk, Pune, Maharashtra" }, "geometry": { "type": "Point", "coordinates": [ 73.9149934, 18.5655562 ] } },
{ "type": "Feature", "properties": { "ccd_name": "Others (Health H.O.)", "com_location": "House 600 survey 5/1  glis ganga society nda road warje pune 411058" }, "geometry": { "type": "Point", "coordinates": [ 73.8436328, 18.4873678 ] } },
{ "type": "Feature", "properties": { "ccd_name": "Stray Dogs - Unsterilised Dogs", "com_location": "sihagaDa kA.Nleja vaDagAva ajikyatArA sosAyaTI, Pune, Maharashtra" }, "geometry": { "type": "Point", "coordinates": [ 73.9531189, 18.5646495 ] } },
{ "type": "Feature", "properties": { "ccd_name": "Voilent / Suspected Rabies dogs", "com_location": "adhyakSha saritA nagarI pheja 2, Pune, Maharashtra" }, "geometry": { "type": "Point", "coordinates": [ 73.8323338, 18.492988 ] } },
{ "type": "Feature", "properties": { "ccd_name": "Stray Dogs - Unsterilised Dogs", "com_location": "Anjani nagar lane no 4  katraj pune 46" }, "geometry": { "type": "Point", "coordinates": [ 73.8583992, 18.4354017 ] } },
{ "type": "Feature", "properties": { "ccd_name": "Others (Health H.O.)", "com_location": "open plot between Om Sai Restaurant and Natural Ice-cream on NDA Pashan Road Bavdhan and inside lane 3 B Shinde Nagar. , Pune, Maharashtra" }, "geometry": { "type": "Point", "coordinates": [ 73.7822777, 18.5141308 ] } },
{ "type": "Feature", "properties": { "ccd_name": "Others (Health H.O.)", "com_location": "Dhanori bio Gas plant, Dhanori, Pune-411015" }, "geometry": { "type": "Point", "coordinates": [ 73.896851, 18.5967587 ] } },
{ "type": "Feature", "properties": { "ccd_name": "Stray Dogs - Unsterilised Dogs", "com_location": "Dodke Plaza , Near Raghavdas Vidyalaya , Warje , Pune 411058." }, "geometry": { "type": "Point", "coordinates": [ 73.7935543, 18.4855655 ] } },
{ "type": "Feature", "properties": { "ccd_name": "Others (Health H.O.)", "com_location": "Flat-14, B-1/4, Gauritanayam, Yashodhan Society, Chintamani Nagar-2, Opp. Roopali Veg Hotel, Bibwewadi, Pune-37" }, "geometry": { "type": "Point", "coordinates": [ 73.8672672, 18.4655986 ] } },
{ "type": "Feature", "properties": { "ccd_name": "Voilent / Suspected Rabies dogs", "com_location": "Internal Road Kumar Primavera \r\nSainath Nagar, Pune, Maharashtra" }, "geometry": { "type": "Point", "coordinates": [ 73.9280856, 18.5396706 ] } },
{ "type": "Feature", "properties": { "ccd_name": "Others (Health H.O.)", "com_location": "nandadeep society, pune satara road, bibwewadi pune 411037" }, "geometry": { "type": "Point", "coordinates": [ 73.865486, 18.470614 ] } },
{ "type": "Feature", "properties": { "ccd_name": "Stray Dogs - Unsterilised Dogs", "com_location": "Silver dale apartment in Yogi Park.aundh baner ward , Pune, Maharashtra" }, "geometry": { "type": "Point", "coordinates": [ 73.7757738, 18.5512493 ] } },
{ "type": "Feature", "properties": { "ccd_name": "Stray Dogs - Unsterilised Dogs", "com_location": "marvel arco malwadi road near amanora mall  hadapsar pune 28" }, "geometry": { "type": "Point", "coordinates": [ 73.9376354, 18.5172541 ] } },
{ "type": "Feature", "properties": { "ccd_name": "other (Stray Dogs)", "com_location": "S no 94/Rajva Gandhi colony Binawat nagar Near Mohammad wadi police station tarawade wasti Hadapsar, Pune, Maharashtra" }, "geometry": { "type": "Point", "coordinates": [ 73.9268939, 18.475396 ] } },
{ "type": "Feature", "properties": { "ccd_name": "Others (Health H.O.)", "com_location": "Late Pruthak Barate Diapencery Gov. Hospital Warje., Pune, Maharashtra" }, "geometry": { "type": "Point", "coordinates": [ 73.7974284, 18.4751763 ] } },
{ "type": "Feature", "properties": { "ccd_name": "Others (Health H.O.)", "com_location": "12/5 ashirwad  bunglow gauri shankar housing society padmavati pune 411046" }, "geometry": { "type": "Point", "coordinates": [ 73.8683541, 18.4932347 ] } },
{ "type": "Feature", "properties": { "ccd_name": "Others (Health H.O.)", "com_location": "Madhav classic apt, flt no -8, sanewadi aundh pune " }, "geometry": { "type": "Point", "coordinates": [ 73.8054445, 18.5546338 ] } },
{ "type": "Feature", "properties": { "ccd_name": "other (Stray Dogs)", "com_location": "Sr no 13 ambedkar nagar,galli 4/5,pune 411048." }, "geometry": { "type": "Point", "coordinates": [ 73.888964, 18.4571297 ] } },
{ "type": "Feature", "properties": { "ccd_name": "Others (Health H.O.)", "com_location": "Near Waterbay Society, River Side, Wadgaonsheri, Pune-411014." }, "geometry": { "type": "Point", "coordinates": [ 73.9224635, 18.5411877 ] } },
{ "type": "Feature", "properties": { "ccd_name": "Stray Dogs - Unsterilised Dogs", "com_location": "Karve nagar hingne home colony metro medical, Pune, Maharashtra" }, "geometry": { "type": "Point", "coordinates": [ 73.8130533, 18.4885195 ] } },
{ "type": "Feature", "properties": { "ccd_name": "other (Stray Dogs)", "com_location": "resident of Hills and dales society in Undri. , Pune, Maharashtra" }, "geometry": { "type": "Point", "coordinates": [ 73.908793, 18.4616418 ] } },
{ "type": "Feature", "properties": { "ccd_name": "Others (Health H.O.)", "com_location": "va rDa kramAMka 8 auMdha bopoDI prabhAga puNe mahAnagarapAlikA yA bhAgAta nadI vara " }, "geometry": { "type": "Point", "coordinates": [ 73.8536109, 18.5233716 ] } },
{ "type": "Feature", "properties": { "ccd_name": "Others (Health H.O.)", "com_location": " Bopodi, Pune (River: Mula)" }, "geometry": { "type": "Point", "coordinates": [ 73.8350831, 18.5709235 ] } },
{ "type": "Feature", "properties": { "ccd_name": "Others (Health H.O.)", "com_location": "in front of Acolade Society Kharadi..., Pune, Maharashtra" }, "geometry": { "type": "Point", "coordinates": [ 73.9335504, 18.5470473 ] } },
{ "type": "Feature", "properties": { "ccd_name": "Stray Dogs - Unsterilised Dogs", "com_location": "Mount and glorry society kharadi , Pune, Maharashtra" }, "geometry": { "type": "Point", "coordinates": [ 73.9486896, 18.5617595 ] } },
{ "type": "Feature", "properties": { "ccd_name": "Stray Dogs - Unsterilised Dogs", "com_location": "Audumbar colony B Wing, Karve Nagar , pune " }, "geometry": { "type": "Point", "coordinates": [ 73.8140608, 18.4837321 ] } },
{ "type": "Feature", "properties": { "ccd_name": "Voilent / Suspected Rabies dogs", "com_location": "227 maMgaLavAra peTha junA bAjAra vANyAchI chALa puNe " }, "geometry": { "type": "Point", "coordinates": [ 73.862116, 18.5265378 ] } },
{ "type": "Feature", "properties": { "ccd_name": "hyacinth at river", "com_location": " Bhau patil road , Bopodi., Pune, Maharashtra" }, "geometry": { "type": "Point", "coordinates": [ 73.8322962, 18.5688266 ] } },
{ "type": "Feature", "properties": { "ccd_name": "Others (Health H.O.)", "com_location": "brook land insignia row hause no 9 near orchid school undri pune 411060" }, "geometry": { "type": "Point", "coordinates": [ 73.911772, 18.4523948 ] } },
{ "type": "Feature", "properties": { "ccd_name": "other (Stray Dogs)", "com_location": "nikash lawnch society sus road pashan balaji chowk,pune" }, "geometry": { "type": "Point", "coordinates": [ 73.7648982, 18.5492124 ] } },
{ "type": "Feature", "properties": { "ccd_name": "Air/Sound Pollution dute to Machinary", "com_location": "Euro 2 Society Plot no 18 230B Viman Darshan society sanjaypark Lohegaon pune" }, "geometry": { "type": "Point", "coordinates": [ 73.9087074, 18.5688028 ] } },
{ "type": "Feature", "properties": { "ccd_name": "Others (Health H.O.)", "com_location": "Bharti vidyapeeth dhankwadi , Pune, Maharashtra" }, "geometry": { "type": "Point", "coordinates": [ 73.858174, 18.458545 ] } },
{ "type": "Feature", "properties": { "ccd_name": "other (Stray Dogs)", "com_location": "SR No. 20, Near Canopy/Yashshri society, Gokulnagar, Katraj, Pune" }, "geometry": { "type": "Point", "coordinates": [ 73.871531500000017, 18.4525534 ] } },
{ "type": "Feature", "properties": { "ccd_name": "Stray Dogs - Unsterilised Dogs", "com_location": "Navrajasthan soc, senapati bapat road, , Pune, Maharashtra" }, "geometry": { "type": "Point", "coordinates": [ 73.8292936, 18.5278755 ] } },
{ "type": "Feature", "properties": { "ccd_name": "Voilent / Suspected Rabies dogs", "com_location": "Sant Nagar, Lohegaon- 411047, Pune, Maharashtra" }, "geometry": { "type": "Point", "coordinates": [ 73.9345125, 18.5985629 ] } },
{ "type": "Feature", "properties": { "ccd_name": "Others (Health H.O.)", "com_location": "Pashan lake, Pune, Maharashtra" }, "geometry": { "type": "Point", "coordinates": [ 73.7852922, 18.5343969 ] } },
{ "type": "Feature", "properties": { "ccd_name": "Hospital Registration", "com_location": "Shop 10/11/12/13Pushpnagri appartment rambag colony paud road kothrud, Pune, Maharashtra" }, "geometry": { "type": "Point", "coordinates": [ 73.8112432, 18.5121026 ] } },
{ "type": "Feature", "properties": { "ccd_name": "Related to PMC Hospital, Treatment and Staff", "com_location": "galande hostipal shastrinagar , Pune, Maharashtra" }, "geometry": { "type": "Point", "coordinates": [ 73.896515, 18.551902 ] } },
{ "type": "Feature", "properties": { "ccd_name": "Others (Health H.O.)", "com_location": "sant eknath society bhag 2 bibwewadi , Pune, Maharashtra" }, "geometry": { "type": "Point", "coordinates": [ 73.8593026, 18.4737278 ] } },
{ "type": "Feature", "properties": { "ccd_name": "Voilent / Suspected Rabies dogs", "com_location": "Bramha Horizon, Above Kubera Park, Lulla Nagar, Kondhwa Road,\r\nPune 40" }, "geometry": { "type": "Point", "coordinates": [ 73.8884678, 18.4821605 ] } },
{ "type": "Feature", "properties": { "ccd_name": "Stray Dogs - Unsterilised Dogs", "com_location": "parashar hous soc, kharadi, bypass chowk, , Pune, Maharashtra" }, "geometry": { "type": "Point", "coordinates": [ 73.9746367, 18.5833517 ] } },
{ "type": "Feature", "properties": { "ccd_name": "Stray Dogs - Unsterilised Dogs", "com_location": "701-A, palladium exotica, dhanori, pune, 411015" }, "geometry": { "type": "Point", "coordinates": [ 73.9015358, 18.5984807 ] } },
{ "type": "Feature", "properties": { "ccd_name": "hyacinth at river", "com_location": "va rDa kramAMka 8 auMdha bopoDI prabhAga puNe mahAnagarapAlikA yA bhAgAta" }, "geometry": { "type": "Point", "coordinates": [ 73.8536109, 18.5233716 ] } },
{ "type": "Feature", "properties": { "ccd_name": "Others (Health H.O.)", "com_location": "bANera ra pAShANa liMka ro, Pune, Maharashtra" }, "geometry": { "type": "Point", "coordinates": [ 73.8324881, 18.5323448 ] } },
{ "type": "Feature", "properties": { "ccd_name": "Stray Dogs - Unsterilised Dogs", "com_location": "harsh apt, lane -24, bhagydaya nagar kondhva khurd pune" }, "geometry": { "type": "Point", "coordinates": [ 73.886303, 18.4731985 ] } },
{ "type": "Feature", "properties": { "ccd_name": "Stray Dogs - Unsterilised Dogs", "com_location": "Rajaram patil nagar lane no 12 pawarwasti kharadi, Pune, Maharashtra" }, "geometry": { "type": "Point", "coordinates": [ 73.9533098, 18.5600027 ] } },
{ "type": "Feature", "properties": { "ccd_name": "Others (Health H.O.)", "com_location": "Bio Gas plant. Prasun Savoy Residents,  Dhanori, Pune, Maharashtra" }, "geometry": { "type": "Point", "coordinates": [ 73.8819014, 18.5806565 ] } },
{ "type": "Feature", "properties": { "ccd_name": "Others (Health H.O.)", "com_location": "Dhole pATIla kShetrIya kAryAlaya, Pune, Maharashtra" }, "geometry": { "type": "Point", "coordinates": [ 73.8758448, 18.5359738 ] } },
{ "type": "Feature", "properties": { "ccd_name": "Others (Health H.O.)", "com_location": "B-208, Surekha Heights  Nimbalkar Talim Chowk, Sadashiv Peth, Pune, Maharashtra" }, "geometry": { "type": "Point", "coordinates": [ 73.8521326, 18.5118799 ] } },
{ "type": "Feature", "properties": { "ccd_name": "Voilent / Suspected Rabies dogs", "com_location": "Balbhim Park near cipla foundation Warje Pune 58" }, "geometry": { "type": "Point", "coordinates": [ 73.7973329, 18.4895643 ] } },
{ "type": "Feature", "properties": { "ccd_name": "Stray Dogs - Unsterilised Dogs", "com_location": " Stella Mary's school to Anand park WADGAONSHERI., Pune, Maharashtra" }, "geometry": { "type": "Point", "coordinates": [ 73.9231229, 18.5532691 ] } },
{ "type": "Feature", "properties": { "ccd_name": "Others (Health H.O.)", "com_location": "near LMD chowk bavdhan, Pune, Maharashtra" }, "geometry": { "type": "Point", "coordinates": [ 73.777771, 18.511031 ] } },
{ "type": "Feature", "properties": { "ccd_name": "Stray Dogs - Unsterilised Dogs", "com_location": "Survey no 31 Orean society , Pune, Maharashtra" }, "geometry": { "type": "Point", "coordinates": [ 73.8786239, 18.5246091 ] } },
{ "type": "Feature", "properties": { "ccd_name": "Others (Health H.O.)", "com_location": "vishveshvara sosAyaTI 40 budhavAra peTha puNe 411002 " }, "geometry": { "type": "Point", "coordinates": [ 73.8551761, 18.5160533 ] } },
{ "type": "Feature", "properties": { "ccd_name": "Voilent / Suspected Rabies dogs", "com_location": "Bhagyoday nagar gali no 30 kondhwa khurd near makka masjid, RHP hospital gate pune" }, "geometry": { "type": "Point", "coordinates": [ 73.9009602, 18.4717605 ] } },
{ "type": "Feature", "properties": { "ccd_name": "hyacinth at river", "com_location": "A1 Montvert Pristine Ph2 Off aundh Rd Near HP petrol pump Khadki Pune 411020" }, "geometry": { "type": "Point", "coordinates": [ 73.9206462, 18.4989872 ] } },
{ "type": "Feature", "properties": { "ccd_name": "Stray Dogs - Unsterilised Dogs", "com_location": "\r\n\r\nKumar Primavera, Sainath Nagar, Survey No 55, Ward No 5, Wadgaon Sheri, Pune-14\r\n" }, "geometry": { "type": "Point", "coordinates": [ 73.927814, 18.541028 ] } },
{ "type": "Feature", "properties": { "ccd_name": "hyacinth at river", "com_location": "Near pallod farm please , Pune, Maharashtra" }, "geometry": { "type": "Point", "coordinates": [ 73.7974252, 18.5574185 ] } },
{ "type": "Feature", "properties": { "ccd_name": "Others (Health H.O.)", "com_location": "Shinde complex, shinde nagar, bavdhan, pune." }, "geometry": { "type": "Point", "coordinates": [ 73.7819651, 18.5125041 ] } },
{ "type": "Feature", "properties": { "ccd_name": "Stray Dogs - Unsterilised Dogs", "com_location": "sinhagad road bhandari hotel back side patil paradise pune 411030" }, "geometry": { "type": "Point", "coordinates": [ 73.8400049, 18.497692 ] } },
{ "type": "Feature", "properties": { "ccd_name": "Noise Pollution", "com_location": "Hotel Supreme Heritage Lane 10, Kalyani Nagar Pune" }, "geometry": { "type": "Point", "coordinates": [ 73.9041904, 18.5502078 ] } },
{ "type": "Feature", "properties": { "ccd_name": "Stray Dogs - Unsterilised Dogs", "com_location": "Sankalp park lane, aundh 411007 Landmark : DAV school, Pune, Maharashtra" }, "geometry": { "type": "Point", "coordinates": [ 73.802057, 18.5597221 ] } },
{ "type": "Feature", "properties": { "ccd_name": "Voilent / Suspected Rabies dogs", "com_location": "Hill top society servey no 36/2 navnath nagar dhankwadi pune" }, "geometry": { "type": "Point", "coordinates": [ 73.8465579, 18.4681755 ] } },
{ "type": "Feature", "properties": { "ccd_name": "Others (Health H.O.)", "com_location": "Nanospace IT Park on Baner Pashan Link Road, Baner, Pune" }, "geometry": { "type": "Point", "coordinates": [ 73.7951273, 18.5522672 ] } },
{ "type": "Feature", "properties": { "ccd_name": "Pollution due to PMC vehicle", "com_location": "Shelkenagr vadgoan bk. Pune 411041" }, "geometry": { "type": "Point", "coordinates": [ 73.8246309, 18.4659813 ] } },
{ "type": "Feature", "properties": { "ccd_name": "Stray Dogs - Unsterilised Dogs", "com_location": "Bhairav nath nagar near signate public school uruli dewachi, Pune, Maharashtra" }, "geometry": { "type": "Point", "coordinates": [ 73.9563832, 18.4563105 ] } },
{ "type": "Feature", "properties": { "ccd_name": "Stray Dogs - Unsterilised Dogs", "com_location": "Ashish Vihar Dp Road, Kothrud pune" }, "geometry": { "type": "Point", "coordinates": [ 73.8044905, 18.5020416 ] } },
{ "type": "Feature", "properties": { "ccd_name": "Stray Dogs - Unsterilised Dogs", "com_location": " Gokulnagar Katraj Kondhwa road Pune-48" }, "geometry": { "type": "Point", "coordinates": [ 73.8749735, 18.4499901 ] } },
{ "type": "Feature", "properties": { "ccd_name": "Others (Health H.O.)", "com_location": "10 mahAtmA phule vasAhata  gADItala sAsavaDa roDa, Pune, Maharashtra" }, "geometry": { "type": "Point", "coordinates": [ 73.9437389, 18.49778 ] } },
{ "type": "Feature", "properties": { "ccd_name": "Voilent / Suspected Rabies dogs", "com_location": "Katraj santosh nagar shrada baal bhavan, Pune, Maharashtra" }, "geometry": { "type": "Point", "coordinates": [ 73.8580788, 18.4392432 ] } },
{ "type": "Feature", "properties": { "ccd_name": "Others (Health H.O.)", "com_location": "navI khaDakI,subhASha nagara yeravaDA yethIla pragatI buddha vihArAsamora , Pune, Maharashtra" }, "geometry": { "type": "Point", "coordinates": [ 73.8759176, 18.4843944 ] } },
{ "type": "Feature", "properties": { "ccd_name": "Voilent / Suspected Rabies dogs", "com_location": "29/15 Chaitanya nagar\r\nDhankawadi Pune-411043" }, "geometry": { "type": "Point", "coordinates": [ 73.857987, 18.462683 ] } },
{ "type": "Feature", "properties": { "ccd_name": "hyacinth at river", "com_location": " Bopodi/Bhau Patil Road, Pune, Maharashtra" }, "geometry": { "type": "Point", "coordinates": [ 73.8321013, 18.5682809 ] } },
{ "type": "Feature", "properties": { "ccd_name": "Noise Pollution", "com_location": "From Veer baji pasalkar smarak gate to sharada matha school., Pune, Maharashtra" }, "geometry": { "type": "Point", "coordinates": [ 73.8295298, 18.4886543 ] } },
{ "type": "Feature", "properties": { "ccd_name": "Others (Health H.O.)", "com_location": "Outside boundary (south) of\nSai Niwas Society \nOff Pisoli Road\nUndri, Pune, Maharashtra" }, "geometry": { "type": "Point", "coordinates": [ 73.9131068, 18.4500377 ] } },
{ "type": "Feature", "properties": { "ccd_name": "Stray Dogs - Unsterilised Dogs", "com_location": "Asiana park 1 aundh opposite gaikwad petrol pump , Pune, Maharashtra" }, "geometry": { "type": "Point", "coordinates": [ 73.8041953, 18.557858 ] } },
{ "type": "Feature", "properties": { "ccd_name": "Others (Health H.O.)", "com_location": "894/Sadashiv peth barister gadgil street pune 30." }, "geometry": { "type": "Point", "coordinates": [ 73.8504025, 18.5126912 ] } },
{ "type": "Feature", "properties": { "ccd_name": "Voilent / Suspected Rabies dogs", "com_location": "gulaTeka.DI DAyasa pla Ta luMkaDa shALechyA samora , Pune, Maharashtra" }, "geometry": { "type": "Point", "coordinates": [ 73.7799243, 18.4643011 ] } },
{ "type": "Feature", "properties": { "ccd_name": "other (Stray Dogs)", "com_location": "mitra mandal cooperating housing soc parvati pune 9 \r\n" }, "geometry": { "type": "Point", "coordinates": [ 73.854679, 18.4923126 ] } },
{ "type": "Feature", "properties": { "ccd_name": "Others (Health H.O.)", "com_location": " 1018, ravivAra peTha,  puNe" }, "geometry": { "type": "Point", "coordinates": [ 73.8440548, 18.5082486 ] } },
{ "type": "Feature", "properties": { "ccd_name": "Others (Health H.O.)", "com_location": "phurasuMgI gAvaThANa, bhagatasiMga chauka, chetana shevALe yAchyA gharAshejArI.., Pune, Maharashtra" }, "geometry": { "type": "Point", "coordinates": [ 73.946047100000015, 18.5025511 ] } },
{ "type": "Feature", "properties": { "ccd_name": "Stray Dogs - Unsterilised Dogs", "com_location": "sarve na 12lakShmI nagara yerava~NA puNe yethe shivarAja chauka tiraMgA mitra maMDaLA javaLa gallI naM 2 '3,4,5 ,6" }, "geometry": { "type": "Point", "coordinates": [ 73.8786239, 18.5246091 ] } },
{ "type": "Feature", "properties": { "ccd_name": "hyacinth at river", "com_location": "mULa mUTha nadIvarIla yeravaDA baMDagArDana baMdhArA javaLa., Pune, Maharashtra" }, "geometry": { "type": "Point", "coordinates": [ 73.879711, 18.5529226 ] } },
{ "type": "Feature", "properties": { "ccd_name": "Treatment for Injured / Sick Dogs", "com_location": "kharadi pune near eon ITcenter\r\n" }, "geometry": { "type": "Point", "coordinates": [ 73.9476257, 18.5539311 ] } },
{ "type": "Feature", "properties": { "ccd_name": "Air/Sound Pollution dute to Machinary", "com_location": "Sr no-28, plot no-11, house no-200, balkrishna housing society, akshay nagar, near bsnl telephone exchange, Dhankawadi, Pune-411043" }, "geometry": { "type": "Point", "coordinates": [ 73.8544034, 18.4612406 ] } },
{ "type": "Feature", "properties": { "ccd_name": "Voilent / Suspected Rabies dogs", "com_location": "807/1683 shukrawar peth gadikhana hospital potnis dawakhana., Pune, Maharashtra" }, "geometry": { "type": "Point", "coordinates": [ 73.857973, 18.511847 ] } },
{ "type": "Feature", "properties": { "ccd_name": "hyacinth at river", "com_location": "606 kundan paradaies bhau patil road bopodi pune" }, "geometry": { "type": "Point", "coordinates": [ 73.8331896, 18.5719872 ] } },
{ "type": "Feature", "properties": { "ccd_name": "Others (Health H.O.)", "com_location": "Opposite Deccan Pavilion hotel, Navale bridge, Vadgaon budruk, Pune" }, "geometry": { "type": "Point", "coordinates": [ 73.8251759, 18.4594279 ] } },
{ "type": "Feature", "properties": { "ccd_name": "Stray Dogs - Unsterilised Dogs", "com_location": "Balgandharva Bridge, \r\n233 Near, \r\nChandrashekhar Govind Aapte Rd, \r\nShaniwar Peth, \r\nPune, Maharashtra-411030," }, "geometry": { "type": "Point", "coordinates": [ 73.8494827, 18.5208189 ] } },
{ "type": "Feature", "properties": { "ccd_name": "Stray Dogs - Unsterilised Dogs", "com_location": "ramyAnagarI sosAyaTI,bibavevADI, Pune, Maharashtra" }, "geometry": { "type": "Point", "coordinates": [ 73.9531189, 18.5646495 ] } },
{ "type": "Feature", "properties": { "ccd_name": "other (Stray Dogs)", "com_location": "c-6 shantiprasad society, galli no 9 dahanukar colony, Pune, Maharashtra" }, "geometry": { "type": "Point", "coordinates": [ 73.8099711, 18.4941915 ] } },
{ "type": "Feature", "properties": { "ccd_name": "Voilent / Suspected Rabies dogs", "com_location": "sakhAI plAjhA te su tAra ha spITala kotharuDa yA parisarAta, Pune, Maharashtra" }, "geometry": { "type": "Point", "coordinates": [ 73.810178, 18.502097 ] } },
{ "type": "Feature", "properties": { "ccd_name": "Others (Health H.O.)", "com_location": "Dr Babasaheb Ambedkar Bhawan in front of Vishrantwadi Police station, Pune, Maharashtra" }, "geometry": { "type": "Point", "coordinates": [ 73.8791541, 18.5737466 ] } },
{ "type": "Feature", "properties": { "ccd_name": "Others (Health H.O.)", "com_location": "Dhanori Bio gas plant \r\nNear Prasun Savoy Society \r\nSurvey No. 22/2\r\nDhanori\r\nPune - 411015" }, "geometry": { "type": "Point", "coordinates": [ 73.893229, 18.5939915 ] } },
{ "type": "Feature", "properties": { "ccd_name": "Others (Health H.O.)", "com_location": "Sr No 101 Gokhalenager Janwadi Janta Vasahat Near Janwadi Masjid, Pune, Maharashtra" }, "geometry": { "type": "Point", "coordinates": [ 73.8246872, 18.5286992 ] } },
{ "type": "Feature", "properties": { "ccd_name": "Others (Health H.O.)", "com_location": "Behind amenity plot adjusent to 38/7 golden trellis balewadi, Pune, Maharashtra" }, "geometry": { "type": "Point", "coordinates": [ 73.9275889, 18.5944704 ] } },
{ "type": "Feature", "properties": { "ccd_name": "Voilent / Suspected Rabies dogs", "com_location": "Kondhwa khurd near makka masjid zainab heights pune." }, "geometry": { "type": "Point", "coordinates": [ 73.8889779, 18.4695088 ] } },
{ "type": "Feature", "properties": { "ccd_name": "Others (Health H.O.)", "com_location": "Opposite to Shastri nagar police station yerwada, Pune, Maharashtra" }, "geometry": { "type": "Point", "coordinates": [ 73.80244, 18.507107 ] } },
{ "type": "Feature", "properties": { "ccd_name": "Voilent / Suspected Rabies dogs", "com_location": "Iris Society and Pentagon Towers, Magarpatta City Pune." }, "geometry": { "type": "Point", "coordinates": [ 73.9247442, 18.5115543 ] } },
{ "type": "Feature", "properties": { "ccd_name": "Others (Health H.O.)", "com_location": "Sukhsagar nagar near amba Mata mandir galli no.3,4 411046 Mohan metal industries and swapnil metal industries., Pune, Maharashtra" }, "geometry": { "type": "Point", "coordinates": [ 73.8724917, 18.4522536 ] } },
{ "type": "Feature", "properties": { "ccd_name": "Voilent / Suspected Rabies dogs", "com_location": "Sahil Apartment, Lane 13P, Tingrenagar, Pune 411032" }, "geometry": { "type": "Point", "coordinates": [ 73.8947152, 18.5814547 ] } },
{ "type": "Feature", "properties": { "ccd_name": "Voilent / Suspected Rabies dogs", "com_location": "Balewadi highstreet, Pune, Maharashtra" }, "geometry": { "type": "Point", "coordinates": [ 73.7752435, 18.5687114 ] } },
{ "type": "Feature", "properties": { "ccd_name": "Voilent / Suspected Rabies dogs", "com_location": "kharadi mundhva bypass road  , Pune, Maharashtra" }, "geometry": { "type": "Point", "coordinates": [ 73.9328965, 18.5324891 ] } },
{ "type": "Feature", "properties": { "ccd_name": "Stray Dogs - Unsterilised Dogs", "com_location": "Sr. No 42, Khan Villa Apartment, Near Madina Tower, opposite greenwood building Metha Nagar kondhwa, Pune, Maharashtra" }, "geometry": { "type": "Point", "coordinates": [ 73.886676, 18.4664593 ] } },
{ "type": "Feature", "properties": { "ccd_name": "Voilent / Suspected Rabies dogs", "com_location": "Guruprasad society bund garden road Pune 1" }, "geometry": { "type": "Point", "coordinates": [ 73.880589, 18.536916 ] } },
{ "type": "Feature", "properties": { "ccd_name": "Others (Health H.O.)", "com_location": "PMC swab center near Zoo park , Pune, Maharashtra" }, "geometry": { "type": "Point", "coordinates": [ 73.8779265, 18.5112577 ] } },
{ "type": "Feature", "properties": { "ccd_name": "Stray Dogs - Unsterilised Dogs", "com_location": "Soba Saanj co-op housing society bibwewadi Pune." }, "geometry": { "type": "Point", "coordinates": [ 73.8582167, 18.4750261 ] } },
{ "type": "Feature", "properties": { "ccd_name": "Stray Dogs - Unsterilised Dogs", "com_location": "in front of Kunal Aspiree Bajirao Shripathi marg Balewadi., Pune, Maharashtra" }, "geometry": { "type": "Point", "coordinates": [ 73.7762839, 18.579502 ] } },
{ "type": "Feature", "properties": { "ccd_name": "Others (Health H.O.)", "com_location": "Plot no. 16, Shankar rao more housing Society, Cummins college road, near old vithal mandir, karve nagar 411052, Pune, Maharashtra" }, "geometry": { "type": "Point", "coordinates": [ 73.8260142, 18.4895238 ] } },
{ "type": "Feature", "properties": { "ccd_name": "Voilent / Suspected Rabies dogs", "com_location": "survey no 60, Lane no 10 and 11 , sai nagar , kondhwa budhruk pune 411048" }, "geometry": { "type": "Point", "coordinates": [ 73.8753525, 18.4547815 ] } },
{ "type": "Feature", "properties": { "ccd_name": "hyacinth at river", "com_location": "Sneha Kinara society which is off Bhau Patil Road, Bopodi.opposite Chhatrapati Sahu Maharaj Pakshi Vihar Garden., Pune, Maharashtra" }, "geometry": { "type": "Point", "coordinates": [ 73.8301708, 18.5681188 ] } },
{ "type": "Feature", "properties": { "ccd_name": "Related to PMC Hospital, Treatment and Staff", "com_location": "sAvitrIbAI phule davAkhAnA guruvAra peTha., Pune, Maharashtra" }, "geometry": { "type": "Point", "coordinates": [ 73.8621073, 18.509617 ] } },
{ "type": "Feature", "properties": { "ccd_name": "hyacinth at river", "com_location": "pAShANa talAvatIla, Pune, Maharashtra" }, "geometry": { "type": "Point", "coordinates": [ 73.7923957, 18.5414267 ] } },
{ "type": "Feature", "properties": { "ccd_name": "Air/Sound Pollution dute to Machinary", "com_location": "Behind Marvel Azure, Malwadi road , Hadapsar Pune 411028\r\nNear Tuppe corner" }, "geometry": { "type": "Point", "coordinates": [ 73.934253, 18.5222428 ] } },
{ "type": "Feature", "properties": { "ccd_name": "Stray Dogs - Unsterilised Dogs", "com_location": "Dhanori paud wada road ser 282 jilebi chowk near appel medical , Pune, Maharashtra" }, "geometry": { "type": "Point", "coordinates": [ 73.9090746, 18.6029763 ] } },
{ "type": "Feature", "properties": { "ccd_name": "Voilent / Suspected Rabies dogs", "com_location": "Pargenagar, Kondhwa Khurd. Area from Hindustan Royal Society & marriage hall Citi Lawns to Parge Sports Ground going on to Kumar Sublime Society upto Sobha Society, Pune, Maharashtra" }, "geometry": { "type": "Point", "coordinates": [ 73.8935756, 18.4661298 ] } },
{ "type": "Feature", "properties": { "ccd_name": "Voilent / Suspected Rabies dogs", "com_location": "nityanand hall lane hingane junya post offc jawal\r\n, Pune, Maharashtra" }, "geometry": { "type": "Point", "coordinates": [ 73.8280083, 18.4805986 ] } },
{ "type": "Feature", "properties": { "ccd_name": "Stray Dogs - Unsterilised Dogs", "com_location": "7th Heaven Housing Society Dhanorie, Pune, Maharashtra" }, "geometry": { "type": "Point", "coordinates": [ 73.896851, 18.5967587 ] } },
{ "type": "Feature", "properties": { "ccd_name": "Stray Dogs - Unsterilised Dogs", "com_location": "Vinod Nikam , flat no 405 , plot no 248/249 , sr no 178, yuneet complex, bhosale village, fursungi., Pune, Maharashtra" }, "geometry": { "type": "Point", "coordinates": [ 73.9798256, 18.4652002 ] } },
{ "type": "Feature", "properties": { "ccd_name": "Stray Dogs - Unsterilised Dogs", "com_location": "wadgoan shery rajendra nagar lane no 1 , Pune, Maharashtra" }, "geometry": { "type": "Point", "coordinates": [ 73.8412709, 18.5033213 ] } },
{ "type": "Feature", "properties": { "ccd_name": "other (Stray Dogs)", "com_location": "sAInAtha sosAyaTI, bopoDI , Pune, Maharashtra" }, "geometry": { "type": "Point", "coordinates": [ 73.8350831, 18.5709235 ] } },
{ "type": "Feature", "properties": { "ccd_name": "hyacinth at river", "com_location": "baner gaon, , Pune, Maharashtra" }, "geometry": { "type": "Point", "coordinates": [ 73.7867629, 18.5590032 ] } },
{ "type": "Feature", "properties": { "ccd_name": "Others (Health H.O.)", "com_location": "56/1 aaple ghar housing society nagar road kharadi pune aaple ghar BRT" }, "geometry": { "type": "Point", "coordinates": [ 73.9499541, 18.5672499 ] } },
{ "type": "Feature", "properties": { "ccd_name": "Others (Health H.O.)", "com_location": "daLavI ha spiTala, shi.na, puNe " }, "geometry": { "type": "Point", "coordinates": [ 73.8786239, 18.5246091 ] } },
{ "type": "Feature", "properties": { "ccd_name": "Stray Dogs - Unsterilised Dogs", "com_location": "Dhanori gokul nagar galli no 12 opposite to hans nagar , Pune, Maharashtra" }, "geometry": { "type": "Point", "coordinates": [ 73.892317, 18.588281 ] } },
{ "type": "Feature", "properties": { "ccd_name": "Others (Health H.O.)", "com_location": "Dharmanagari Society, Aranyeshwar, Taware Colony, Pune, Maharashtra" }, "geometry": { "type": "Point", "coordinates": [ 73.8547904, 18.4865702 ] } },
{ "type": "Feature", "properties": { "ccd_name": "Stray Dogs - Unsterilised Dogs", "com_location": "girija soci kothrud , Pune, Maharashtra" }, "geometry": { "type": "Point", "coordinates": [ 73.8180127, 18.513863 ] } },
{ "type": "Feature", "properties": { "ccd_name": "Voilent / Suspected Rabies dogs", "com_location": "jaya bhavAnI chauka,phurasuMgI gAvaThANa. jilhA pariShada shALe javaLa, Pune, Maharashtra" }, "geometry": { "type": "Point", "coordinates": [ 73.8786239, 18.5246091 ] } },
{ "type": "Feature", "properties": { "ccd_name": "Voilent / Suspected Rabies dogs", "com_location": "at Baner Pashan link road., Pune, Maharashtra" }, "geometry": { "type": "Point", "coordinates": [ 73.7912895, 18.5491346 ] } },
{ "type": "Feature", "properties": { "ccd_name": "hyacinth at river", "com_location": "baner gaon,, Pune, Maharashtra" }, "geometry": { "type": "Point", "coordinates": [ 73.7867629, 18.5590032 ] } },
{ "type": "Feature", "properties": { "ccd_name": "Others (Health H.O.)", "com_location": "FC road near opposite Triveni snack stall near Oriental Bank of commerce., Pune, Maharashtra" }, "geometry": { "type": "Point", "coordinates": [ 73.8425712, 18.5143633 ] } },
{ "type": "Feature", "properties": { "ccd_name": "Stray Dogs - Unsterilised Dogs", "com_location": "Satin Hills bavdhan khurd 411021, Pune, Maharashtra" }, "geometry": { "type": "Point", "coordinates": [ 73.772607, 18.5025122 ] } },
{ "type": "Feature", "properties": { "ccd_name": "Others (Health H.O.)", "com_location": "Kumar Pacific mall shankar sheth road pune " }, "geometry": { "type": "Point", "coordinates": [ 73.8723214, 18.5014884 ] } },
{ "type": "Feature", "properties": { "ccd_name": "Stray Dogs - Unsterilised Dogs", "com_location": "sai chowk sus road shree chinatamni apartment, Pune, Maharashtra" }, "geometry": { "type": "Point", "coordinates": [ 73.785779, 18.543369 ] } },
{ "type": "Feature", "properties": { "ccd_name": "Others (Health H.O.)", "com_location": "33 Keshav kunj \r\nKeshav nagar\r\nMundwa \r\n411036, Pune, Maharashtra" }, "geometry": { "type": "Point", "coordinates": [ 73.9498476, 18.5311206 ] } },
{ "type": "Feature", "properties": { "ccd_name": "Others (Health H.O.)", "com_location": "Sai nagar Satavwadi Row house opp rahul colony, Pune, Maharashtra" }, "geometry": { "type": "Point", "coordinates": [ 73.9484731, 18.4953248 ] } },
{ "type": "Feature", "properties": { "ccd_name": "hyacinth at river", "com_location": "Rohan Nilay phase 2, Aundh, Pune, Maharashtra" }, "geometry": { "type": "Point", "coordinates": [ 73.8132337, 18.5670841 ] } },
{ "type": "Feature", "properties": { "ccd_name": "Stray Dogs - Unsterilised Dogs", "com_location": "Sr.no. 241/2/B, plot no. 33, J.P. Nagar, 509 Area, lohagaon,Pune 411032" }, "geometry": { "type": "Point", "coordinates": [ 73.8974018, 18.5733593 ] } },
{ "type": "Feature", "properties": { "ccd_name": "Others (Health H.O.)", "com_location": "Azaad Mitra mandal Parvati Pune 411009 azaad mita mandal" }, "geometry": { "type": "Point", "coordinates": [ 73.8433157, 18.4966336 ] } },
{ "type": "Feature", "properties": { "ccd_name": "Voilent / Suspected Rabies dogs", "com_location": "Somvar peth 91/2 near nageshwar mandir lane Dhangar , Pune, Maharashtra" }, "geometry": { "type": "Point", "coordinates": [ 73.8629935, 18.5211321 ] } },
{ "type": "Feature", "properties": { "ccd_name": "Diseases like Swine Flu, Dengue, Chikungunya etc", "com_location": "Silversands Rd,Sharad Nagar,Mundhwa,Pune,Maharashtra 411036,India" }, "geometry": { "type": "Point", "coordinates": [ 73.9468721, 18.5438987 ] } },
{ "type": "Feature", "properties": { "ccd_name": "Stray Dogs - Unsterilised Dogs", "com_location": "bekrai nagar hadapsar back side of pmpml bus stop near 3 murti nagar society  pune " }, "geometry": { "type": "Point", "coordinates": [ 73.9521468, 18.4819581 ] } },
{ "type": "Feature", "properties": { "ccd_name": "Others (Health H.O.)", "com_location": "kharADi puNe madhe thiTevastI kharADi puNe 411014 gallI nambara 4 " }, "geometry": { "type": "Point", "coordinates": [ 73.9373248, 18.543993 ] } },
{ "type": "Feature", "properties": { "ccd_name": "Air/Sound Pollution dute to Machinary", "com_location": "Shreyas Aluminium and Glass\", opposite to Manjari Greens Annexe (Gopalpatti-Manjari greens road), Manjari Budruk, Pune 412307." }, "geometry": { "type": "Point", "coordinates": [ 73.9649681, 18.5030866 ] } },
{ "type": "Feature", "properties": { "ccd_name": "Others (Health H.O.)", "com_location": "survey number 136 warje malwadi yashu deep  tulja bhawani mandir near shanti sampurn society  , Pune, Maharashtra" }, "geometry": { "type": "Point", "coordinates": [ 73.8019083, 18.4732889 ] } },
{ "type": "Feature", "properties": { "ccd_name": "Stray Dogs - Unsterilised Dogs", "com_location": "Siddhakala society near Kaveri hotel warje, Pune, Maharashtra" }, "geometry": { "type": "Point", "coordinates": [ 73.7979216, 18.4863444 ] } },
{ "type": "Feature", "properties": { "ccd_name": "Others (Health H.O.)", "com_location": "siTI iMTarana.cshanala skUla shejArIla baMda bAMdhakAma, shivarakara roDa, vAnavaDI, Pune, Maharashtra" }, "geometry": { "type": "Point", "coordinates": [ 73.9000204, 18.4922285 ] } },
{ "type": "Feature", "properties": { "ccd_name": "Stray Dogs - Unsterilised Dogs", "com_location": "Deccan gold society tulja bhavani nagar kharadi pune" }, "geometry": { "type": "Point", "coordinates": [ 73.9500345, 18.5627206 ] } },
{ "type": "Feature", "properties": { "ccd_name": "other (Stray Dogs)", "com_location": " Koregaon Park, Pune, Maharashtra" }, "geometry": { "type": "Point", "coordinates": [ 73.8939748, 18.5362084 ] } },
{ "type": "Feature", "properties": { "ccd_name": "Stray Dogs - Unsterilised Dogs", "com_location": "Bhosale nagar amar cottage hadapsar sahyadri hospital backside pune." }, "geometry": { "type": "Point", "coordinates": [ 73.9307009, 18.5070675 ] } },
{ "type": "Feature", "properties": { "ccd_name": "Voilent / Suspected Rabies dogs", "com_location": "Benkar vasti nishigandh ashtgandh soc phase 2 dhayari gaon 41., Pune, Maharashtra" }, "geometry": { "type": "Point", "coordinates": [ 73.7993722, 18.4434828 ] } },
{ "type": "Feature", "properties": { "ccd_name": "Stray Dogs - Unsterilised Dogs", "com_location": "Vishrantwadi ser no 11 gujal wasti dhanori road pune 15" }, "geometry": { "type": "Point", "coordinates": [ 73.8874339, 18.5880386 ] } },
{ "type": "Feature", "properties": { "ccd_name": "Voilent / Suspected Rabies dogs", "com_location": "Plot no 51 arnav park navale chowk handewadi pune 28" }, "geometry": { "type": "Point", "coordinates": [ 73.9370023, 18.4619308 ] } },
{ "type": "Feature", "properties": { "ccd_name": "Others (Health H.O.)", "com_location": "B 604 sai shilp kukade parisar bibwewadi pune 37" }, "geometry": { "type": "Point", "coordinates": [ 73.8591125, 18.4725617 ] } },
{ "type": "Feature", "properties": { "ccd_name": "Others (Health H.O.)", "com_location": "aviwar peth behind moti chowk., Pune, Maharashtra" }, "geometry": { "type": "Point", "coordinates": [ 73.8594258, 18.5169131 ] } },
{ "type": "Feature", "properties": { "ccd_name": "Related to PMC Hospital, Treatment and Staff", "com_location": "PMC  Sharad Pawar Hospital Dhankawadi Pune 411043" }, "geometry": { "type": "Point", "coordinates": [ 73.8600141, 18.4658543 ] } },
{ "type": "Feature", "properties": { "ccd_name": "Related to PMC Hospital, Treatment and Staff", "com_location": "Indirangar bharamasell Lohegaon road puNe 32" }, "geometry": { "type": "Point", "coordinates": [ 73.8990975, 18.5782491 ] } },
{ "type": "Feature", "properties": { "ccd_name": "Stray Dogs - Unsterilised Dogs", "com_location": "Bhawani peth old motor stand Al shaan apts, Pune, Maharashtra" }, "geometry": { "type": "Point", "coordinates": [ 73.8699182, 18.5116565 ] } },
{ "type": "Feature", "properties": { "ccd_name": "Others (Health H.O.)", "com_location": "Anand Nagar, Malwadi Hadapsar Pin code 411028, Pune, Maharashtra" }, "geometry": { "type": "Point", "coordinates": [ 73.9418603, 18.496913 ] } },
{ "type": "Feature", "properties": { "ccd_name": "Others (Health H.O.)", "com_location": "102,Akshar Bhuvan Building, Lane-Bhau Nagar,60 feet road ,near Vishwakarma dada temple ,Pimple gurav, Pune, Maharashtra" }, "geometry": { "type": "Point", "coordinates": [ 73.8258103, 18.5898162 ] } },
{ "type": "Feature", "properties": { "ccd_name": "hyacinth at river", "com_location": "chaajed petrol pump bopdi pune 20" }, "geometry": { "type": "Point", "coordinates": [ 73.8348075, 18.5728662 ] } },
{ "type": "Feature", "properties": { "ccd_name": "Others (Health H.O.)", "com_location": "Sky One Annexe, Lane 7, Kalyani Nagar, Pune, Maharashtra" }, "geometry": { "type": "Point", "coordinates": [ 73.9040621, 18.5434633 ] } },
{ "type": "Feature", "properties": { "ccd_name": "Stray Dogs - Unsterilised Dogs", "com_location": "Balewadi goanthan. House no 97, vitthal Mandir lane, Pune, Maharashtra" }, "geometry": { "type": "Point", "coordinates": [ 73.8241277, 18.4902687 ] } },
{ "type": "Feature", "properties": { "ccd_name": "Stray Dogs - Unsterilised Dogs", "com_location": "Flat no. 8, D wing,\r\nPunyanagari Co-Op Hsg. Society,\r\nBesides Petrol Pump,\r\nBibwewadi,\r\nPune \r\n411037" }, "geometry": { "type": "Point", "coordinates": [ 73.7965679, 18.4887931 ] } },
{ "type": "Feature", "properties": { "ccd_name": "Stray Dogs - Unsterilised Dogs", "com_location": "Porwal Road, Lohegaon, Pune, Maharashtra" }, "geometry": { "type": "Point", "coordinates": [ 73.9100642, 18.6059895 ] } },
{ "type": "Feature", "properties": { "ccd_name": "Stray Dogs - Unsterilised Dogs", "com_location": "forest road lohegaon om sai tea shop near by Garej, Pune, Maharashtra" }, "geometry": { "type": "Point", "coordinates": [ 73.9269807, 18.5066445 ] } },
{ "type": "Feature", "properties": { "ccd_name": "Others (Health H.O.)", "com_location": "samarth nagar rikshow socieity banglow no -4 gulab nagar , dhankawadi pune -43,  nr priyadarshini school. " }, "geometry": { "type": "Point", "coordinates": [ 73.852267, 18.461483 ] } },
{ "type": "Feature", "properties": { "ccd_name": "Stray Dogs - Unsterilised Dogs", "com_location": "Plot no-58-yashwant banglow , Bharat kunj -2 erandwane , Pune, Maharashtra" }, "geometry": { "type": "Point", "coordinates": [ 73.8246297, 18.5036418 ] } },
{ "type": "Feature", "properties": { "ccd_name": "Others (Health H.O.)", "com_location": "Dhanori Bio gas plant \r\nNear Prasun Savoy Society \r\nSurvey No. 22/2\r\nDhanori\r\nPune - 411015" }, "geometry": { "type": "Point", "coordinates": [ 73.893229, 18.5939915 ] } },
{ "type": "Feature", "properties": { "ccd_name": "other (Stray Dogs)", "com_location": "Unity park Kondhwa,pune." }, "geometry": { "type": "Point", "coordinates": [ 73.8841725, 18.4649069 ] } },
{ "type": "Feature", "properties": { "ccd_name": "Voilent / Suspected Rabies dogs", "com_location": "law college road behind kaveri hostel ambegaon bk next to hotel rangoli pune." }, "geometry": { "type": "Point", "coordinates": [ 73.8287313, 18.5142405 ] } },
{ "type": "Feature", "properties": { "ccd_name": "Treatment for Injured / Sick Dogs", "com_location": "Jambhulwadi road siddhivinayak society katraj , Pune, Maharashtra" }, "geometry": { "type": "Point", "coordinates": [ 73.8438802, 18.432781 ] } },
{ "type": "Feature", "properties": { "ccd_name": "Others (Health H.O.)", "com_location": "Plot no. 223, Lane no.16, SAAD Bunglow, Rajas Society, Katraj Kondwa Road, Katraj, Pune - 411046." }, "geometry": { "type": "Point", "coordinates": [ 73.866542, 18.4520964 ] } },
{ "type": "Feature", "properties": { "ccd_name": "Stray Dogs - Unsterilised Dogs", "com_location": " lohgaon mathade wasti,pune." }, "geometry": { "type": "Point", "coordinates": [ 73.9264296, 18.5971387 ] } },
{ "type": "Feature", "properties": { "ccd_name": "Voilent / Suspected Rabies dogs", "com_location": "santoshi sadan , sr no155/1, aundh gurudwar  pune " }, "geometry": { "type": "Point", "coordinates": [ 73.8104592, 18.564169 ] } },
{ "type": "Feature", "properties": { "ccd_name": "Voilent / Suspected Rabies dogs", "com_location": "6, Lane Number 5, Adarsh Colony, Tingre Nagar, Pune," }, "geometry": { "type": "Point", "coordinates": [ 73.8894509, 18.5759133 ] } },
{ "type": "Feature", "properties": { "ccd_name": "Stray Dogs - Unsterilised Dogs", "com_location": "Kumar pebble park B Bldg Co.op housing society handewadi road , hadapsar, Pune-28." }, "geometry": { "type": "Point", "coordinates": [ 73.9363495, 18.4751899 ] } },
{ "type": "Feature", "properties": { "ccd_name": "Stray Dogs - Unsterilised Dogs", "com_location": " Baner Pashan Link Road , Pune, Maharashtra" }, "geometry": { "type": "Point", "coordinates": [ 73.7912895, 18.5491346 ] } },
{ "type": "Feature", "properties": { "ccd_name": "Others (Health H.O.)", "com_location": "ha Ta miksa plAMTa yeravaDA , Pune, Maharashtra" }, "geometry": { "type": "Point", "coordinates": [ 73.879711, 18.5529226 ] } },
{ "type": "Feature", "properties": { "ccd_name": "Voilent / Suspected Rabies dogs", "com_location": "sukhasagAra nagara bhAga 2 madhya , gallI kramAMka 11, chAmuMDA svITa yA dukAnaM pAsuna te appara Depo kaDe jANARyA rastyAvara kAtraja, Pune, Maharashtra" }, "geometry": { "type": "Point", "coordinates": [ 73.865238, 18.4529322 ] } },
{ "type": "Feature", "properties": { "ccd_name": "hyacinth at river", "com_location": "mula river , Pune, Maharashtra" }, "geometry": { "type": "Point", "coordinates": [ 73.8786239, 18.5246091 ] } },
{ "type": "Feature", "properties": { "ccd_name": "Stray Dogs - Unsterilised Dogs", "com_location": "Kapil tranquil greens co op housing society baner pune" }, "geometry": { "type": "Point", "coordinates": [ 73.7948058, 18.561768 ] } },
{ "type": "Feature", "properties": { "ccd_name": "Others (Health H.O.)", "com_location": "Kothrud paud road Anand nagar building no 17, Pune, Maharashtra" }, "geometry": { "type": "Point", "coordinates": [ 73.7060383, 18.5054044 ] } },
{ "type": "Feature", "properties": { "ccd_name": "Voilent / Suspected Rabies dogs", "com_location": "Bhagyashree Nagar Society,Survey No. 638 Poonam Garden Lane Bibewadi 411037, Pune, Maharashtra" }, "geometry": { "type": "Point", "coordinates": [ 73.863861, 18.4635406 ] } },
{ "type": "Feature", "properties": { "ccd_name": "Others (Health H.O.)", "com_location": "Opposite to samriddhi apartment, Lane no -10, swami samarth Nagar, Sathe wasti, lohegaon, Pune, Maharashtra" }, "geometry": { "type": "Point", "coordinates": [ 73.9160107, 18.5999293 ] } },
{ "type": "Feature", "properties": { "ccd_name": "hyacinth at river", "com_location": "pAShANa talAvAtIla jalaparNI kADhAvyAta, Pune, Maharashtra" }, "geometry": { "type": "Point", "coordinates": [ 73.7923957, 18.5414267 ] } },
{ "type": "Feature", "properties": { "ccd_name": "Voilent / Suspected Rabies dogs", "com_location": "Kannu Ki Chai, Shop no - 2 / Simran Seashells, Opposite Nandatai Lonkar Public Park, Near Kotak Mahindra Bank, NIBM.\t, Pune, Maharashtra" }, "geometry": { "type": "Point", "coordinates": [ 73.9014039, 18.4795451 ] } },
{ "type": "Feature", "properties": { "ccd_name": "Others (Health H.O.)", "com_location": "In front of Saptashrungi Mata Mandir, Near Keshav Nagar Bus stop, and many more places in same area, Pune, Maharashtra" }, "geometry": { "type": "Point", "coordinates": [ 73.9440646, 18.5323976 ] } },
{ "type": "Feature", "properties": { "ccd_name": "Voilent / Suspected Rabies dogs", "com_location": "Sr No 23/1/1 Sterling Nisarg Phase 3 Flat No 05 Lane no 30/31 B Near Pavan Medical Dhayari Pune 411041." }, "geometry": { "type": "Point", "coordinates": [ 73.8131015, 18.4484569 ] } },
{ "type": "Feature", "properties": { "ccd_name": "Others (Health H.O.)", "com_location": "lakShmI nagara polIsa chaukI shrImAna ha la yeravaDA prabhAga kramAMka -6, Pune, Maharashtra" }, "geometry": { "type": "Point", "coordinates": [ 73.8821613, 18.550567 ] } },
{ "type": "Feature", "properties": { "ccd_name": "Stray Dogs - Unsterilised Dogs", "com_location": "Addr: Ashish Vihar, D P Road, Gananjay soc. Kothrud, Pune" }, "geometry": { "type": "Point", "coordinates": [ 73.8044905, 18.5020416 ] } },
{ "type": "Feature", "properties": { "ccd_name": "Others (Health H.O.)", "com_location": "Kharadi ,Eon Water Front, Pune 411014" }, "geometry": { "type": "Point", "coordinates": [ 73.9532489, 18.5479614 ] } },
{ "type": "Feature", "properties": { "ccd_name": "Stray Dogs - Unsterilised Dogs", "com_location": "anant park aundh sapnikar marg, mantri loan , Pune, Maharashtra" }, "geometry": { "type": "Point", "coordinates": [ 73.8031335, 18.5601649 ] } },
{ "type": "Feature", "properties": { "ccd_name": "Voilent / Suspected Rabies dogs", "com_location": "koMDhavA khurda,navAjisha  chauka, Pune, Maharashtra" }, "geometry": { "type": "Point", "coordinates": [ 73.8786239, 18.5246091 ] } },
{ "type": "Feature", "properties": { "ccd_name": "Voilent / Suspected Rabies dogs", "com_location": "sandhyadip apartment lane no 3 sukhsagar nagar raj tower, Pune, Maharashtra" }, "geometry": { "type": "Point", "coordinates": [ 73.8712886, 18.4530668 ] } },
{ "type": "Feature", "properties": { "ccd_name": "Stray Dogs - Unsterilised Dogs", "com_location": "AShiyana park 2 near gaikwad petrol pump, Pune, Maharashtra" }, "geometry": { "type": "Point", "coordinates": [ 73.8033704, 18.5574174 ] } },
{ "type": "Feature", "properties": { "ccd_name": "other (Stray Dogs)", "com_location": "Sr No.44/4 Lane no 1 Vadachi Wadi road  Bandal Vasati  Unadri  Pune 60\r\n\r\n" }, "geometry": { "type": "Point", "coordinates": [ 73.9186318, 18.440314 ] } },
{ "type": "Feature", "properties": { "ccd_name": "Stray Dogs - Unsterilised Dogs", "com_location": "Shivaji nagar near pmc building joshi wadwale lane , Pune, Maharashtra" }, "geometry": { "type": "Point", "coordinates": [ 73.853071, 18.5238084 ] } },
{ "type": "Feature", "properties": { "ccd_name": "Stray Dogs - Unsterilised Dogs", "com_location": "Somnathnagar Pune 411014" }, "geometry": { "type": "Point", "coordinates": [ 73.9216532, 18.5581835 ] } },
{ "type": "Feature", "properties": { "ccd_name": "Voilent / Suspected Rabies dogs", "com_location": " A sourh indian, Biryani, mulit cousine, Amrutulya Tea stall.Bavedhan Pashan Road, Pune, Maharashtra" }, "geometry": { "type": "Point", "coordinates": [ 73.7746216, 18.5168105 ] } },
{ "type": "Feature", "properties": { "ccd_name": "Stray Dogs - Unsterilised Dogs", "com_location": "Sr no 16 chandrai srushti sr no 16 flat no 402 ambegaon pathar, Pune, Maharashtra" }, "geometry": { "type": "Point", "coordinates": [ 73.8391884, 18.461036 ] } },
{ "type": "Feature", "properties": { "ccd_name": "Others (Health H.O.)", "com_location": "Sharada Sahakari Bank\r\nA-4 Kothari Blocks, \r\nNirant Society, \r\n Bibvewadi Pune- 411037" }, "geometry": { "type": "Point", "coordinates": [ 73.8577526, 18.4877703 ] } },
{ "type": "Feature", "properties": { "ccd_name": "Related to PMC Hospital, Treatment and Staff", "com_location": "rA. 322, navIpeTha, puNe-30. kalAvatIbAI mAvaLe davAkhAnyAta " }, "geometry": { "type": "Point", "coordinates": [ 73.8378329, 18.5053869 ] } },
{ "type": "Feature", "properties": { "ccd_name": "Others (Health H.O.)", "com_location": "1305, SHUKRAWAR PETH,PUNE 4110002." }, "geometry": { "type": "Point", "coordinates": [ 73.8567002, 18.5083204 ] } },
{ "type": "Feature", "properties": { "ccd_name": "Treatment for Injured / Sick Dogs", "com_location": "Shree Parshwa Nagar Society, Hagawane Nagar Rd, Near VIIT College Ground, Kapil Nagar, Kondhwa Budruk, Pune, Maharashtra 411048" }, "geometry": { "type": "Point", "coordinates": [ 73.8820062, 18.4598434 ] } },
{ "type": "Feature", "properties": { "ccd_name": "Others (Health H.O.)", "com_location": "347 Ulhasnagar,13 tadiwala road,, Pune, Maharashtra" }, "geometry": { "type": "Point", "coordinates": [ 73.873548, 18.5368902 ] } },
{ "type": "Feature", "properties": { "ccd_name": "Voilent / Suspected Rabies dogs", "com_location": "Flat no 57 Building no 3 Sampada Society Near Shilpa Medical Ganj Peth, Pune, " }, "geometry": { "type": "Point", "coordinates": [ 73.8655024, 18.5093433 ] } },
{ "type": "Feature", "properties": { "ccd_name": "other (Stray Dogs)", "com_location": "446/B1 hasbnis bakal shaniwar peth pune " }, "geometry": { "type": "Point", "coordinates": [ 73.8527145, 18.5187562 ] } },
{ "type": "Feature", "properties": { "ccd_name": "Related to PMC Hospital, Treatment and Staff", "com_location": "Rajiv Gandhi hospital yerawada, Pune, Maharashtra" }, "geometry": { "type": "Point", "coordinates": [ 73.883790500000018, 18.5455505 ] } },
{ "type": "Feature", "properties": { "ccd_name": "Stray Dogs - Unsterilised Dogs", "com_location": " Crystal Gardens/Towers on Baner-Pashan Link Road., Pune, Maharashtra" }, "geometry": { "type": "Point", "coordinates": [ 73.794267, 18.550154 ] } },
{ "type": "Feature", "properties": { "ccd_name": "Stray Dogs - Unsterilised Dogs", "com_location": "shreekrishn housing society pla Ta  number 6  niyata Kalyani hospital chaMdananagara pUNe 411014" }, "geometry": { "type": "Point", "coordinates": [ 73.933594, 18.5601219 ] } },
{ "type": "Feature", "properties": { "ccd_name": "Air/Sound Pollution dute to Machinary", "com_location": "Gulmohar Helios, Tukaram Nagar, Kharadi, Pune, Maharashtra" }, "geometry": { "type": "Point", "coordinates": [ 73.9326882, 18.5499806 ] } },
{ "type": "Feature", "properties": { "ccd_name": "Stray Dogs - Unsterilised Dogs", "com_location": "Ashirvad park,front of ashirwad society,udyam nagar,pune 411001." }, "geometry": { "type": "Point", "coordinates": [ 73.9842014, 18.5810744 ] } },
{ "type": "Feature", "properties": { "ccd_name": "Others (Health H.O.)", "com_location": "At Yewalewadi MNP school, Pune, Maharashtra" }, "geometry": { "type": "Point", "coordinates": [ 73.9051185, 18.4462026 ] } },
{ "type": "Feature", "properties": { "ccd_name": "Air/Sound Pollution dute to Machinary", "com_location": "radiant industry, Tukaram nagar, Pune, Maharashtra" }, "geometry": { "type": "Point", "coordinates": [ 73.9328455, 18.5499933 ] } },
{ "type": "Feature", "properties": { "ccd_name": "other (Stray Dogs)", "com_location": "Sakore Nagar, specially Behind Nexa Showroom lane,, Pune, Maharashtra" }, "geometry": { "type": "Point", "coordinates": [ 73.906907, 18.5621686 ] } },
{ "type": "Feature", "properties": { "ccd_name": "Stray Dogs - Unsterilised Dogs", "com_location": "307 SOMWAR PETH SAMPADA NAGRI PUNE" }, "geometry": { "type": "Point", "coordinates": [ 73.865721, 18.5215146 ] } },
{ "type": "Feature", "properties": { "ccd_name": "Stray Dogs - Unsterilised Dogs", "com_location": "Lane no 4 near mataji medical dake chowk sukhsagar nagar bhag 1 katraj pune 46" }, "geometry": { "type": "Point", "coordinates": [ 73.8664803, 18.4580424 ] } },
{ "type": "Feature", "properties": { "ccd_name": "Voilent / Suspected Rabies dogs", "com_location": "shanivAra peTheta shiMdepAra chaukAjavaLa, Pune, Maharashtra" }, "geometry": { "type": "Point", "coordinates": [ 73.8786239, 18.5246091 ] } },
{ "type": "Feature", "properties": { "ccd_name": "other (Stray Dogs)", "com_location": "Inside Kubera Garden Society, NIBM Rd, near jashan hotel, Pune, Maharashtra 411048" }, "geometry": { "type": "Point", "coordinates": [ 73.8959184, 18.4770284 ] } },
{ "type": "Feature", "properties": { "ccd_name": "Stray Dogs - Unsterilised Dogs", "com_location": "nisarga hAITsa, nyU erA sosAyaTI,gaMgAdhAma, mArkeTa yArDa,puNe 37\t" }, "geometry": { "type": "Point", "coordinates": [ 73.8786239, 18.5246091 ] } },
{ "type": "Feature", "properties": { "ccd_name": "Others (Health H.O.)", "com_location": "Solitaire Premier, new construction site near Gangadham chowk's rickshaw stand on road going to Aaeee mata mandir., Pune, Maharashtra" }, "geometry": { "type": "Point", "coordinates": [ 73.8727567, 18.4800681 ] } },
{ "type": "Feature", "properties": { "ccd_name": "Voilent / Suspected Rabies dogs", "com_location": "Balaji Temple area Pashan,road towards Sukhwani Saffron and Priyadarshan Society, Pune, Maharashtra" }, "geometry": { "type": "Point", "coordinates": [ 73.7923957, 18.5414267 ] } },
{ "type": "Feature", "properties": { "ccd_name": "Voilent / Suspected Rabies dogs", "com_location": "sinhagad College Campus Vadgaon br ajinkyatara society k9 fitness club pune 41" }, "geometry": { "type": "Point", "coordinates": [ 73.8337932, 18.470863 ] } },
{ "type": "Feature", "properties": { "ccd_name": "Stray Dogs - Unsterilised Dogs", "com_location": "near bhapakar petrol pump  swargate \r\n\r\nlocation 2 aarnyashwar, Pune, Maharashtra" }, "geometry": { "type": "Point", "coordinates": [ 73.8532555, 18.4859042 ] } },
{ "type": "Feature", "properties": { "ccd_name": "Voilent / Suspected Rabies dogs", "com_location": "Pushpak Park near Lane 4, Off ITI Road, Aundh, Pune 7" }, "geometry": { "type": "Point", "coordinates": [ 73.8097266, 18.5531984 ] } },
{ "type": "Feature", "properties": { "ccd_name": "Others (Health H.O.)", "com_location": "dr karne 8/4 krushna chember teres pasun kahlprynt, Pune, Maharashtra" }, "geometry": { "type": "Point", "coordinates": [ 73.824115, 18.6381171 ] } },
{ "type": "Feature", "properties": { "ccd_name": "Stray Dogs - Unsterilised Dogs", "com_location": "Vadgaon sheri balaji nagar lane no 2 near gurudwara , Pune, Maharashtra" }, "geometry": { "type": "Point", "coordinates": [ 73.9235375, 18.542742 ] } },
{ "type": "Feature", "properties": { "ccd_name": "Others (Health H.O.)", "com_location": "Warje Vada paav center., Pune, Maharashtra" }, "geometry": { "type": "Point", "coordinates": [ 73.7939476, 18.4880327 ] } },
{ "type": "Feature", "properties": { "ccd_name": "Stray Dogs - Unsterilised Dogs", "com_location": "Ambegaon bk Gaymukh chowk mahalaxmi building , Pune, Maharashtra" }, "geometry": { "type": "Point", "coordinates": [ 73.8380934, 18.4490639 ] } },
{ "type": "Feature", "properties": { "ccd_name": "Others (Health H.O.)", "com_location": "behind Ekalavya collage saptsur building near  heram chya mdhe pune " }, "geometry": { "type": "Point", "coordinates": [ 73.8644648, 18.517871 ] } },
{ "type": "Feature", "properties": { "ccd_name": "Stray Dogs - Unsterilised Dogs", "com_location": "ajiMkyatArA sosAyaTI vaDagAva budruka , siMhagaDa ka leja javaLa, Pune, Maharashtra" }, "geometry": { "type": "Point", "coordinates": [ 73.9531189, 18.5646495 ] } },
{ "type": "Feature", "properties": { "ccd_name": "Others (Health H.O.)", "com_location": "l on Southern direction of Dhayari., Pune, Maharashtra" }, "geometry": { "type": "Point", "coordinates": [ 73.8101999, 18.4471444 ] } },
{ "type": "Feature", "properties": { "ccd_name": "hyacinth at river", "com_location": "BHAU PATIL ROAD KUNDAN PARADIES BOPODI AUND PUNE " }, "geometry": { "type": "Point", "coordinates": [ 73.8331896, 18.5719872 ] } },
{ "type": "Feature", "properties": { "ccd_name": "other (Stray Dogs)", "com_location": "Railway crossing near amba mata mandir kale padal surve no 41 , Pune, Maharashtra" }, "geometry": { "type": "Point", "coordinates": [ 73.9433299, 18.4869571 ] } },
{ "type": "Feature", "properties": { "ccd_name": "Stray Dogs - Unsterilised Dogs", "com_location": "178 chetna building deccan college road near gurudwara dashmesh darbar yerawada pune 411006." }, "geometry": { "type": "Point", "coordinates": [ 73.8740337, 18.5459101 ] } },
{ "type": "Feature", "properties": { "ccd_name": "Others (Health H.O.)", "com_location": "Sr no-28, plot no-11, house no-200, balkrishna housing society, akshay nagar, near bsnl telephone exchange, , Pune, Maharashtra" }, "geometry": { "type": "Point", "coordinates": [ 73.8544034, 18.4612406 ] } },
{ "type": "Feature", "properties": { "ccd_name": "Stray Dogs - Unsterilised Dogs", "com_location": "prabhAta roDa, gallI naMbara 12 puNe 411004, jo rastA walk way kaDe jAto tithe" }, "geometry": { "type": "Point", "coordinates": [ 73.8353471, 18.5140064 ] } },
{ "type": "Feature", "properties": { "ccd_name": "Others (Health H.O.)", "com_location": "Flat No. 301 Basil Homes Phase -2, Behind Hotel Gokul Kondhwa Budruk Pune - 411048 " }, "geometry": { "type": "Point", "coordinates": [ 73.8670914, 18.4717965 ] } },
{ "type": "Feature", "properties": { "ccd_name": "Others (Health H.O.)", "com_location": "Gajanandeep Sahakari Gruhrachana Sanstha Maryadit.\r\nS/N 148/17 A/3, \r\nRaikar Nagar, Lane No A-20, Near Murli Veg. Restaurant.\r\nDhayari,  Pune - 411041" }, "geometry": { "type": "Point", "coordinates": [ 73.9194277, 18.5591681 ] } },
{ "type": "Feature", "properties": { "ccd_name": "hyacinth at river", "com_location": " B-201, Gera Misty waters, Keshav nagar, Pune, Maharashtra" }, "geometry": { "type": "Point", "coordinates": [ 73.9440646, 18.5323976 ] } },
{ "type": "Feature", "properties": { "ccd_name": "other (Stray Dogs)", "com_location": "baner pashan link road near saffron hotel pashan pune" }, "geometry": { "type": "Point", "coordinates": [ 73.7911009, 18.5480592 ] } },
{ "type": "Feature", "properties": { "ccd_name": "Others (Health H.O.)", "com_location": "lonavt classick , ICS Colony,   bhosale nagar Lunawat Classic\r\n, Pune, Maharashtra 411007" }, "geometry": { "type": "Point", "coordinates": [ 73.831559, 18.542538 ] } },
{ "type": "Feature", "properties": { "ccd_name": "Voilent / Suspected Rabies dogs", "com_location": "collage of aggriculture, shivaji nagar 411005\r\n, Pune, Maharashtra" }, "geometry": { "type": "Point", "coordinates": [ 73.8441307, 18.5365646 ] } },
{ "type": "Feature", "properties": { "ccd_name": "Others (Health H.O.)", "com_location": "shivAjInagara yethe ubhAraNyAta AlelyA jaMbo kavIDa seMTaramadhye , Pune, Maharashtra" }, "geometry": { "type": "Point", "coordinates": [ 73.8498588, 18.530263 ] } },
{ "type": "Feature", "properties": { "ccd_name": "Stray Dogs - Unsterilised Dogs", "com_location": " shivaji lane number 1, Khese park, Lohegaon,, Pune, Maharashtra" }, "geometry": { "type": "Point", "coordinates": [ 73.9115225, 18.5889284 ] } },
{ "type": "Feature", "properties": { "ccd_name": "Stray Dogs - Unsterilised Dogs", "com_location": "38 park majestic, undri, Pune, Maharashtra" }, "geometry": { "type": "Point", "coordinates": [ 73.9186315, 18.4464582 ] } },
{ "type": "Feature", "properties": { "ccd_name": "Voilent / Suspected Rabies dogs", "com_location": "Green City, Satavnagar, Handewadi Road, Hadapsar, Pune - 411028" }, "geometry": { "type": "Point", "coordinates": [ 73.934142, 18.475679 ] } },
{ "type": "Feature", "properties": { "ccd_name": "Others (Health H.O.)", "com_location": "102/goodwill enclave road no 9B kalyani nagar pune 14" }, "geometry": { "type": "Point", "coordinates": [ 73.9043995, 18.5488441 ] } },
{ "type": "Feature", "properties": { "ccd_name": "Stray Dogs - Unsterilised Dogs", "com_location": " behind chaitnya hospital, bhagirathi nagar, warje malwadi, pune 411058" }, "geometry": { "type": "Point", "coordinates": [ 73.7978537, 18.4779456 ] } },
{ "type": "Feature", "properties": { "ccd_name": "Stray Dogs - Unsterilised Dogs", "com_location": "madhukamal nagar paud road vanaas cornar near pdcc bank shivtirth nagaqr bajuchi gali , Pune, Maharashtra" }, "geometry": { "type": "Point", "coordinates": [ 73.8084409, 18.5089025 ] } },
{ "type": "Feature", "properties": { "ccd_name": "Voilent / Suspected Rabies dogs", "com_location": "Internal Road Kumar Primavera \r\nSainath Nagar, Pune, Maharashtra" }, "geometry": { "type": "Point", "coordinates": [ 73.9280856, 18.5396706 ] } },
{ "type": "Feature", "properties": { "ccd_name": "Stray Dogs - Unsterilised Dogs", "com_location": "in Camellia Apts, Baner Pashan link road., Pune, Maharashtra" }, "geometry": { "type": "Point", "coordinates": [ 73.7908416, 18.5512538 ] } },
{ "type": "Feature", "properties": { "ccd_name": "Stray Dogs - Unsterilised Dogs", "com_location": "Post and telephone colony gultekdi pune 37" }, "geometry": { "type": "Point", "coordinates": [ 73.8704877, 18.4877372 ] } },
{ "type": "Feature", "properties": { "ccd_name": "Others (Health H.O.)", "com_location": "Apollo Clinic\r\nGround Nyati Millenium Premises S1 Datta Mandir Chowk, Viman Nagar, Pune, Maharashtra 411014" }, "geometry": { "type": "Point", "coordinates": [ 73.9138467, 18.5644372 ] } },
{ "type": "Feature", "properties": { "ccd_name": "Stray Dogs - Unsterilised Dogs", "com_location": "housing board yerwada pune " }, "geometry": { "type": "Point", "coordinates": [ 73.896665, 18.561766 ] } },
{ "type": "Feature", "properties": { "ccd_name": "Others (Health H.O.)", "com_location": ",haDapasara bhAjI maMDaI madhye haDapasara, Pune, Maharashtra" }, "geometry": { "type": "Point", "coordinates": [ 73.8840522, 18.547189 ] } },
{ "type": "Feature", "properties": { "ccd_name": "Stray Dogs - Unsterilised Dogs", "com_location": "zala complex, market yard, bibwewadi kondhva road, Pune, Maharashtra" }, "geometry": { "type": "Point", "coordinates": [ 73.86793, 18.480874 ] } },
{ "type": "Feature", "properties": { "ccd_name": "Voilent / Suspected Rabies dogs", "com_location": "shAsakIya mAhilA rAjya graha bharatIya sTeTa ba.Nka samora muMDhavA shAkhA puNe 411036" }, "geometry": { "type": "Point", "coordinates": [ 73.9370923, 18.5332622 ] } },
{ "type": "Feature", "properties": { "ccd_name": "Others (Health H.O.)", "com_location": "Kapil wood road,estate housing society,azad nagar,rubby house azad nagar wanwadi,pune 411022." }, "geometry": { "type": "Point", "coordinates": [ 73.9058534, 18.4858699 ] } },
{ "type": "Feature", "properties": { "ccd_name": "Voilent / Suspected Rabies dogs", "com_location": "Bhagyodaya nagar road near bhairavnath Mandir   Kondhwa Pune 411048" }, "geometry": { "type": "Point", "coordinates": [ 73.8845438, 18.4726594 ] } },
{ "type": "Feature", "properties": { "ccd_name": "Voilent / Suspected Rabies dogs", "com_location": "New ms colony tingare nagar airport road pune" }, "geometry": { "type": "Point", "coordinates": [ 73.896175, 18.5748918 ] } },
{ "type": "Feature", "properties": { "ccd_name": "Others (Health H.O.)", "com_location": "Kyrish, PlotNo 35, S No 253, Shivaji Road, Lane 1, Khese Park, Pune 411032" }, "geometry": { "type": "Point", "coordinates": [ 73.912524, 18.5907024 ] } },
{ "type": "Feature", "properties": { "ccd_name": "Stray Dogs - Unsterilised Dogs", "com_location": "Arun kumar vaidya stadium udyan nagar society near suma center, Pune, Maharashtra" }, "geometry": { "type": "Point", "coordinates": [ 73.8320259, 18.5036816 ] } },
{ "type": "Feature", "properties": { "ccd_name": "Stray Dogs - Unsterilised Dogs", "com_location": "Gurudatta colony bhekrai nagar pune" }, "geometry": { "type": "Point", "coordinates": [ 73.9540808, 18.4860275 ] } },
{ "type": "Feature", "properties": { "ccd_name": "other (Stray Dogs)", "com_location": "hirAmaNa banakara shALA , lena naMbara 6  ,sukha sAgara nagara   gajAnana mahArAja maTha puNe 411046" }, "geometry": { "type": "Point", "coordinates": [ 73.8786239, 18.5246091 ] } },
{ "type": "Feature", "properties": { "ccd_name": "Air/Sound Pollution dute to Machinary", "com_location": "at Costn site of Hospital Bldg for M.I.T. Organisation next to MIT school near Mahaganesh colony,Paud Rd, kothrud area., Pune, Maharashtra" }, "geometry": { "type": "Point", "coordinates": [ 73.820586, 18.5086883 ] } },
{ "type": "Feature", "properties": { "ccd_name": "hyacinth at river", "com_location": "Near Bhau Patil Patil Road, Bopodi, Pune 411020" }, "geometry": { "type": "Point", "coordinates": [ 73.8321013, 18.5682809 ] } },
{ "type": "Feature", "properties": { "ccd_name": "Stray Dogs - Unsterilised Dogs", "com_location": "Maharshinagar backside of rohit wadewale , Pune, Maharashtra" }, "geometry": { "type": "Point", "coordinates": [ 73.8666205, 18.489687 ] } },
{ "type": "Feature", "properties": { "ccd_name": "Voilent / Suspected Rabies dogs", "com_location": "Dhyarai near kailas jeevan factory, Pune, Maharashtra" }, "geometry": { "type": "Point", "coordinates": [ 73.9325006, 18.5621498 ] } },
{ "type": "Feature", "properties": { "ccd_name": "Stray Dogs - Unsterilised Dogs", "com_location": "Ketan Niwas Society behind Shayadri Hospital, Bibwewadi, Pune, Maharashtra" }, "geometry": { "type": "Point", "coordinates": [ 73.8625012, 18.4783635 ] } },
{ "type": "Feature", "properties": { "ccd_name": "other (Stray Dogs)", "com_location": "a 502 ,Om Megsparsh Housing Society,Bibewadi Pune in front of Opposite Yash Lawns" }, "geometry": { "type": "Point", "coordinates": [ 73.8630709, 18.4796058 ] } },
{ "type": "Feature", "properties": { "ccd_name": "Stray Dogs - Unsterilised Dogs", "com_location": "raghob patil ngr,  balaji traders, kharadi , Pune, Maharashtra" }, "geometry": { "type": "Point", "coordinates": [ 73.9342239, 18.5389641 ] } },
{ "type": "Feature", "properties": { "ccd_name": "Stray Dogs - Unsterilised Dogs", "com_location": "shantiraks society behind ishannya mall yerawada , Pune, Maharashtra" }, "geometry": { "type": "Point", "coordinates": [ 73.8947939, 18.5579585 ] } },
{ "type": "Feature", "properties": { "ccd_name": "hyacinth at river", "com_location": "GHERA MISTI WATERS SILVER FAN RAOD KESHAV NAGAR MUNDHWA PUNE " }, "geometry": { "type": "Point", "coordinates": [ 73.9570345, 18.5212272 ] } },
{ "type": "Feature", "properties": { "ccd_name": "Stray Dogs - Unsterilised Dogs", "com_location": "harinagara sarvhe naM 17/2 a kalyANI nagara bishapa shALe samora vaDagAva sherI puNe 14" }, "geometry": { "type": "Point", "coordinates": [ 73.911354, 18.544545 ] } },
{ "type": "Feature", "properties": { "ccd_name": "Voilent / Suspected Rabies dogs", "com_location": "Munjaba wasti Lohagaon road no 9, Pune, Maharashtra" }, "geometry": { "type": "Point", "coordinates": [ 73.8894716, 18.5740026 ] } },
{ "type": "Feature", "properties": { "ccd_name": "Stray Dogs - Unsterilised Dogs", "com_location": "Mahavir english medium school,salisbury park,pune 411037." }, "geometry": { "type": "Point", "coordinates": [ 73.8713229, 18.4939776 ] } },
{ "type": "Feature", "properties": { "ccd_name": "Others (Health H.O.)", "com_location": "Pune Municipal corporation" }, "geometry": { "type": "Point", "coordinates": [ 73.8536109, 18.5233716 ] } },
{ "type": "Feature", "properties": { "ccd_name": "Stray Dogs - Unsterilised Dogs", "com_location": "gaNapatI maMdira parisara, bhAjI maMDaI, chaMdana nagara, puNe 411014" }, "geometry": { "type": "Point", "coordinates": [ 73.9289613, 18.6006614 ] } },
{ "type": "Feature", "properties": { "ccd_name": "other (Stray Dogs)", "com_location": "O2-301 Kumar Picasso, sade satra nali, Hadapsar pune 411028" }, "geometry": { "type": "Point", "coordinates": [ 73.941586500000014, 18.5107219 ] } },
{ "type": "Feature", "properties": { "ccd_name": "other (Stray Dogs)", "com_location": "opp naidu hospital irecen colony pune " }, "geometry": { "type": "Point", "coordinates": [ 73.869015, 18.5313603 ] } },
{ "type": "Feature", "properties": { "ccd_name": "Stray Dogs - Unsterilised Dogs", "com_location": "21/1 Ranakpur darshan Alandi road near mamta hospital, Yerwada, pune 411006" }, "geometry": { "type": "Point", "coordinates": [ 73.8788134, 18.567821 ] } },
{ "type": "Feature", "properties": { "ccd_name": "Stray Dogs - Unsterilised Dogs", "com_location": "kalwad wasti diomond wall javal lohegaon road pune " }, "geometry": { "type": "Point", "coordinates": [ 73.9070701, 18.5856344 ] } },
{ "type": "Feature", "properties": { "ccd_name": "Others (Health H.O.)", "com_location": "shree sai data nagar society survey no 7 room no 98 taljaipathar dhankwadi \r\nDatta mandir, Pune, Maharashtra" }, "geometry": { "type": "Point", "coordinates": [ 73.9520851, 18.4796469 ] } },
{ "type": "Feature", "properties": { "ccd_name": "Voilent / Suspected Rabies dogs", "com_location": "Ganga arcadia complex bldg no B kharadi  , Pune, Maharashtra" }, "geometry": { "type": "Point", "coordinates": [ 73.936074, 18.5418787 ] } },
{ "type": "Feature", "properties": { "ccd_name": "Stray Dogs - Unsterilised Dogs", "com_location": "sarve naM34/13/2, marAThA sosAyaTI, dhanakavaDI puNe 411043 " }, "geometry": { "type": "Point", "coordinates": [ 73.8564117, 18.4654778 ] } },
{ "type": "Feature", "properties": { "ccd_name": "Others (Health H.O.)", "com_location": " Shri Bhagwati Nagar Row House, Sutarwadi Road, Opposite Pashan Water Pump, Pashan, Pune - 21" }, "geometry": { "type": "Point", "coordinates": [ 73.7898348, 18.5370271 ] } },
{ "type": "Feature", "properties": { "ccd_name": "Air/Sound Pollution dute to Machinary", "com_location": "Airport road, Next to Rohan Mithila E1-E9 society, Viman Nagar\r\n, Pune, Maharashtra" }, "geometry": { "type": "Point", "coordinates": [ 73.9068231, 18.5726652 ] } },
{ "type": "Feature", "properties": { "ccd_name": "other (Stray Dogs)", "com_location": "Junaid from Unity Park. Kondwa., Pune, Maharashtra" }, "geometry": { "type": "Point", "coordinates": [ 73.8841725, 18.4649069 ] } },
{ "type": "Feature", "properties": { "ccd_name": "other (Stray Dogs)", "com_location": "khese park lane number 18 pune " }, "geometry": { "type": "Point", "coordinates": [ 73.9094254, 18.5907021 ] } },
{ "type": "Feature", "properties": { "ccd_name": "Others (Health H.O.)", "com_location": "Chesterfield building Dhanori, Pune, Maharashtra" }, "geometry": { "type": "Point", "coordinates": [ 73.8981999, 18.6078525 ] } },
{ "type": "Feature", "properties": { "ccd_name": "Others (Health H.O.)", "com_location": "aeropolis,phese-2,e-bld, porwal road lohegaon , Pune, Maharashtra" }, "geometry": { "type": "Point", "coordinates": [ 73.9118337, 18.6046749 ] } },
{ "type": "Feature", "properties": { "ccd_name": "Others (Health H.O.)", "com_location": "Premchand Oswal Hospital PMCG, Bibwevadi, Pune, Maharashtra" }, "geometry": { "type": "Point", "coordinates": [ 73.8683026, 18.4676832 ] } },
{ "type": "Feature", "properties": { "ccd_name": "hyacinth at river", "com_location": "kAtraja jhU talAvAta, Pune, Maharashtra" }, "geometry": { "type": "Point", "coordinates": [ 73.865238, 18.4529322 ] } },
{ "type": "Feature", "properties": { "ccd_name": "Stray Dogs - Unsterilised Dogs", "com_location": "susa roDa, pAShANa yethe vighnahartA chauka te pAShANa TekaDI , Pune, Maharashtra" }, "geometry": { "type": "Point", "coordinates": [ 73.8119094, 18.4929707 ] } },
{ "type": "Feature", "properties": { "ccd_name": "Voilent / Suspected Rabies dogs", "com_location": "406, rasta peth opp ornelas highschool, , Pune, Maharashtra" }, "geometry": { "type": "Point", "coordinates": [ 73.8708103, 18.517338 ] } },
{ "type": "Feature", "properties": { "ccd_name": "Stray Dogs - Unsterilised Dogs", "com_location": "Taratarun society domkhel road oppsite raisoni collage  , Pune, Maharashtra" }, "geometry": { "type": "Point", "coordinates": [ 73.8786239, 18.5246091 ] } },
{ "type": "Feature", "properties": { "ccd_name": "Voilent / Suspected Rabies dogs", "com_location": "bANera roDa yAThikANI pesTa  pha iMdora dukAna, Pune, Maharashtra" }, "geometry": { "type": "Point", "coordinates": [ 73.8940297, 18.5747175 ] } },
{ "type": "Feature", "properties": { "ccd_name": "Others (Health H.O.)", "com_location": "sarve.naM. 27 , gallI. naM .15 chyA samora , mojheshALejavaLa , dhAnorI , puNe - 15" }, "geometry": { "type": "Point", "coordinates": [ 73.896851, 18.5967587 ] } },
{ "type": "Feature", "properties": { "ccd_name": "hyacinth at river", "com_location": "kharADI yethIla muLA muThA nadIvarIla, Pune, Maharashtra" }, "geometry": { "type": "Point", "coordinates": [ 73.9476257, 18.5539311 ] } },
{ "type": "Feature", "properties": { "ccd_name": "Stray Dogs - Unsterilised Dogs", "com_location": "aruNodaya sosAyaTI  taLajAI paThara. sarvhe.no. 8 dhanakavaDI, Pune, Maharashtra" }, "geometry": { "type": "Point", "coordinates": [ 73.848225, 18.4705615 ] } },
{ "type": "Feature", "properties": { "ccd_name": "Stray Dogs - Unsterilised Dogs", "com_location": "1278, subhash nagar, lane -6, shukrwar peth , Pune, Maharashtra" }, "geometry": { "type": "Point", "coordinates": [ 73.8549058, 18.5058541 ] } },
{ "type": "Feature", "properties": { "ccd_name": "other (Stray Dogs)", "com_location": "ramyAnagarI hausiMga sosAyaTI,bibavevADI puNe 411037." }, "geometry": { "type": "Point", "coordinates": [ 73.8628565, 18.4764406 ] } },
{ "type": "Feature", "properties": { "ccd_name": "Stray Dogs - Unsterilised Dogs", "com_location": "Pinag colony near vitthal mandir karve nagar , Pune, Maharashtra" }, "geometry": { "type": "Point", "coordinates": [ 73.8229855, 18.490846 ] } },
{ "type": "Feature", "properties": { "ccd_name": "Stray Dogs - Unsterilised Dogs", "com_location": "sadara  ThikANI bhaTakI kutrI Aheta tyAMnA  nasabaMdI karaNyAta yAve hi vinaMtI., Pune, Maharashtra" }, "geometry": { "type": "Point", "coordinates": [ 73.8786239, 18.5246091 ] } },
{ "type": "Feature", "properties": { "ccd_name": "Stray Dogs - Unsterilised Dogs", "com_location": "sukhsagar nagar bhag 2 ,jai bhavani soc lane no 11,upper depo road near nirmala vihar building katraj 46\r\n, Pune, Maharashtra" }, "geometry": { "type": "Point", "coordinates": [ 73.8545345, 18.4392727 ] } },
{ "type": "Feature", "properties": { "ccd_name": "Stray Dogs - Unsterilised Dogs", "com_location": "ganesh nagar silver cresent society pune " }, "geometry": { "type": "Point", "coordinates": [ 73.8786239, 18.5246091 ] } },
{ "type": "Feature", "properties": { "ccd_name": "Voilent / Suspected Rabies dogs", "com_location": "S. No. 37,sai colony, colony no. 10,kale borate nagar, hadapsar, pune " }, "geometry": { "type": "Point", "coordinates": [ 73.9424003, 18.4829889 ] } },
{ "type": "Feature", "properties": { "ccd_name": "Stray Dogs - Unsterilised Dogs", "com_location": "Yash lawns bibwewadi , Pune, Maharashtra" }, "geometry": { "type": "Point", "coordinates": [ 73.8645809, 18.478764 ] } },
{ "type": "Feature", "properties": { "ccd_name": "Others (Health H.O.)", "com_location": "Sujit Gandhi 17/2 shiv Prasad housing society ganesh mala sinhagad road pune" }, "geometry": { "type": "Point", "coordinates": [ 73.8033639, 18.4571619 ] } },
{ "type": "Feature", "properties": { "ccd_name": "Voilent / Suspected Rabies dogs", "com_location": "sAInAtha sosAyaTI, bopoDI yethe , Pune, Maharashtra" }, "geometry": { "type": "Point", "coordinates": [ 73.8350831, 18.5709235 ] } },
{ "type": "Feature", "properties": { "ccd_name": "Voilent / Suspected Rabies dogs", "com_location": "Vidya nagar katraj kondhwa road Near Vishwa gym, Pune, Maharashtra" }, "geometry": { "type": "Point", "coordinates": [ 73.8747982, 18.4498089 ] } },
{ "type": "Feature", "properties": { "ccd_name": "Air/Sound Pollution dute to Machinary", "com_location": "in Murlidhar Laigude hospital, Pune, Maharashtra" }, "geometry": { "type": "Point", "coordinates": [ 73.8048944, 18.4624722 ] } },
{ "type": "Feature", "properties": { "ccd_name": "Stray Dogs - Unsterilised Dogs", "com_location": " sa. na. 64/1,  ba/4, abhiSheka apArTameMTa, siMhagaDa rastA, vaDagAva budruka, suvAsinI maMgala kAryAlayAsamora, abhiruchI ma la javaLa,  puNe 411041.  " }, "geometry": { "type": "Point", "coordinates": [ 73.815159, 18.463132 ] } },
{ "type": "Feature", "properties": { "ccd_name": "Voilent / Suspected Rabies dogs", "com_location": "flat no :B01 Mansha appartment cristal honda,wagoli, Pune, Maharashtra" }, "geometry": { "type": "Point", "coordinates": [ 73.9754651, 18.5792497 ] } },
{ "type": "Feature", "properties": { "ccd_name": "Others (Health H.O.)", "com_location": "gaNesha mArkeTa hausiMga sosAyaTI, mArkeTayArDa, bibavevADI-koMDhavA roDa, puNe -411037." }, "geometry": { "type": "Point", "coordinates": [ 73.9531189, 18.5646495 ] } },
{ "type": "Feature", "properties": { "ccd_name": "Voilent / Suspected Rabies dogs", "com_location": "Wonder city sr no 75 pushpa embroide building Katraj pune " }, "geometry": { "type": "Point", "coordinates": [ 73.8537859, 18.4527454 ] } },
{ "type": "Feature", "properties": { "ccd_name": "Others (Health H.O.)", "com_location": "gharAMka 404 gurUvAra peTha gavarI ALI yA vADyAche pADakAma , Pune, Maharashtra" }, "geometry": { "type": "Point", "coordinates": [ 73.8786239, 18.5246091 ] } },
{ "type": "Feature", "properties": { "ccd_name": "Voilent / Suspected Rabies dogs", "com_location": "Zambre Heritage  B building dhankawdi , Pune, Maharashtra" }, "geometry": { "type": "Point", "coordinates": [ 73.8540053, 18.4714768 ] } },
{ "type": "Feature", "properties": { "ccd_name": "Others (Health H.O.)", "com_location": "priya co-operative housing society ltd sarve no 134 D tadiwala road pune " }, "geometry": { "type": "Point", "coordinates": [ 73.8761875, 18.5272768 ] } },
{ "type": "Feature", "properties": { "ccd_name": "Stray Dogs - Unsterilised Dogs", "com_location": "kondwa budruk raaj grohi society pune sawle garden near hi fi gym pune" }, "geometry": { "type": "Point", "coordinates": [ 73.8807119, 18.4605899 ] } },
{ "type": "Feature", "properties": { "ccd_name": "other (Stray Dogs)", "com_location": "krishan keval society B-h,NIBM road,kondhwa pune 411048" }, "geometry": { "type": "Point", "coordinates": [ 73.8906882, 18.4778053 ] } },
{ "type": "Feature", "properties": { "ccd_name": "Others (Health H.O.)", "com_location": "\r\n\r\nKundan Vivar new era socity Near indian iol petrol pump Market yard bibewadi pune\r\n" }, "geometry": { "type": "Point", "coordinates": [ 73.8755778, 18.482242 ] } },
{ "type": "Feature", "properties": { "ccd_name": "Voilent / Suspected Rabies dogs", "com_location": "Jagdamba bhawan marg near ambekar hotel undri pune 411048." }, "geometry": { "type": "Point", "coordinates": [ 73.9103297, 18.4414745 ] } },
{ "type": "Feature", "properties": { "ccd_name": "Voilent / Suspected Rabies dogs", "com_location": "dhayarkar vasti mundhwa tadi gutta chowk lane no 6, Pune, Maharashtra" }, "geometry": { "type": "Point", "coordinates": [ 73.8986031, 18.5365577 ] } },
{ "type": "Feature", "properties": { "ccd_name": "Stray Dogs - Unsterilised Dogs", "com_location": "musaLe sAheba, nAgarasa roDa kumAra padamAlaya bAjulA bhaMgAra dukAnAchyA mAghe, Pune, Maharashtra" }, "geometry": { "type": "Point", "coordinates": [ 73.8786239, 18.5246091 ] } },
{ "type": "Feature", "properties": { "ccd_name": "Noise Pollution", "com_location": "shani mArutI maMdira samora , 10 chawl , 34/1 eraMdavaNe, puNe 411004" }, "geometry": { "type": "Point", "coordinates": [ 73.829053800000011, 18.5039149 ] } },
{ "type": "Feature", "properties": { "ccd_name": "Others (Health H.O.)", "com_location": "BUILDING NO-1103  ALCOIN STYLER KONDA BUDRUK PUNE 411048." }, "geometry": { "type": "Point", "coordinates": [ 73.8754258, 18.4504283 ] } },
{ "type": "Feature", "properties": { "ccd_name": "Voilent / Suspected Rabies dogs", "com_location": "Shramsafalya colony,canol road,karve nagar, Pune" }, "geometry": { "type": "Point", "coordinates": [ 73.7747381, 18.4611003 ] } },
{ "type": "Feature", "properties": { "ccd_name": "other (Stray Dogs)", "com_location": "Pawan Jai Mata Mandir is Chhatrapati Shivaji Wadgaon Budruk Pune 41" }, "geometry": { "type": "Point", "coordinates": [ 73.812516, 18.509625 ] } },
{ "type": "Feature", "properties": { "ccd_name": "Others (Health H.O.)", "com_location": "at kharadi VJ construction site, Pune, Maharashtra" }, "geometry": { "type": "Point", "coordinates": [ 73.819641, 18.454346 ] } },
{ "type": "Feature", "properties": { "ccd_name": "hyacinth at river", "com_location": "BUND GARDEN RIVER. , Pune, Maharashtra" }, "geometry": { "type": "Point", "coordinates": [ 73.8816001, 18.5420928 ] } },
{ "type": "Feature", "properties": { "ccd_name": "Voilent / Suspected Rabies dogs", "com_location": "Krishna Vihar bkd flat no 605.keshav Nagar mundhwa Pune. OPP new orbis school" }, "geometry": { "type": "Point", "coordinates": [ 73.9502088, 18.5324561 ] } },
{ "type": "Feature", "properties": { "ccd_name": "Stray Dogs - Unsterilised Dogs", "com_location": "Borate Wasti near Dr shreenath hospital Bt kawade road prabhag 21, Pune, Maharashtra" }, "geometry": { "type": "Point", "coordinates": [ 73.9066431, 18.5211612 ] } },
{ "type": "Feature", "properties": { "ccd_name": "Stray Dogs - Unsterilised Dogs", "com_location": "Shiv sagar society phase 2 manik baug sinhagad road pune 411051" }, "geometry": { "type": "Point", "coordinates": [ 73.8033639, 18.4571619 ] } },
{ "type": "Feature", "properties": { "ccd_name": "Stray Dogs - Unsterilised Dogs", "com_location": " Flat no 2 Dagadabai Sadan, Baner, Pune 45" }, "geometry": { "type": "Point", "coordinates": [ 73.7999528, 18.557775 ] } },
{ "type": "Feature", "properties": { "ccd_name": "Stray Dogs - Unsterilised Dogs", "com_location": "Somwar peth near ganesh bidkar office galli, Pune, Maharashtra" }, "geometry": { "type": "Point", "coordinates": [ 73.867634700000011, 18.5214325 ] } },
{ "type": "Feature", "properties": { "ccd_name": "Others (Health H.O.)", "com_location": "Prasun Plaza, next to Eden Park, near Ganpati Chowk, Viman Nagar, Pune -411014" }, "geometry": { "type": "Point", "coordinates": [ 73.9187597, 18.5667107 ] } },
{ "type": "Feature", "properties": { "ccd_name": "Stray Dogs - Unsterilised Dogs", "com_location": "S. No. 37/2 vidi kamgar vashat chandannagar kharadi., Pune, Maharashtra" }, "geometry": { "type": "Point", "coordinates": [ 73.939181800000014, 18.4870245 ] } },
{ "type": "Feature", "properties": { "ccd_name": "Others (Health H.O.)", "com_location": "sa.naM.8 yashavaMtanagara talesarA hA.NspITala samora,suryamukhI shiva maMdira javaLa yeravaDA puNe 411006 " }, "geometry": { "type": "Point", "coordinates": [ 73.8888375, 18.5496162 ] } },
{ "type": "Feature", "properties": { "ccd_name": "Others (Health H.O.)", "com_location": "pauDa phATA yethe kedAra empiyara bilDiMga, Pune, Maharashtra" }, "geometry": { "type": "Point", "coordinates": [ 73.8149657, 18.4469279 ] } },
{ "type": "Feature", "properties": { "ccd_name": "Stray Dogs - Unsterilised Dogs", "com_location": "near kasturba housing society A-40 (janta school) Vishrantwadi, Pune. " }, "geometry": { "type": "Point", "coordinates": [ 73.8807042, 18.5711549 ] } },
{ "type": "Feature", "properties": { "ccd_name": "Stray Dogs - Unsterilised Dogs", "com_location": "Nearest amenora town, Pune, Maharashtra" }, "geometry": { "type": "Point", "coordinates": [ 73.939896300000015, 18.520408 ] } },
{ "type": "Feature", "properties": { "ccd_name": "Voilent / Suspected Rabies dogs", "com_location": "Lake town society, Bibwewadi , Pune -411037" }, "geometry": { "type": "Point", "coordinates": [ 73.8632243, 18.4576878 ] } },
{ "type": "Feature", "properties": { "ccd_name": "Stray Dogs - Unsterilised Dogs", "com_location": "Whole of somnathnagar 411014 from Inorbit to Datta Mandir vadgaonsheri, Pune, Maharashtra" }, "geometry": { "type": "Point", "coordinates": [ 73.9212976, 18.5467838 ] } },
{ "type": "Feature", "properties": { "ccd_name": "Voilent / Suspected Rabies dogs", "com_location": "Prem Nagar near durga mata mandir vadgaon sheri, Pune, Maharashtra" }, "geometry": { "type": "Point", "coordinates": [ 73.92496, 18.5451452 ] } },
{ "type": "Feature", "properties": { "ccd_name": "Stray Dogs - Unsterilised Dogs", "com_location": "sanket park lane no 1 Mohamadwadi near mangesh traders hadapsar pune 411060." }, "geometry": { "type": "Point", "coordinates": [ 73.9260226, 18.4783723 ] } },
{ "type": "Feature", "properties": { "ccd_name": "Others (Health H.O.)", "com_location": "tripati appartment sukhsagar nagar prabhag 1 galli number 1 3rd floor pune " }, "geometry": { "type": "Point", "coordinates": [ 73.829049, 18.4692805 ] } },
{ "type": "Feature", "properties": { "ccd_name": "Stray Dogs - Unsterilised Dogs", "com_location": "Addition chowk parmar building bhavni peth , Pune, Maharashtra" }, "geometry": { "type": "Point", "coordinates": [ 73.8699182, 18.5116565 ] } },
{ "type": "Feature", "properties": { "ccd_name": "Others (Health H.O.)", "com_location": "Amit Khatri 9960894797, Wanowrie, Pune" }, "geometry": { "type": "Point", "coordinates": [ 73.9042235, 18.4855716 ] } },
{ "type": "Feature", "properties": { "ccd_name": "Voilent / Suspected Rabies dogs", "com_location": "250/5/6 D.P.Road, Sankalp park, Baner-Aundh, Pune-411007." }, "geometry": { "type": "Point", "coordinates": [ 73.802469, 18.559883 ] } },
{ "type": "Feature", "properties": { "ccd_name": "other (Stray Dogs)", "com_location": "bopaDI junA muMbaI puNe roDa, agaravAla dharmashALA, gopI chAla, geTa naMbara 20, anupama nagarI sosAyaTI, chetaka sosAyaTI." }, "geometry": { "type": "Point", "coordinates": [ 73.9531189, 18.5646495 ] } },
{ "type": "Feature", "properties": { "ccd_name": "Stray Dogs - Unsterilised Dogs", "com_location": "Tara mohan garden lane sr no 20/3/2 katraj kondhwa road katraj pune 411046" }, "geometry": { "type": "Point", "coordinates": [ 73.872305, 18.4508274 ] } },
{ "type": "Feature", "properties": { "ccd_name": "Stray Dogs - Unsterilised Dogs", "com_location": "1712 Sadashiv Peth, Navbharat Society, Pune, Maharashtra" }, "geometry": { "type": "Point", "coordinates": [ 73.852064, 18.5077849 ] } },
{ "type": "Feature", "properties": { "ccd_name": "Stray Dogs - Unsterilised Dogs", "com_location": "gurudatta colony lane no 6 bhekrai nagar pune " }, "geometry": { "type": "Point", "coordinates": [ 73.8708097, 18.6197816 ] } },
{ "type": "Feature", "properties": { "ccd_name": "hyacinth at river", "com_location": "word no -8 bopdi aundh , Pune, Maharashtra" }, "geometry": { "type": "Point", "coordinates": [ 73.8156775, 18.5508427 ] } },
{ "type": "Feature", "properties": { "ccd_name": "Stray Dogs - Unsterilised Dogs", "com_location": "Shridhar Nagar- Satara road Dhankawadi. road at side of Sheetal lodge., Pune, Maharashtra" }, "geometry": { "type": "Point", "coordinates": [ 73.8582914, 18.4601887 ] } },
{ "type": "Feature", "properties": { "ccd_name": "Stray Dogs - Unsterilised Dogs", "com_location": "near Vishal Heritage Society,Anand Park, Pune-411014. " }, "geometry": { "type": "Point", "coordinates": [ 73.9435133, 18.5601683 ] } },
{ "type": "Feature", "properties": { "ccd_name": "Others (Health H.O.)", "com_location": "Eon Waterfront Phase 1, Grant Road, Kharadi, Pune, Maharashtra" }, "geometry": { "type": "Point", "coordinates": [ 73.9543361, 18.5486854 ] } },
{ "type": "Feature", "properties": { "ccd_name": "Stray Dogs - Unsterilised Dogs", "com_location": "Dhanukar colony lane no 1 , Pune, Maharashtra" }, "geometry": { "type": "Point", "coordinates": [ 73.8127957, 18.4939887 ] } },
{ "type": "Feature", "properties": { "ccd_name": "Others (Health H.O.)", "com_location": "ashvinI pa.clesa ka  parTivha hausiMga sosAyaTI,\r\nkedArI nagara, sarve naMbara 65, vAnavaDI , puNe 411040 " }, "geometry": { "type": "Point", "coordinates": [ 73.898792, 18.484269 ] } },
{ "type": "Feature", "properties": { "ccd_name": "Stray Dogs - Unsterilised Dogs", "com_location": "Trimurti Complex, Near Ramchandra Palace, Warje Highway Bus Stop, Warje, Karve Rd, Warje, Pune, Maharashtra 411052" }, "geometry": { "type": "Point", "coordinates": [ 73.8063242, 18.4813542 ] } },
{ "type": "Feature", "properties": { "ccd_name": "hyacinth at river", "com_location": "sattya river society bhavpatil road bopodi pune" }, "geometry": { "type": "Point", "coordinates": [ 73.8322962, 18.5688266 ] } },
{ "type": "Feature", "properties": { "ccd_name": "other (Stray Dogs)", "com_location": "aundh baner,Pashan baner,pune 411007" }, "geometry": { "type": "Point", "coordinates": [ 73.7944307, 18.551934 ] } },
{ "type": "Feature", "properties": { "ccd_name": "Stray Dogs - Unsterilised Dogs", "com_location": " Bavdhan area near Vallonia society., Pune, Maharashtra" }, "geometry": { "type": "Point", "coordinates": [ 73.7737101, 18.5112464 ] } },
{ "type": "Feature", "properties": { "ccd_name": "Others (Health H.O.)", "com_location": "F Residences, Wadgaon Sheri, Pune, Maharashtra" }, "geometry": { "type": "Point", "coordinates": [ 73.9169627, 18.5485493 ] } },
{ "type": "Feature", "properties": { "ccd_name": "other (Stray Dogs)", "com_location": "puShpaka pArka, Aya .TI.Aya  roDa , auMdha Pune 411007" }, "geometry": { "type": "Point", "coordinates": [ 73.8031335, 18.5601649 ] } },