{
"type": "FeatureCollection",
"name": "2021_Solid_Waste_Management",
"crs": { "type": "name", "properties": { "name": "urn:ogc:def:crs:OGC:1.3:CRS84" } },
"features": [
{ "type": "Feature", "properties": { "ccd_name": "Garbage not lifted from co-authorised collection point / House gully", "com_location": "Near kinder Kool school on Porwal road (Nimbalkar road) Kutwal colony, behind Aeropolis phase 1, Pune, Maharashtra" }, "geometry": { "type": "Point", "coordinates": [ 73.9100273, 18.6046897 ] } },
{ "type": "Feature", "properties": { "ccd_name": "Garbage vehicle not arrived", "com_location": "lokeshana: roDa naM. 12F, bhaurava nagara, dhAnorI., Pune, Maharashtra" }, "geometry": { "type": "Point", "coordinates": [ 73.896851, 18.5967587 ] } },
{ "type": "Feature", "properties": { "ccd_name": "Garbage vehicle not arrived", "com_location": "plot no-63/2/A lane no -4, janardhan ngar,  lohagaon , Pune, Maharashtra" }, "geometry": { "type": "Point", "coordinates": [ 73.9353226, 18.6051032 ] } },
{ "type": "Feature", "properties": { "ccd_name": "Others (SWM )", "com_location": "at Parke Shinde mala road next to MS hospitality building Behind royal Enfield showroom Baner pune 411045" }, "geometry": { "type": "Point", "coordinates": [ 73.792218, 18.5586317 ] } },
{ "type": "Feature", "properties": { "ccd_name": "Others (SWM )", "com_location": " market yard road near ksheteiy karyalaya..Shop is located @ ayodhya society., Pune, Maharashtra" }, "geometry": { "type": "Point", "coordinates": [ 73.8630531, 18.471068 ] } },
{ "type": "Feature", "properties": { "ccd_name": "Garbage not lifted from co-authorised collection point / House gully", "com_location": "Om Praangan Sai Mystique Road, near Bank Of Maharashtra, Ambegaon BK, Pune, Maharashtra 411046" }, "geometry": { "type": "Point", "coordinates": [ 73.837048700000011, 18.4610312 ] } },
{ "type": "Feature", "properties": { "ccd_name": "Mosquito nuisance/Fogging", "com_location": "B406,chandrangan svarup,near bank of maharashtra, near sinhgad collage,ambegoan budruk,pune46." }, "geometry": { "type": "Point", "coordinates": [ 73.837733, 18.4615203 ] } },
{ "type": "Feature", "properties": { "ccd_name": "Garbage not lifted from co-authorised collection point / House gully", "com_location": "plot no C-17 , Kasturba HSG SOC , Vishrantwadi Pune 411015" }, "geometry": { "type": "Point", "coordinates": [ 73.8872962, 18.5798609 ] } },
{ "type": "Feature", "properties": { "ccd_name": "Others (SWM )", "com_location": "prabhAga kra. 35 takrArIche ThikANa - pla Ta kra. 1104,1106 migaramAtA sosAyaTI, padmAvatI, puNe - 9 araNyeshvara vidyA maMdira shALesamorIla rastA" }, "geometry": { "type": "Point", "coordinates": [ 73.8580788, 18.476679 ] } },
{ "type": "Feature", "properties": { "ccd_name": "Others (SWM )", "com_location": "Keras rohidas bhukan vasti sr no 136/4/2 gurudwara colony lohegaon pune." }, "geometry": { "type": "Point", "coordinates": [ 73.9275318, 18.5932724 ] } },
{ "type": "Feature", "properties": { "ccd_name": "Others (SWM )", "com_location": "shramadAna mArutI maMdira javaLa, dagaDI shALe samora rajapUta lohAra samAja kAryalaya bAhera, Pune, Maharashtra" }, "geometry": { "type": "Point", "coordinates": [ 73.8786239, 18.5246091 ] } },
{ "type": "Feature", "properties": { "ccd_name": "Mosquito nuisance/Fogging", "com_location": "1369 Sadashiv Peth, Near Karnataka Bank ATM Sidhi Platynum \r\nBuliding  Sadashiv Peth, Pune," }, "geometry": { "type": "Point", "coordinates": [ 73.8504167, 18.5126263 ] } },
{ "type": "Feature", "properties": { "ccd_name": "Others (SWM )", "com_location": "on Baner pashan link road near star bazar, Pune, Maharashtra" }, "geometry": { "type": "Point", "coordinates": [ 73.7912895, 18.5491346 ] } },
{ "type": "Feature", "properties": { "ccd_name": "Others (SWM )", "com_location": "Near stella marris school, vadgaonsheri., Pune, Maharashtra" }, "geometry": { "type": "Point", "coordinates": [ 73.9239538, 18.5460516 ] } },
{ "type": "Feature", "properties": { "ccd_name": "Others (SWM )", "com_location": "opposite Sai Nagar up to Ranmala Hotel on Baner Pashan Link road near the bank of Ramnadi., Pune, Maharashtra" }, "geometry": { "type": "Point", "coordinates": [ 73.7979555, 18.5513163 ] } },
{ "type": "Feature", "properties": { "ccd_name": "Others (SWM )", "com_location": "aminity space near regent plaza ,baner pashan link road,  , Pune, Maharashtra" }, "geometry": { "type": "Point", "coordinates": [ 73.7930752, 18.5523154 ] } },
{ "type": "Feature", "properties": { "ccd_name": "Mosquito nuisance/Fogging", "com_location": "Flat Number-4, Shivali Apartment, Chintamani Society, Near Suvarnayug Bank, Karvenagar, Pune-411052" }, "geometry": { "type": "Point", "coordinates": [ 73.8192699, 18.4923422 ] } },
{ "type": "Feature", "properties": { "ccd_name": "Mosquito nuisance/Fogging", "com_location": "ishan sanskriti row house open spaces. , Pune, Maharashtra" }, "geometry": { "type": "Point", "coordinates": [ 73.8027561, 18.4860743 ] } },
{ "type": "Feature", "properties": { "ccd_name": "Mosquito nuisance/Fogging", "com_location": "Kalwad khan galli near akrar bhanga shop, Pune, Maharashtra" }, "geometry": { "type": "Point", "coordinates": [ 73.9060775, 18.59205 ] } },
{ "type": "Feature", "properties": { "ccd_name": "Others (SWM )", "com_location": "grina laiMDa kA.cmpalekasa  gUlaTekaDI , Pune, Maharashtra" }, "geometry": { "type": "Point", "coordinates": [ 73.8704877, 18.4877372 ] } },
{ "type": "Feature", "properties": { "ccd_name": "Others (SWM )", "com_location": "Kool Homes Road Kausar Baugh, off NIBM, Pune, Maharashtra" }, "geometry": { "type": "Point", "coordinates": [ 73.8949109, 18.4716368 ] } },
{ "type": "Feature", "properties": { "ccd_name": "Huge littering in open plot / Garbage Dump", "com_location": "Sanjay Rana\r\n19 A Ganeshdutta Society ,  Saharkarnagar -01 \r\nParvati , Pune 09 " }, "geometry": { "type": "Point", "coordinates": [ 73.8531248, 18.4891446 ] } },
{ "type": "Feature", "properties": { "ccd_name": "Others (SWM )", "com_location": " Pashan gaon vegetable market, Pune, Maharashtra" }, "geometry": { "type": "Point", "coordinates": [ 73.7955869, 18.5396184 ] } },
{ "type": "Feature", "properties": { "ccd_name": "Burning of Garbage/Plastic waste", "com_location": "Saarrthi SkyBay in Mahalunge, Pune, Maharashtra" }, "geometry": { "type": "Point", "coordinates": [ 73.7545889, 18.5768743 ] } },
{ "type": "Feature", "properties": { "ccd_name": "Burning of Garbage/Plastic waste", "com_location": "Gangapuram Society Vimannagar 411014, Pune, Maharashtra" }, "geometry": { "type": "Point", "coordinates": [ 73.9095965, 18.5680745 ] } },
{ "type": "Feature", "properties": { "ccd_name": "Mosquito nuisance/Fogging", "com_location": "Indira housing society of senapati bapat road behind bhartiya vidyabhavan school pune 16" }, "geometry": { "type": "Point", "coordinates": [ 73.829134, 18.5337531 ] } },
{ "type": "Feature", "properties": { "ccd_name": "Garbage not lifted from co-authorised collection point / House gully", "com_location": "There are 4-5 spots in 1km from Y junction keshavnagar mundhwa to Orbis School, where this scene is very common., Pune, Maharashtra" }, "geometry": { "type": "Point", "coordinates": [ 73.946486, 18.5356081 ] } },
{ "type": "Feature", "properties": { "ccd_name": "Mosquito nuisance/Fogging", "com_location": "GURU NANAK NAGAR LANE NO 1 BHAWANI PETH 411002\t, Pune, Maharashtra" }, "geometry": { "type": "Point", "coordinates": [ 73.8724124, 18.5034866 ] } },
{ "type": "Feature", "properties": { "ccd_name": "Others (SWM )", "com_location": "Near Salisbury park post office\r\nPune 411037" }, "geometry": { "type": "Point", "coordinates": [ 73.8727335, 18.4938022 ] } },
{ "type": "Feature", "properties": { "ccd_name": "Burning of Garbage/Plastic waste", "com_location": "Hingane madhe canal javal, Pune, Maharashtra" }, "geometry": { "type": "Point", "coordinates": [ 73.8110947, 18.485132 ] } },
{ "type": "Feature", "properties": { "ccd_name": "Burning of Garbage/Plastic waste", "com_location": "tucker awho incleve boudh nagar hadapsar , Pune, Maharashtra" }, "geometry": { "type": "Point", "coordinates": [ 73.9532489, 18.4946577 ] } },
{ "type": "Feature", "properties": { "ccd_name": "Others (SWM )", "com_location": "LMD to Kunal belleza road., Pune, Maharashtra" }, "geometry": { "type": "Point", "coordinates": [ 73.7780571, 18.5095039 ] } },
{ "type": "Feature", "properties": { "ccd_name": "Garbage not lifted from co-authorised collection point / House gully", "com_location": "15,Mumbai Pune Bypass Rd,Janaki Nagar,Raghav Nagar,Vadgaon Budruk,Pune,Maharashtra 411046,India" }, "geometry": { "type": "Point", "coordinates": [ 73.840676, 18.4538176 ] } },
{ "type": "Feature", "properties": { "ccd_name": "Mosquito nuisance/Fogging", "com_location": "Mayuresh Hsg society, Opp Nikhil Marbal, Near Indian Oil petrol pump Katraj Kondhawa Road, \r\nPune" }, "geometry": { "type": "Point", "coordinates": [ 73.8670475, 18.449716 ] } },
{ "type": "Feature", "properties": { "ccd_name": "Garbage vehicle not arrived", "com_location": "Bhekrai nagar shiv krupa colony, Pune, Maharashtra" }, "geometry": { "type": "Point", "coordinates": [ 73.9545987, 18.4852061 ] } },
{ "type": "Feature", "properties": { "ccd_name": "Garbage vehicle not arrived", "com_location": "serve no 9, lane no1 tukaram nagar kharadi 411014\t, Pune, Maharashtra" }, "geometry": { "type": "Point", "coordinates": [ 73.9359132, 18.5539979 ] } },
{ "type": "Feature", "properties": { "ccd_name": "Garbage not lifted from co-authorised collection point / House gully", "com_location": "infront of EISHA EMPIRE ENTRANCE., Pune, Maharashtra" }, "geometry": { "type": "Point", "coordinates": [ 73.93209, 18.4860388 ] } },
{ "type": "Feature", "properties": { "ccd_name": "Others (SWM )", "com_location": "haDapasara gADItaLa yethIla junA moThA chAlavA , Pune, Maharashtra" }, "geometry": { "type": "Point", "coordinates": [ 73.853608, 18.5434012 ] } },
{ "type": "Feature", "properties": { "ccd_name": "Others (SWM )", "com_location": "B-2 403 club life park society mohammed wadi undri road pune 28" }, "geometry": { "type": "Point", "coordinates": [ 73.9163246, 18.4751462 ] } },
{ "type": "Feature", "properties": { "ccd_name": "Garbage not lifted from co-authorised collection point / House gully", "com_location": "Roady Disney Apartment, New English High School, Opposite Madin Majeet, Survey No. 45 Kondhwa Khurd, Pune, Maharashtra" }, "geometry": { "type": "Point", "coordinates": [ 73.879563, 18.466843 ] } },
{ "type": "Feature", "properties": { "ccd_name": "Others (SWM )", "com_location": "lohegaon janardhan nagar lane number 4 b pune " }, "geometry": { "type": "Point", "coordinates": [ 73.9349022, 18.6051033 ] } },
{ "type": "Feature", "properties": { "ccd_name": "Odour(Foul smell) from Garbage Depot", "com_location": "Next to Regent Plaza, Baner Pashan Link Road, Baner Pune 45." }, "geometry": { "type": "Point", "coordinates": [ 73.7930752, 18.5523154 ] } },
{ "type": "Feature", "properties": { "ccd_name": "Others (SWM )", "com_location": "Shinde Commercial Complex , near Maratha Mandir off NDA Pashan Road Bavdhan, Pune, Maharashtra" }, "geometry": { "type": "Point", "coordinates": [ 73.782109, 18.511712 ] } },
{ "type": "Feature", "properties": { "ccd_name": "Garbage vehicle not arrived", "com_location": "S No 48/1/10, Waghjai Nagar, Ambegaon Khurd, Katraj, Pune " }, "geometry": { "type": "Point", "coordinates": [ 73.8534787, 18.4374123 ] } },
{ "type": "Feature", "properties": { "ccd_name": "Burning of Garbage/Plastic waste", "com_location": "chetaka sosAyaTI muMbaI puNe rastA..khaDakI relve sthAnakA samora..bopoDI puNe 3" }, "geometry": { "type": "Point", "coordinates": [ 73.8671232, 18.5176333 ] } },
{ "type": "Feature", "properties": { "ccd_name": "Others (SWM )", "com_location": "snehala bAga sosAyaTI,pUrva disheche geTache bAjUsa, tuLashIbAga vAle ka lanI... , Pune, Maharashtra" }, "geometry": { "type": "Point", "coordinates": [ 73.9531189, 18.5646495 ] } },
{ "type": "Feature", "properties": { "ccd_name": "Garbage not lifted from co-authorised collection point / House gully", "com_location": "Near Shell Petrol Pump , Senapati Bapat Marg, Gokhale Nagar , Pune 4110016" }, "geometry": { "type": "Point", "coordinates": [ 73.829913, 18.5304787 ] } },
{ "type": "Feature", "properties": { "ccd_name": "Others (SWM )", "com_location": "mAUlIpAka  sava  naMbara 95 tApakIra biDara mAUlIpAka   lohagAva yojanA nagara, Pune, Maharashtra" }, "geometry": { "type": "Point", "coordinates": [ 73.9493281, 18.5896037 ] } },
{ "type": "Feature", "properties": { "ccd_name": "Mosquito nuisance/Fogging", "com_location": "711 ghorpade peth Khadakmal behinde pandu pratap vithal mandir pune 42" }, "geometry": { "type": "Point", "coordinates": [ 73.8248916, 18.4898085 ] } },
{ "type": "Feature", "properties": { "ccd_name": "Burning of Garbage/Plastic waste", "com_location": "nagar road aple ghar housing society pune " }, "geometry": { "type": "Point", "coordinates": [ 73.9494014, 18.5682667 ] } },
{ "type": "Feature", "properties": { "ccd_name": "Garbage not lifted from co-authorised collection point / House gully", "com_location": "plot no-55 hadapsar industrial estate, plot -55 , Pune, Maharashtra" }, "geometry": { "type": "Point", "coordinates": [ 73.9299554, 18.5105884 ] } },
{ "type": "Feature", "properties": { "ccd_name": "Burning of Garbage", "com_location": "Z corner, Manjari Budruk, Pune - 412307" }, "geometry": { "type": "Point", "coordinates": [ 73.9550069, 18.5258046 ] } },
{ "type": "Feature", "properties": { "ccd_name": "Others (SWM )", "com_location": "656 shukrawar Peth Shivaji road Gadikhana chowk, Pune, Maharashtra" }, "geometry": { "type": "Point", "coordinates": [ 73.8582733, 18.5114878 ] } },
{ "type": "Feature", "properties": { "ccd_name": "Mosquito nuisance/Fogging", "com_location": " Vishwavihar, Sinhgad college road, Next to Indu lawns Ambegaon Pune 46" }, "geometry": { "type": "Point", "coordinates": [ 73.83541, 18.4591637 ] } },
{ "type": "Feature", "properties": { "ccd_name": "Others (SWM )", "com_location": "Near vittal mandir yerwada Bazar peth opp yogesh medical , Pune, Maharashtra" }, "geometry": { "type": "Point", "coordinates": [ 73.8896445, 18.5527212 ] } },
{ "type": "Feature", "properties": { "ccd_name": "Garbage vehicle not arrived", "com_location": "sahyAdrI sosAyaTI navayuga kA.clanI phurasuMgI , Pune, Maharashtra" }, "geometry": { "type": "Point", "coordinates": [ 73.9531189, 18.5646495 ] } },
{ "type": "Feature", "properties": { "ccd_name": "Mosquito nuisance/Fogging", "com_location": "Canal next to Sarthak Terrace, Gulawani Maharaj Road, Opp. Gandhi Lawns, Kothrud Pune 411038" }, "geometry": { "type": "Point", "coordinates": [ 73.8243081, 18.5007791 ] } },
{ "type": "Feature", "properties": { "ccd_name": "Others (SWM )", "com_location": "haDapasara kALe borATe nagara navIna sAsavaDa roDa relve sTeshana geTa samora, Pune, Maharashtra" }, "geometry": { "type": "Point", "coordinates": [ 73.9381865, 18.487232 ] } },
{ "type": "Feature", "properties": { "ccd_name": "Others (SWM )", "com_location": "Survey No. 152 Chandralok Nagari Muktai Garden Dhayari, Pune, Maharashtra" }, "geometry": { "type": "Point", "coordinates": [ 73.8090979, 18.4503677 ] } },
{ "type": "Feature", "properties": { "ccd_name": "Mosquito nuisance/Fogging", "com_location": "Open ground in front of Alif tower, Sr. No. 05, Ashraf nagar, Kondhwa Khurd, Pune - 411 048" }, "geometry": { "type": "Point", "coordinates": [ 73.8838939, 18.4634947 ] } },
{ "type": "Feature", "properties": { "ccd_name": "Others (SWM )", "com_location": "Ex-Serviceman Society Paud Road., Pune, Maharashtra" }, "geometry": { "type": "Point", "coordinates": [ 73.8075018, 18.5074187 ] } },
{ "type": "Feature", "properties": { "ccd_name": "Pig Nuisance", "com_location": "bI ji shirke roDa , bhImanagara munDhavA puNe .411036" }, "geometry": { "type": "Point", "coordinates": [ 73.9205354, 18.5205877 ] } },
{ "type": "Feature", "properties": { "ccd_name": "Others (SWM )", "com_location": "mangaldas road staying in suyog platinuim residency society, Pune, Maharashtra" }, "geometry": { "type": "Point", "coordinates": [ 73.8842388, 18.5355353 ] } },
{ "type": "Feature", "properties": { "ccd_name": "Others (SWM )", "com_location": "Vimal vihar soc opp to Bibevewadi Police station besides Jain temple Bibevewadi Pune 37" }, "geometry": { "type": "Point", "coordinates": [ 73.8642051, 18.4673251 ] } },
{ "type": "Feature", "properties": { "ccd_name": "Others (SWM )", "com_location": "VimanNagar, Neco Garden Footpath, opposite solitaire Business Hub, Pune, Maharashtra" }, "geometry": { "type": "Point", "coordinates": [ 73.9137099, 18.5623891 ] } },
{ "type": "Feature", "properties": { "ccd_name": "Others (SWM )", "com_location": "Dekkana jimakhAnA parisarAta, Pune, Maharashtra" }, "geometry": { "type": "Point", "coordinates": [ 73.8786239, 18.5246091 ] } },
{ "type": "Feature", "properties": { "ccd_name": "Others (SWM )", "com_location": "main road opposite Jasraj Complex, 43 Mumbai Pune Road, Bopodi, Pune 411003." }, "geometry": { "type": "Point", "coordinates": [ 73.8378458, 18.570336 ] } },
{ "type": "Feature", "properties": { "ccd_name": "Others (SWM )", "com_location": "819/a giryashram bhandarkar road pune 411004" }, "geometry": { "type": "Point", "coordinates": [ 73.8361462, 18.5180824 ] } },
{ "type": "Feature", "properties": { "ccd_name": "Mosquito nuisance/Fogging", "com_location": "Balaji Nagar, In front of Audyogik School, Good club Road, Yerawada Pune 411006" }, "geometry": { "type": "Point", "coordinates": [ 73.8584464, 18.4698714 ] } },
{ "type": "Feature", "properties": { "ccd_name": "Odour(Foul smell) from Garbage Depot", "com_location": "Siddharth Complex,ZEAL College chowk,NARHE,PUNE" }, "geometry": { "type": "Point", "coordinates": [ 73.8261914, 18.4450652 ] } },
{ "type": "Feature", "properties": { "ccd_name": "Mosquito nuisance/Fogging", "com_location": "rAmanagara 109 aMdhashALe, Pune, Maharashtra" }, "geometry": { "type": "Point", "coordinates": [ 73.857185, 18.625148 ] } },
{ "type": "Feature", "properties": { "ccd_name": "Others (SWM )", "com_location": "prabhAga 19 madhIla  kAshivADI bhavAnI peTha yethIla vAghamAre sauchAlaya , Pune, Maharashtra" }, "geometry": { "type": "Point", "coordinates": [ 73.8652469, 18.5113733 ] } },
{ "type": "Feature", "properties": { "ccd_name": "Huge littering in open plot / Garbage Dump", "com_location": " Aristolia Society, Survey Number 201,D.P. Road,Sade Satra Nali,Near Wisdom school,\r\nHadapsar,Pune-28" }, "geometry": { "type": "Point", "coordinates": [ 73.9399101, 18.5122357 ] } },
{ "type": "Feature", "properties": { "ccd_name": "Garbage not lifted from co-authorised collection point / House gully", "com_location": "shubham complex shiv colony , dhankawadi  pune " }, "geometry": { "type": "Point", "coordinates": [ 73.8482698, 18.4576701 ] } },
{ "type": "Feature", "properties": { "ccd_name": "Garbage bin overflowing", "com_location": "Shanti Elixir Co-Op Housing Society (Keshav Nagar, Mundhwa), Pune, Maharashtra" }, "geometry": { "type": "Point", "coordinates": [ 73.8599257, 18.4940735 ] } },
{ "type": "Feature", "properties": { "ccd_name": "Others (SWM )", "com_location": "amrosia  gloria apartment athshri apartment \r\n411021\r\nbavdhan\r\n, Pune, Maharashtra" }, "geometry": { "type": "Point", "coordinates": [ 73.769356, 18.5076921 ] } },
{ "type": "Feature", "properties": { "ccd_name": "Pig Nuisance", "com_location": "Hill slope adjacent to Rahul Towers society, next to Metro Car shed. Right Bhusari colony. Pune 38" }, "geometry": { "type": "Point", "coordinates": [ 73.7972192, 18.5110623 ] } },
{ "type": "Feature", "properties": { "ccd_name": "Others (SWM )", "com_location": "flt no-404, classium soc, bhaou patil road, pmc garden bopodi , Pune, Maharashtra" }, "geometry": { "type": "Point", "coordinates": [ 73.8322962, 18.5688266 ] } },
{ "type": "Feature", "properties": { "ccd_name": "Mosquito nuisance/Fogging", "com_location": "padmAvibhuShaNa mohana dhArIvAla paryAvaraNa udayAna, Pune, Maharashtra" }, "geometry": { "type": "Point", "coordinates": [ 73.8062314, 18.4810765 ] } },
{ "type": "Feature", "properties": { "ccd_name": "Mosquito nuisance/Fogging", "com_location": "at Golden Petals, Karve nagar, CTS 502 to 518. , Pune, Maharashtra" }, "geometry": { "type": "Point", "coordinates": [ 73.8131629, 18.4820482 ] } },
{ "type": "Feature", "properties": { "ccd_name": "Others (SWM )", "com_location": "Sr no 24 road no 8 munjaba vasti dhanori pune 15." }, "geometry": { "type": "Point", "coordinates": [ 73.8976387, 18.5918481 ] } },
{ "type": "Feature", "properties": { "ccd_name": "Others (SWM )", "com_location": "Pushkar hardware vishrantwadi aalandi road vishrantwadi pune 411015" }, "geometry": { "type": "Point", "coordinates": [ 73.8780674, 18.572002 ] } },
{ "type": "Feature", "properties": { "ccd_name": "Others (SWM )", "com_location": "Outside Ganga Satallite wanorie, Pune, Maharashtra" }, "geometry": { "type": "Point", "coordinates": [ 73.8950395, 18.4858112 ] } },
{ "type": "Feature", "properties": { "ccd_name": "Others (SWM )", "com_location": "Plot no 6 , Shivprasad Housing society, Ganeshmala Sinhagad road\r\nPune 411030" }, "geometry": { "type": "Point", "coordinates": [ 73.8385663, 18.4960883 ] } },
{ "type": "Feature", "properties": { "ccd_name": "Mosquito nuisance/Fogging", "com_location": "Gera Parkview Society, kharadi, Pune, Maharashtra" }, "geometry": { "type": "Point", "coordinates": [ 73.9533407, 18.554903 ] } },
{ "type": "Feature", "properties": { "ccd_name": "Others (SWM )", "com_location": "earaporTa roDa, sunshine ha Tela pAshI, Pune, Maharashtra" }, "geometry": { "type": "Point", "coordinates": [ 73.7954925, 18.4849719 ] } },
{ "type": "Feature", "properties": { "ccd_name": "Others (SWM )", "com_location": "Yash mitr madal,balaji colony,near front of swapna mini market Warje 411058., Pune, Maharashtra" }, "geometry": { "type": "Point", "coordinates": [ 73.7960414, 18.4802393 ] } },
{ "type": "Feature", "properties": { "ccd_name": "Others (SWM )", "com_location": "Agarwal colony bhawani peth pune" }, "geometry": { "type": "Point", "coordinates": [ 73.875727, 18.5093725 ] } },
{ "type": "Feature", "properties": { "ccd_name": "Mosquito nuisance/Fogging", "com_location": "sr.51, mitha nagar, Kondhwa khurd, opp A.S.K hall., Pune, Maharashtra" }, "geometry": { "type": "Point", "coordinates": [ 73.8808432, 18.4721695 ] } },
{ "type": "Feature", "properties": { "ccd_name": "Burning of Garbage/Plastic waste", "com_location": "Prince Town Royal Nibm Road\r\nNxt to Orchard palace society\r\nPune 60" }, "geometry": { "type": "Point", "coordinates": [ 73.9045673, 18.4618157 ] } },
{ "type": "Feature", "properties": { "ccd_name": "Garbage not lifted from co-authorised collection point / House gully", "com_location": "RAM indu Park lane no 3, bANera pune 45" }, "geometry": { "type": "Point", "coordinates": [ 73.7803924, 18.5678386 ] } },
{ "type": "Feature", "properties": { "ccd_name": "Mosquito nuisance/Fogging", "com_location": "Mathora kunj flat no 2/3,opp bedekar ganpati temple,survey no 126,LIC colony,paud road,kotharud pune 411038." }, "geometry": { "type": "Point", "coordinates": [ 73.8175856, 18.5115516 ] } },
{ "type": "Feature", "properties": { "ccd_name": "Pig Nuisance", "com_location": "at bharatnyoti hsg society in Bibwewadi , Pune, Maharashtra" }, "geometry": { "type": "Point", "coordinates": [ 73.8640944, 18.4690213 ] } },
{ "type": "Feature", "properties": { "ccd_name": "Pig Nuisance", "com_location": "ekvhIlAIpha homsa sosAyaTI shitalAdevInagara, shiva ChatrapatI krIDA saMkula mAgIla bAjU, mahALuMge, puNe -411045" }, "geometry": { "type": "Point", "coordinates": [ 73.7561594, 18.57382 ] } },
{ "type": "Feature", "properties": { "ccd_name": "Mosquito nuisance/Fogging", "com_location": "Amar Samruddhi Housing Society, Pune solapur road, Aakashwani Towers, Hadapsar." }, "geometry": { "type": "Point", "coordinates": [ 73.9450475, 18.5005219 ] } },
{ "type": "Feature", "properties": { "ccd_name": "Others (SWM )", "com_location": "Samruddhi market Chandannagar pune" }, "geometry": { "type": "Point", "coordinates": [ 73.9314735, 18.5596178 ] } },
{ "type": "Feature", "properties": { "ccd_name": "Others (SWM )", "com_location": "at service road at bavdhan between dominos and bavdhan bk entrance at highway., Pune, Maharashtra" }, "geometry": { "type": "Point", "coordinates": [ 73.7691532, 18.5158036 ] } },
{ "type": "Feature", "properties": { "ccd_name": "Mosquito nuisance/Fogging", "com_location": "oriana society keshav nagar  mundhwa, Pune, Maharashtra" }, "geometry": { "type": "Point", "coordinates": [ 73.9440646, 18.5323976 ] } },
{ "type": "Feature", "properties": { "ccd_name": "Others (SWM )", "com_location": "Sathe colony rd from  Bharat petrol pump Tilak rd., Pune, Maharashtra" }, "geometry": { "type": "Point", "coordinates": [ 73.851707, 18.5067947 ] } },
{ "type": "Feature", "properties": { "ccd_name": "Garbage not lifted from co-authorised collection point / House gully", "com_location": "Prabhag 21, dhole patil, Navin hind school (BT shani) , Pune, Maharashtra" }, "geometry": { "type": "Point", "coordinates": [ 73.8766733, 18.5347882 ] } },
{ "type": "Feature", "properties": { "ccd_name": "Mosquito nuisance/Fogging", "com_location": "Livogue, Malwadi, Hadapsar, Pune, Maharashtra" }, "geometry": { "type": "Point", "coordinates": [ 73.9369139, 18.5092363 ] } },
{ "type": "Feature", "properties": { "ccd_name": "Garbage not lifted from co-authorised collection point / House gully", "com_location": "New english tilak rd mhatre path , Pune, Maharashtra" }, "geometry": { "type": "Point", "coordinates": [ 73.84526, 18.5112679 ] } },
{ "type": "Feature", "properties": { "ccd_name": "Garbage not lifted from co-authorised collection point / House gully", "com_location": "1053 New Nana Peth, Patyachi Chawl, Pune, Maharashtra" }, "geometry": { "type": "Point", "coordinates": [ 73.8682204, 18.5129438 ] } },
{ "type": "Feature", "properties": { "ccd_name": "Garbage not lifted from co-authorised collection point / House gully", "com_location": "samrudhi apartment sukhsagar nagar pune" }, "geometry": { "type": "Point", "coordinates": [ 73.8690422, 18.4568161 ] } },
{ "type": "Feature", "properties": { "ccd_name": "Mosquito nuisance/Fogging", "com_location": "vartak karyalay, shaniwar peth., Pune, Maharashtra" }, "geometry": { "type": "Point", "coordinates": [ 73.8529339, 18.5174896 ] } },
{ "type": "Feature", "properties": { "ccd_name": "Others (SWM )", "com_location": "kotharUDa sutAradarA gaNesha nagara gujarAMchyA gharAsamora AMgreche goThA pAsI, Pune, Maharashtra" }, "geometry": { "type": "Point", "coordinates": [ 73.8257325, 18.4940191 ] } },
{ "type": "Feature", "properties": { "ccd_name": "Pig Nuisance", "com_location": "Behind Rahulpark A1A2A3 Society , Pune, Maharashtra" }, "geometry": { "type": "Point", "coordinates": [ 73.7950034, 18.4859143 ] } },
{ "type": "Feature", "properties": { "ccd_name": "Burning of Garbage/Plastic waste", "com_location": " Behind Dhavel Windscapes, Sasane Nagar, Hadapsar, Pune 411028" }, "geometry": { "type": "Point", "coordinates": [ 73.9284323, 18.4937498 ] } },
{ "type": "Feature", "properties": { "ccd_name": "Others (SWM )", "com_location": "Mruntunjay mandir,back road,karishma society kade janara road,Yash Elina business bay,kothrud,Pune 411038" }, "geometry": { "type": "Point", "coordinates": [ 73.8205124, 18.502952 ] } },
{ "type": "Feature", "properties": { "ccd_name": "Others (SWM )", "com_location": "Jm road opposite oneplus showroom  in front of our gate next to hotel vijay jm road, Pune, Maharashtra" }, "geometry": { "type": "Point", "coordinates": [ 73.8483505, 18.5231304 ] } },
{ "type": "Feature", "properties": { "ccd_name": "Others (SWM )", "com_location": "Meghmalhar RMD ka leja mAge vAraje puNe 411058" }, "geometry": { "type": "Point", "coordinates": [ 73.7913054, 18.4884403 ] } },
{ "type": "Feature", "properties": { "ccd_name": "Others (SWM )", "com_location": " at Harmony homes 3, Baner - Balewadi Rd, Balewadi Phata, Baner, Pune, Maharashtra 411045" }, "geometry": { "type": "Point", "coordinates": [ 73.7829693, 18.5645118 ] } },
{ "type": "Feature", "properties": { "ccd_name": "Others (SWM )", "com_location": "Nyati Elisia and Riverdale Heights Society kharadi., Pune, Maharashtra" }, "geometry": { "type": "Point", "coordinates": [ 73.9396043, 18.5427057 ] } },
{ "type": "Feature", "properties": { "ccd_name": "Garbage not lifted from co-authorised collection point / House gully", "com_location": " homI bhAbhA chauka ma Dela ka lanI shivAjI nagara, Pune, Maharashtra" }, "geometry": { "type": "Point", "coordinates": [ 73.8266508, 18.5418259 ] } },
{ "type": "Feature", "properties": { "ccd_name": "Garbage not lifted from co-authorised collection point / House gully", "com_location": "Plot No 14, Yogi Society, Survey 37/3, Near last bus stop. Dhankawadi, Pune-43" }, "geometry": { "type": "Point", "coordinates": [ 73.8494236, 18.4633008 ] } },
{ "type": "Feature", "properties": { "ccd_name": "Others (SWM )", "com_location": "place after Z Corner Manjiri Budruk - Keshav Nagar , Pune, Maharashtra" }, "geometry": { "type": "Point", "coordinates": [ 73.9550069, 18.5258046 ] } },
{ "type": "Feature", "properties": { "ccd_name": "Garbage not lifted from co-authorised collection point / House gully", "com_location": "Yashodhan Complex, 1561 , Sadashiv Peth Pune -411030" }, "geometry": { "type": "Point", "coordinates": [ 73.846362, 18.509237 ] } },
{ "type": "Feature", "properties": { "ccd_name": "Others (SWM )", "com_location": "Pashan-Sutarwadi Link Road, Pashan, Pune.\r\n" }, "geometry": { "type": "Point", "coordinates": [ 73.7847851, 18.540875 ] } },
{ "type": "Feature", "properties": { "ccd_name": "Garbage vehicle not arrived", "com_location": "Sahyadri co operative society navuvak socity near Bhekrai mata mandir fursungi police station hadapsar .., Pune, Maharashtra" }, "geometry": { "type": "Point", "coordinates": [ 73.9525546, 18.487066 ] } },
{ "type": "Feature", "properties": { "ccd_name": "Others (SWM )", "com_location": "Sr. 18, 1C, Road no. 11B, Kamal park, dhanori, pune - 411015." }, "geometry": { "type": "Point", "coordinates": [ 73.8981992, 18.5900201 ] } },
{ "type": "Feature", "properties": { "ccd_name": "Huge littering in open plot / Garbage Dump", "com_location": "sutAradarA atharva shALA roDa deDIpI jalaLa sutAradarA kotharUDa puNe 411038" }, "geometry": { "type": "Point", "coordinates": [ 73.8036752, 18.5165691 ] } },
{ "type": "Feature", "properties": { "ccd_name": "Mosquito nuisance/Fogging", "com_location": "Burhani Colony, Gate no 1 aani Gate no 2 ke chya madhe, Concord Appt 2, Opp sujay bungalow,, Pune, Maharashtra" }, "geometry": { "type": "Point", "coordinates": [ 73.7459606, 18.504879 ] } },
{ "type": "Feature", "properties": { "ccd_name": "Others (SWM )", "com_location": "kale padal hadapsar near railway crossing kohinoor IRIS park ,serve no 42, 411028, Pune, Maharashtra" }, "geometry": { "type": "Point", "coordinates": [ 73.9367109, 18.4844132 ] } },
{ "type": "Feature", "properties": { "ccd_name": "Mosquito nuisance/Fogging", "com_location": "dhAyarI pulAkaDIla madhukoSha apArTameMTa ANi suMdara saMskRRitI sosAyaTI parisarAta, Pune, Maharashtra" }, "geometry": { "type": "Point", "coordinates": [ 73.9531189, 18.5646495 ] } },
{ "type": "Feature", "properties": { "ccd_name": "Garbage not lifted from co-authorised collection point / House gully", "com_location": "pU lA deshapAMDe bAge javaLa Naivedyma ha Tela javaLa Sinhgad road, Pune, Maharashtra" }, "geometry": { "type": "Point", "coordinates": [ 73.8188201, 18.4678997 ] } },
{ "type": "Feature", "properties": { "ccd_name": "Others (SWM )", "com_location": "Outside Bhairavee hotel varsha park on main baner road after Ivory estate , Pune, Maharashtra" }, "geometry": { "type": "Point", "coordinates": [ 73.7986163, 18.5526245 ] } },
{ "type": "Feature", "properties": { "ccd_name": "Others (SWM )", "com_location": "araNyeshvara chauka te Trejhara pArka, puNe-411 009, yA rastyAvara saMta rAmadAsa sahakArI gRRiharachanA saMsthA maryAditachyA bAjUchyA (ANi mA.cDarna janarala sToarsachyA samorachyA) " }, "geometry": { "type": "Point", "coordinates": [ 73.8786239, 18.5246091 ] } },
{ "type": "Feature", "properties": { "ccd_name": "Burning of Garbage/Plastic waste", "com_location": "Pratk Nagar Sector 2 Vishrantwadi. , Pune, Maharashtra" }, "geometry": { "type": "Point", "coordinates": [ 73.8837509, 18.5689912 ] } },
{ "type": "Feature", "properties": { "ccd_name": "Mosquito nuisance/Fogging", "com_location": "512,513,514, Swapnapurthy Apartment, Narayan Peth, Pune - 411030" }, "geometry": { "type": "Point", "coordinates": [ 73.8500717, 18.5154741 ] } },
{ "type": "Feature", "properties": { "ccd_name": "Others (SWM )", "com_location": "near Kumar Papillon society. Sus pashan road near sutarwadi bus depot, Pune, Maharashtra" }, "geometry": { "type": "Point", "coordinates": [ 73.7783982, 18.5427011 ] } },
{ "type": "Feature", "properties": { "ccd_name": "Pig Nuisance", "com_location": "Shri Durga Bhavani mandir, Shivaji maharaj putala, Balaji Nagar , Pune, Maharashtra" }, "geometry": { "type": "Point", "coordinates": [ 73.9312714, 18.5618494 ] } },
{ "type": "Feature", "properties": { "ccd_name": "Others (SWM )", "com_location": "687 survey number 15 ambegaon budruk pune 411046" }, "geometry": { "type": "Point", "coordinates": [ 73.839116, 18.457415 ] } },
{ "type": "Feature", "properties": { "ccd_name": "Others (SWM )", "com_location": "5b panacea lights tapkir galli eletric market phadke houd chowk budhwar peth Pune 411002" }, "geometry": { "type": "Point", "coordinates": [ 73.8589809, 18.5182179 ] } },
{ "type": "Feature", "properties": { "ccd_name": "Mosquito nuisance/Fogging", "com_location": "Borate Vrindavan Society, Tulja Bhawani Nagar, Nagar Road, Kharadi, Pune-411014." }, "geometry": { "type": "Point", "coordinates": [ 73.9492878, 18.5616802 ] } },
{ "type": "Feature", "properties": { "ccd_name": "Others (SWM )", "com_location": "Parvati.Darshan.Lokmanya.hospital.Samor., Pune, Maharashtra" }, "geometry": { "type": "Point", "coordinates": [ 73.8554684, 18.4863954 ] } },
{ "type": "Feature", "properties": { "ccd_name": "Others (SWM )", "com_location": "kavadlo society azad nagar wanwadi pune 411040" }, "geometry": { "type": "Point", "coordinates": [ 73.9055116, 18.484128 ] } },
{ "type": "Feature", "properties": { "ccd_name": "Burning of Garbage/Plastic waste", "com_location": " Shivshakti Chowk, Pashan Sus , Pune, Maharashtra" }, "geometry": { "type": "Point", "coordinates": [ 73.7814676, 18.5442749 ] } },
{ "type": "Feature", "properties": { "ccd_name": "Burning of Garbage/Plastic waste", "com_location": "opposite Navsahyadri subpost office chowk, Pune, Maharashtra" }, "geometry": { "type": "Point", "coordinates": [ 73.8298871, 18.4946609 ] } },
{ "type": "Feature", "properties": { "ccd_name": "Huge littering in open plot / Garbage Dump", "com_location": "Koregaon park popular night no 4 plot no 81 /82 , Pune, Maharashtra" }, "geometry": { "type": "Point", "coordinates": [ 73.8939748, 18.5362084 ] } },
{ "type": "Feature", "properties": { "ccd_name": "Burning of Garbage/Plastic waste", "com_location": "Margosa Heights, pin,: 411060., Pune, Maharashtra" }, "geometry": { "type": "Point", "coordinates": [ 73.920163, 18.472093 ] } },
{ "type": "Feature", "properties": { "ccd_name": "Others (SWM )", "com_location": "puNe- yeravaDA parisarAtIla shAstrI nagara, shrI ha spiTalachyA samora, mAtRRiChAyA sosAyaTI" }, "geometry": { "type": "Point", "coordinates": [ 73.8962994, 18.5548965 ] } },
{ "type": "Feature", "properties": { "ccd_name": "Others (SWM )", "com_location": "Keshavnagar Mundhwa Pune -411036." }, "geometry": { "type": "Point", "coordinates": [ 73.933003, 18.5330323 ] } },
{ "type": "Feature", "properties": { "ccd_name": "Others (SWM )", "com_location": "shivsamruddhi soceity gokulnagar varanasi soceity javal warje pune 411058" }, "geometry": { "type": "Point", "coordinates": [ 73.796834, 18.4864727 ] } },
{ "type": "Feature", "properties": { "ccd_name": "Garbage bin overflowing", "com_location": " Bavdhan Police Chowki on NDA Pashan Road Bavdhan, Pune, Maharashtra" }, "geometry": { "type": "Point", "coordinates": [ 73.779683, 18.522467 ] } },
{ "type": "Feature", "properties": { "ccd_name": "Garbage not lifted from co-authorised collection point / House gully", "com_location": "@SerumInstIndia\r\n chyA geTa shejArIcha Ahe he puDhe, Pune, Maharashtra" }, "geometry": { "type": "Point", "coordinates": [ 73.8782466, 18.5180811 ] } },
{ "type": "Feature", "properties": { "ccd_name": "Pig Nuisance", "com_location": "Yerawada, Government Quarters Behind RTO office, Pune, Maharashtra" }, "geometry": { "type": "Point", "coordinates": [ 73.8636116, 18.5304701 ] } },
{ "type": "Feature", "properties": { "ccd_name": "Mosquito nuisance/Fogging", "com_location": "both buildings, Prayeja puram, wadgaon budruk, Pune. \r\n" }, "geometry": { "type": "Point", "coordinates": [ 73.8123146, 18.4674734 ] } },
{ "type": "Feature", "properties": { "ccd_name": "Others (SWM )", "com_location": "Gopinath nagar opp.Medha kulkarni res., Pune, Maharashtra" }, "geometry": { "type": "Point", "coordinates": [ 73.8021931, 18.4948578 ] } },
{ "type": "Feature", "properties": { "ccd_name": "Others (SWM )", "com_location": " 411047, Lohegaon (Road connecting Uttareshwar Nagar and Porwal Road, Another road Porwal Sathe wasti road from Aaiji Aura to Shivaji Chowk in Lohegaon), Pune, Maharashtra" }, "geometry": { "type": "Point", "coordinates": [ 73.9100642, 18.6059895 ] } },
{ "type": "Feature", "properties": { "ccd_name": "other (SWM H.O.)", "com_location": "501 nvgivn society pdmavti near balaji(mhalxmi) market shkar ngr police station road , Pune, Maharashtra" }, "geometry": { "type": "Point", "coordinates": [ 73.8543224, 18.5131839 ] } },
{ "type": "Feature", "properties": { "ccd_name": "Others (SWM )", "com_location": "411058 Warje Gaothan Riverview Residency Warje., Pune, Maharashtra" }, "geometry": { "type": "Point", "coordinates": [ 73.8069688, 18.4743777 ] } },
{ "type": "Feature", "properties": { "ccd_name": "Mosquito nuisance/Fogging", "com_location": "Shankar Socity Maharana Pratap Chowk Flat No G 3 Wing D Ambegaon BK, Pune, Maharashtra" }, "geometry": { "type": "Point", "coordinates": [ 73.8075814, 18.4621569 ] } },
{ "type": "Feature", "properties": { "ccd_name": "Others (SWM )", "com_location": "B.No49; wireless colony Aundh., Pune, Maharashtra" }, "geometry": { "type": "Point", "coordinates": [ 73.8052836, 18.5652623 ] } },
{ "type": "Feature", "properties": { "ccd_name": "Garbage bin overflowing", "com_location": "Baner road  varatI  na.cshanala society  , Pune, Maharashtra" }, "geometry": { "type": "Point", "coordinates": [ 73.7744914, 18.5645599 ] } },
{ "type": "Feature", "properties": { "ccd_name": "Garbage vehicle not arrived", "com_location": "Sr no 49 Kotwal ploting Brek Collage road Undri , Pune, Maharashtra" }, "geometry": { "type": "Point", "coordinates": [ 73.8954886, 18.4454759 ] } },
{ "type": "Feature", "properties": { "ccd_name": "Garbage vehicle not arrived", "com_location": "AMbegAva budruka bhairavanAtha maMdIra parisara (411046) , Pune, Maharashtra" }, "geometry": { "type": "Point", "coordinates": [ 73.8895766, 18.4685371 ] } },
{ "type": "Feature", "properties": { "ccd_name": "Dog Nuisance", "com_location": "shivarakara roDa (phAtimA nagara chauka te jAMbhulakara chauka), tAtyA Tope sosAyaTI roDa, jAMbhulakara gArDana, shivarakara gArDana, kedArI gArDana, vAnavaDI, Pune, Maharashtra" }, "geometry": { "type": "Point", "coordinates": [ 73.901124, 18.4982643 ] } },
{ "type": "Feature", "properties": { "ccd_name": "Garbage vehicle not arrived", "com_location": "Sitai complex opp vkd petrol pump bhumkar nagar Narhe, Pune, Maharashtra" }, "geometry": { "type": "Point", "coordinates": [ 73.8264598, 18.4465681 ] } },
{ "type": "Feature", "properties": { "ccd_name": "Others (SWM )", "com_location": " Woodland hotel lane and near excise office. , Pune, Maharashtra" }, "geometry": { "type": "Point", "coordinates": [ 73.874889, 18.524893 ] } },
{ "type": "Feature", "properties": { "ccd_name": "Burning of Garbage/Plastic waste", "com_location": "at Princetown Undri., Pune, Maharashtra" }, "geometry": { "type": "Point", "coordinates": [ 73.9041164, 18.4602509 ] } },
{ "type": "Feature", "properties": { "ccd_name": "Others (SWM )", "com_location": "silhara kresTa\r\nshivatIrtha nagara kotharUDa, Pune, Maharashtra" }, "geometry": { "type": "Point", "coordinates": [ 73.8786239, 18.5246091 ] } },
{ "type": "Feature", "properties": { "ccd_name": "Mosquito nuisance/Fogging", "com_location": "Montvert Pristine (behind Khadki Rly Stn, Pune, Maharashtra" }, "geometry": { "type": "Point", "coordinates": [ 73.8376792, 18.5643636 ] } },
{ "type": "Feature", "properties": { "ccd_name": "Others (SWM )", "com_location": "ravivAra peTha A1 chikana shejArI, Pune, Maharashtra" }, "geometry": { "type": "Point", "coordinates": [ 73.8564388, 18.4523928 ] } },
{ "type": "Feature", "properties": { "ccd_name": "Mosquito nuisance/Fogging", "com_location": "Suyog crystal plot no 50, Lullanagar. \r\nNear sapna pav bhaji restaurant. 411040, Pune, Maharashtra" }, "geometry": { "type": "Point", "coordinates": [ 73.8849399, 18.485367 ] } },
{ "type": "Feature", "properties": { "ccd_name": "Burning of Garbage/Plastic waste", "com_location": "Kamalesh H Shah \r\nFlat no 502\r\nB wing\r\nMaple Garden Co OP Housing Society Ltd\r\nS no. 47/1/1\r\n& 47/1/2\r\nKondhwa\r\nPUNE 48\r\nNear Milenium park\r\n( xberia market yard)" }, "geometry": { "type": "Point", "coordinates": [ 73.8889779, 18.4695088 ] } },
{ "type": "Feature", "properties": { "ccd_name": "Others (SWM )", "com_location": "409 saniwar peth,, Pune, Maharashtra" }, "geometry": { "type": "Point", "coordinates": [ 73.8517024, 18.5172648 ] } },
{ "type": "Feature", "properties": { "ccd_name": "Others (SWM )", "com_location": "gaNesha khiMDa roDa, keMdrIya vidhyAlaya chyA bAjUchA rastA, iMdirA vasAhata roDa  auMdha puNe 411007" }, "geometry": { "type": "Point", "coordinates": [ 73.8180673, 18.5543821 ] } },
{ "type": "Feature", "properties": { "ccd_name": "Garbage not lifted from co-authorised collection point / House gully", "com_location": "Vidya sagar colony sr no 589/B plot no 62 pritam building bibwewadi 411037, Pune, Maharashtra" }, "geometry": { "type": "Point", "coordinates": [ 73.876455, 18.484757 ] } },
{ "type": "Feature", "properties": { "ccd_name": "Others (SWM )", "com_location": "behind A-2 building, Aura Solis Society, AzadNagar, Wanowrie, Pune, Maharashtra" }, "geometry": { "type": "Point", "coordinates": [ 73.908337800000012, 18.4840222 ] } },
{ "type": "Feature", "properties": { "ccd_name": "Garbage vehicle not arrived", "com_location": "Gurukrupa society,keshav nagar,mundhwa pune." }, "geometry": { "type": "Point", "coordinates": [ 73.9519735, 18.5349274 ] } },
{ "type": "Feature", "properties": { "ccd_name": "Others (SWM )", "com_location": "12 nArAyaNa peTha polisa chaukI shejArI, Pune, Maharashtra" }, "geometry": { "type": "Point", "coordinates": [ 73.8786239, 18.5246091 ] } },
{ "type": "Feature", "properties": { "ccd_name": "Other Animals Nuisance", "com_location": "Kalp Kalyan Housing Society, Rajyog Society Rd, Mangawadi, Pune, Maharashtra 411037" }, "geometry": { "type": "Point", "coordinates": [ 73.8611067, 18.4705742 ] } },
{ "type": "Feature", "properties": { "ccd_name": "Others (SWM )", "com_location": "konark krish keshavnagar nagar, mundhwa 411036, Pune, Maharashtra" }, "geometry": { "type": "Point", "coordinates": [ 73.9460743, 18.5336054 ] } },
{ "type": "Feature", "properties": { "ccd_name": "Others (SWM )", "com_location": "PMC Bankar School on Ganganagar Road Hadapsar \r\non Canal on AWHO Road Gondhalenagar Hadapsar\r\non roadside near volleyball ground in open plot next to PMC Hemant Karkare Park opposite Savitribai Phule Bh, Pune, Maharashtra" }, "geometry": { "type": "Point", "coordinates": [ 73.948902, 18.4941368 ] } },
{ "type": "Feature", "properties": { "ccd_name": "Others (SWM )", "com_location": " in Shinde Commercial Complex near Maratha Mandir off NDA Pashan Road Bavdhan, , Pune, Maharashtra" }, "geometry": { "type": "Point", "coordinates": [ 73.782109, 18.511712 ] } },
{ "type": "Feature", "properties": { "ccd_name": "Garbage not lifted from co-authorised collection point / House gully", "com_location": "balaji nagar pune satara road, opp petrol pump dhankawadi corner " }, "geometry": { "type": "Point", "coordinates": [ 73.8579982, 18.4687787 ] } },
{ "type": "Feature", "properties": { "ccd_name": "Others (SWM )", "com_location": "Mahesh Society, Bibwewadi, Pune, Maharashtra 411037" }, "geometry": { "type": "Point", "coordinates": [ 73.8650686, 18.4690357 ] } },
{ "type": "Feature", "properties": { "ccd_name": "Others (SWM )", "com_location": "pattA :- saMta ha spiTala javaLa vaDagAva sherI gAva basa sTa.NDa jithe hote tethecha puNe." }, "geometry": { "type": "Point", "coordinates": [ 73.918503, 18.5491477 ] } },
{ "type": "Feature", "properties": { "ccd_name": "Other Animals Nuisance", "com_location": " at Bharat Jyoti, Bibvewadi, Pune - 411037" }, "geometry": { "type": "Point", "coordinates": [ 73.863077, 18.472306 ] } },
{ "type": "Feature", "properties": { "ccd_name": "Others (SWM )", "com_location": "padmajA sAne, 21, ashoka nagara, reMja hila ka rnara, puNe -7" }, "geometry": { "type": "Point", "coordinates": [ 73.938027, 18.559596 ] } },
{ "type": "Feature", "properties": { "ccd_name": "Garbage not lifted from co-authorised collection point / House gully", "com_location": "sai chowk, Balewadi, Pune, Maharashtra" }, "geometry": { "type": "Point", "coordinates": [ 73.771139, 18.574542 ] } },
{ "type": "Feature", "properties": { "ccd_name": "Others (SWM )", "com_location": "250/A/1 magistic galli  shaniwar peth pune " }, "geometry": { "type": "Point", "coordinates": [ 73.8519356, 18.5194431 ] } },
{ "type": "Feature", "properties": { "ccd_name": "Others (SWM )", "com_location": " in front of A2 Building, Aura Solis, Wanowrie, Pune, Maharashtra" }, "geometry": { "type": "Point", "coordinates": [ 73.908337800000012, 18.4840222 ] } },
{ "type": "Feature", "properties": { "ccd_name": "Mosquito nuisance/Fogging", "com_location": "Mukundnagar area in societies like DSK chandradeep, Kumar Puram, Pune, Maharashtra" }, "geometry": { "type": "Point", "coordinates": [ 73.8621506, 18.4976281 ] } },
{ "type": "Feature", "properties": { "ccd_name": "Others (SWM )", "com_location": "Last Bus Stop Keshav nagar Mundhva Pune\r\n" }, "geometry": { "type": "Point", "coordinates": [ 73.9440646, 18.5323976 ] } },
{ "type": "Feature", "properties": { "ccd_name": "Burning of Garbage/Plastic waste", "com_location": "House No 899,Praneel Apartment, \r\nBhandarkar Road Lane no. 3, behind Gupte Hospital, \r\nDeccan Gymkhana, \r\nPune 411004." }, "geometry": { "type": "Point", "coordinates": [ 73.835994, 18.518278 ] } },
{ "type": "Feature", "properties": { "ccd_name": "Garbage not lifted from co-authorised collection point / House gully", "com_location": "Nyati Avita Road, kutwal colony, Lohegaon, pune" }, "geometry": { "type": "Point", "coordinates": [ 73.9160774, 18.600736 ] } },
{ "type": "Feature", "properties": { "ccd_name": "Garbage bin overflowing", "com_location": "sarvhisa roDa, bhUmakara brija, naRhe gAva, Pune, Maharashtra" }, "geometry": { "type": "Point", "coordinates": [ 73.826375, 18.4464732 ] } },
{ "type": "Feature", "properties": { "ccd_name": "Others (SWM )", "com_location": "pla Ta naMbara 172, nAmadeva sosAyaTI, sahakAranagara naMbara 2, puNe 411009" }, "geometry": { "type": "Point", "coordinates": [ 73.849983, 18.48458 ] } },
{ "type": "Feature", "properties": { "ccd_name": "Garbage not lifted from co-authorised collection point / House gully", "com_location": "It is bang on Sus Road., Pune, Maharashtra" }, "geometry": { "type": "Point", "coordinates": [ 73.7777885, 18.5454191 ] } },
{ "type": "Feature", "properties": { "ccd_name": "other (SWM H.O.)", "com_location": "Span Residency F Vishwakarma Nagar Sus Road Pashan Pune" }, "geometry": { "type": "Point", "coordinates": [ 73.7877281, 18.5436542 ] } },
{ "type": "Feature", "properties": { "ccd_name": "Garbage not lifted from co-authorised collection point / House gully", "com_location": "378-360, Jedhe Prasad Rd, New Budhwar Peth, Rameshwar Chouk, Budhwar Peth, Pune, Maharashtra 411002" }, "geometry": { "type": "Point", "coordinates": [ 73.85953, 18.515263 ] } },
{ "type": "Feature", "properties": { "ccd_name": "Others (SWM )", "com_location": "AnaMda nagara siMhagaDa rastA pATIla ha spiTala te saMtoSha ha la chauka, Pune, Maharashtra" }, "geometry": { "type": "Point", "coordinates": [ 73.8786239, 18.5246091 ] } },
{ "type": "Feature", "properties": { "ccd_name": "Others (SWM )", "com_location": "Survey no 216/2  parkhe Mala Behind bullet  showroom . Baner  Pune 411045" }, "geometry": { "type": "Point", "coordinates": [ 73.7950322, 18.5598673 ] } },
{ "type": "Feature", "properties": { "ccd_name": "Garbage not lifted from co-authorised collection point / House gully", "com_location": "Tyulipa sosAyaTI roDa, vinAyaka meDikala samora, bI TI kavaDe roDa puNe 411036" }, "geometry": { "type": "Point", "coordinates": [ 73.9370923, 18.5332622 ] } },
{ "type": "Feature", "properties": { "ccd_name": "Burning of Garbage/Plastic waste", "com_location": "near the Jeet Ground, next to the Jeet Building in Lokmanya Colony, Kothrud 411038., Pune, Maharashtra" }, "geometry": { "type": "Point", "coordinates": [ 73.8046862, 18.5084687 ] } },
{ "type": "Feature", "properties": { "ccd_name": "Garbage vehicle not arrived", "com_location": "Nanded village near Rokade Wada Laxminarayan temple, Pune, Maharashtra" }, "geometry": { "type": "Point", "coordinates": [ 73.8603933, 18.5137264 ] } },
{ "type": "Feature", "properties": { "ccd_name": "Others (SWM )", "com_location": "Tapkir Galli Near Phadke Haud. , Pune, Maharashtra" }, "geometry": { "type": "Point", "coordinates": [ 73.8589692, 18.5184013 ] } },
{ "type": "Feature", "properties": { "ccd_name": "Garbage not lifted from co-authorised collection point / House gully", "com_location": "P 37,Clover Park,Viman Nagar,Pune,Maharashtra 411014,India" }, "geometry": { "type": "Point", "coordinates": [ 73.920039, 18.565897 ] } },
{ "type": "Feature", "properties": { "ccd_name": "Others (SWM )", "com_location": "shivaji road lane no 1 plot no 35 nxt to ganesh mandir khese park  411032\r\n, Pune, Maharashtra" }, "geometry": { "type": "Point", "coordinates": [ 73.9109977, 18.5907515 ] } },
{ "type": "Feature", "properties": { "ccd_name": "Mosquito nuisance/Fogging", "com_location": "prabhAga 23 haDapasara,sasANenagara,kALepaDaLa yA parisarAta , Pune, Maharashtra" }, "geometry": { "type": "Point", "coordinates": [ 73.8786239, 18.5246091 ] } },
{ "type": "Feature", "properties": { "ccd_name": "Garbage not lifted from co-authorised collection point / House gully", "com_location": "Mahesh Society,  near Datta Mandir, BIBWEWADI, Pune, Maharashtra" }, "geometry": { "type": "Point", "coordinates": [ 73.8650686, 18.4690357 ] } },
{ "type": "Feature", "properties": { "ccd_name": "Garbage not lifted from co-authorised collection point / House gully", "com_location": "katraj kondhwa road opp pramount garden skites pharam company , Pune, Maharashtra" }, "geometry": { "type": "Point", "coordinates": [ 73.8719928, 18.4494494 ] } },
{ "type": "Feature", "properties": { "ccd_name": "Mosquito nuisance/Fogging", "com_location": "Sukhakrta apartment,next to shayadri ground,parvti goan,pune 411009." }, "geometry": { "type": "Point", "coordinates": [ 73.8495333, 18.4954643 ] } },
{ "type": "Feature", "properties": { "ccd_name": "Others (SWM )", "com_location": "muMDhavA kharADI nadI pulAkhAlI sAInAtha nagara gaNapatI visarjana ghATa , Pune, Maharashtra" }, "geometry": { "type": "Point", "coordinates": [ 73.9476257, 18.5539311 ] } },
{ "type": "Feature", "properties": { "ccd_name": "Burning of Garbage/Plastic waste", "com_location": "jiteMdra abhiShekI udyAna samora\r\npinAka memorija phesa 2 kyU bilDiMga samora, Pune, Maharashtra" }, "geometry": { "type": "Point", "coordinates": [ 73.876455, 18.4804369 ] } },
{ "type": "Feature", "properties": { "ccd_name": "Burning of Garbage", "com_location": "Swagat Residency, Kumbre Township, Kothrud , Pune, Maharashtra" }, "geometry": { "type": "Point", "coordinates": [ 73.8005069, 18.5013679 ] } },
{ "type": "Feature", "properties": { "ccd_name": "Garbage vehicle not arrived", "com_location": "Vinspa Apartments, 6 Boat Club Road, Pune - 411001" }, "geometry": { "type": "Point", "coordinates": [ 73.8807907, 18.5393932 ] } },
{ "type": "Feature", "properties": { "ccd_name": "Others (SWM )", "com_location": "Madane Bunglow, 759/11, Deccan Gymkhana, Near Hotel Ajit, Opp deccan gymkhana Club house, Pune 71100" }, "geometry": { "type": "Point", "coordinates": [ 73.8400007, 18.516077 ] } },
{ "type": "Feature", "properties": { "ccd_name": "Garbage not lifted from co-authorised collection point / House gully", "com_location": "Shree Datta Colony St,Hanuman Nagar,Lonkar Nagar,Mundhwa,Pune,Maharashtra 411036,India" }, "geometry": { "type": "Point", "coordinates": [ 73.9497209, 18.5293521 ] } },
{ "type": "Feature", "properties": { "ccd_name": "Burning of Garbage", "com_location": "\"PARSHWA APARTMENT\" Survey Number 39/10 Dalvinagar, Ambegaon, Budruk Pune 411046 Maharashtra. Naik 8554807395" }, "geometry": { "type": "Point", "coordinates": [ 73.8420784, 18.4513612 ] } },
{ "type": "Feature", "properties": { "ccd_name": "Others (SWM )", "com_location": "Tambdi Jogeshwari Temple Lane near Appa Balwant Chowk, Pune 411002." }, "geometry": { "type": "Point", "coordinates": [ 73.8549416, 18.5167441 ] } },
{ "type": "Feature", "properties": { "ccd_name": "Others (SWM )", "com_location": " Eklavya college to Puja park Ganesh Mandir, Pune, Maharashtra" }, "geometry": { "type": "Point", "coordinates": [ 73.797114, 18.5046869 ] } },
{ "type": "Feature", "properties": { "ccd_name": "Mosquito nuisance/Fogging", "com_location": "prabhAga kramAMka 14 ghole roDa kShetrIya kAryAlayAchyA aMtargata bhaMDArakara roDa prabhAta roDa varIla, Pune, Maharashtra" }, "geometry": { "type": "Point", "coordinates": [ 73.846957, 18.522812 ] } },
{ "type": "Feature", "properties": { "ccd_name": "Garbage lorry not covered", "com_location": "Flat no 2 dagadabai sadan baner telifhone exchange baner pune" }, "geometry": { "type": "Point", "coordinates": [ 73.7950124, 18.5568694 ] } },
{ "type": "Feature", "properties": { "ccd_name": "Garbage not lifted from co-authorised collection point / House gully", "com_location": "1146 SURASHREE LAKAKI ROAD NEAR CENTRAL BANK OF INDIA , Pune, Maharashtra" }, "geometry": { "type": "Point", "coordinates": [ 73.8379773, 18.5301188 ] } },
{ "type": "Feature", "properties": { "ccd_name": "Others (SWM )", "com_location": "at 43 Mumbai Pune Road, Bopodi, Pune 411003.  " }, "geometry": { "type": "Point", "coordinates": [ 73.8378458, 18.570336 ] } },
{ "type": "Feature", "properties": { "ccd_name": "Garbage not lifted from co-authorised collection point / House gully", "com_location": "Laxmi Co-operative Housing Society , Pune, Maharashtra" }, "geometry": { "type": "Point", "coordinates": [ 73.8085849, 18.655385 ] } },
{ "type": "Feature", "properties": { "ccd_name": "Burning of Garbage/Plastic waste", "com_location": "Salunke vihar road, again., Pune, Maharashtra" }, "geometry": { "type": "Point", "coordinates": [ 73.8984972, 18.4816012 ] } },
{ "type": "Feature", "properties": { "ccd_name": "Huge littering in open plot / Garbage Dump", "com_location": "Kalpataru Enclave, Opp Kaka Halwai, D P Road, Aundh Pune 411007" }, "geometry": { "type": "Point", "coordinates": [ 73.8062717, 18.5607363 ] } },
{ "type": "Feature", "properties": { "ccd_name": "Huge littering in open plot / Garbage Dump", "com_location": "his is exactly at Duukar kindi, on the service road, end of kothrud,, near Hill view apartment. on t, Pune, Maharashtra" }, "geometry": { "type": "Point", "coordinates": [ 73.7963228, 18.5102169 ] } },
{ "type": "Feature", "properties": { "ccd_name": "Others (SWM )", "com_location": "opposite Archana Chicken Keshawrao jedhe path Bibwewadi... Near Kothari blocks, Pune, Maharashtra" }, "geometry": { "type": "Point", "coordinates": [ 73.8593847, 18.4784832 ] } },
{ "type": "Feature", "properties": { "ccd_name": "Burning of Garbage/Plastic waste", "com_location": "Prayeja city road, Dangat industrial area, Wadgaon bk, pune.   \r\n" }, "geometry": { "type": "Point", "coordinates": [ 73.8131866, 18.4686 ] } },
{ "type": "Feature", "properties": { "ccd_name": "Other Animals Nuisance", "com_location": "Kalp Kalyan Housing Society, Rajyog Society Rd, Mangawadi, Pune, Maharashtra 411037" }, "geometry": { "type": "Point", "coordinates": [ 73.8611067, 18.4705742 ] } },
{ "type": "Feature", "properties": { "ccd_name": "Garbage not lifted from co-authorised collection point / House gully", "com_location": "316 budhvar peth dhaka maroti  mandir mitra mandal  pune 411002" }, "geometry": { "type": "Point", "coordinates": [ 73.85756, 18.5161974 ] } },
{ "type": "Feature", "properties": { "ccd_name": "Others (SWM )", "com_location": "Bangiya Sanskriti Samsad, 55 Bhosale Nagar, Pune" }, "geometry": { "type": "Point", "coordinates": [ 73.8355383, 18.5436377 ] } },
{ "type": "Feature", "properties": { "ccd_name": "Mosquito nuisance/Fogging", "com_location": "Rohan Mithila Lower Parijat, Viman Nagar, Pune, Maharashtra" }, "geometry": { "type": "Point", "coordinates": [ 73.910976800000014, 18.5746236 ] } },
{ "type": "Feature", "properties": { "ccd_name": "Garbage not lifted from co-authorised collection point / House gully", "com_location": "ex-servicemen society paud road near more Vidhyalaya erandawana,pune." }, "geometry": { "type": "Point", "coordinates": [ 73.7060383, 18.5054044 ] } },
{ "type": "Feature", "properties": { "ccd_name": "Garbage not lifted from co-authorised collection point / House gully", "com_location": "266 bhawani peth kashewadi road, Pune, Maharashtra" }, "geometry": { "type": "Point", "coordinates": [ 73.8651751, 18.5114252 ] } },
{ "type": "Feature", "properties": { "ccd_name": "Burning of Garbage/Plastic waste", "com_location": " bANera-pAShANa liMka roDavara Crystal Garden apartment , Pune, Maharashtra" }, "geometry": { "type": "Point", "coordinates": [ 73.7795702, 18.5604643 ] } },
{ "type": "Feature", "properties": { "ccd_name": "Others (SWM )", "com_location": "Road between Tamhane Chowk to MITRANGAN SOCIETY Baner Aundh link Road, Pune, Maharashtra" }, "geometry": { "type": "Point", "coordinates": [ 73.7925365, 18.5600353 ] } },
{ "type": "Feature", "properties": { "ccd_name": "Mosquito nuisance/Fogging", "com_location": "Sangamwadi gAvAta trimUrtI saMgama sosAyaTI, Pune, Maharashtra" }, "geometry": { "type": "Point", "coordinates": [ 73.9531189, 18.5646495 ] } },
{ "type": "Feature", "properties": { "ccd_name": "Others (SWM )", "com_location": "sarasvatI apArTameMTa, 15, guruvAra peTha, puNe 411042" }, "geometry": { "type": "Point", "coordinates": [ 73.8660738, 18.5030775 ] } },
{ "type": "Feature", "properties": { "ccd_name": "Burning of Garbage/Plastic waste", "com_location": " eksa sarvisa mena ka lanI madhye (more vidyAlaya javaLa) rAhato. , Pune, Maharashtra" }, "geometry": { "type": "Point", "coordinates": [ 73.820987, 18.510262 ] } },
{ "type": "Feature", "properties": { "ccd_name": "Others (SWM )", "com_location": "Aundh Baner DP road, Pune, Maharashtra" }, "geometry": { "type": "Point", "coordinates": [ 73.801611, 18.5604658 ] } },
{ "type": "Feature", "properties": { "ccd_name": "Mosquito nuisance/Fogging", "com_location": " NDA road,  Bsvdhan, Pune, Maharashtra" }, "geometry": { "type": "Point", "coordinates": [ 73.7844923, 18.467567 ] } },
{ "type": "Feature", "properties": { "ccd_name": "Burning of Garbage/Plastic waste", "com_location": "dhAyarI kaDUna pArI kaMpanI kaDe jANARyA rastyAvara nAnA vADA hoTela javaLIla, Pune, Maharashtra" }, "geometry": { "type": "Point", "coordinates": [ 73.8101999, 18.4471444 ] } },
{ "type": "Feature", "properties": { "ccd_name": "Garbage vehicle not arrived", "com_location": "shivne deshmukh  wadi NDA  rd akshy villa  apt. , Pune, Maharashtra" }, "geometry": { "type": "Point", "coordinates": [ 73.7788457, 18.4664883 ] } },
{ "type": "Feature", "properties": { "ccd_name": "Garbage not lifted from co-authorised collection point / House gully", "com_location": "rAjasa sosAyaTI madhye hI AThavaDyAta ekadAcha AlI Ahe, Pune, Maharashtra" }, "geometry": { "type": "Point", "coordinates": [ 73.9531189, 18.5646495 ] } },
{ "type": "Feature", "properties": { "ccd_name": "Pig Nuisance", "com_location": "Jadhav Nagar area. Tukai Nagar slum. , Pune, Maharashtra" }, "geometry": { "type": "Point", "coordinates": [ 73.8256109, 18.4663272 ] } },
{ "type": "Feature", "properties": { "ccd_name": "Others (SWM )", "com_location": "DAvI bhusArI ka lanI kAMchanavastU ANi saIkRRipA bilDiMga chyA madhye dharmAdhikArI gArDana te ameya bilDiMga ikaDe rastyAchyA donhI bAjUnI , Pune, Maharashtra" }, "geometry": { "type": "Point", "coordinates": [ 73.9810809, 18.5805905 ] } },
{ "type": "Feature", "properties": { "ccd_name": "Others (SWM )", "com_location": "Tinseltown Road, Near LMD Chowk, Bavdhan ( From Tinseltown Gate-1 to Swami Vivekanand Sports Complex ), Pune, Maharashtra" }, "geometry": { "type": "Point", "coordinates": [ 73.7610241, 18.5747407 ] } },
{ "type": "Feature", "properties": { "ccd_name": "Others (SWM )", "com_location": "Plot no.7, Timber market, opp.Timber Bhawan. \r\nBHAWANI PETH, Pune, Maharashtra" }, "geometry": { "type": "Point", "coordinates": [ 73.8685074, 18.5069099 ] } },
{ "type": "Feature", "properties": { "ccd_name": "Garbage not lifted from co-authorised collection point / House gully", "com_location": "Aura Solis Azad Nagar wanowrie , Pune, Maharashtra" }, "geometry": { "type": "Point", "coordinates": [ 73.908337800000012, 18.4840222 ] } },
{ "type": "Feature", "properties": { "ccd_name": "Pig Nuisance", "com_location": "taLajAI TekaDI jithaM navIna roDa kelAya tyA koparyAta , Pune, Maharashtra" }, "geometry": { "type": "Point", "coordinates": [ 73.8436386, 18.4756513 ] } },
{ "type": "Feature", "properties": { "ccd_name": "Others (SWM )", "com_location": "Bakori phata to Neo City Gade Vasti in Wagholi., Pune, Maharashtra" }, "geometry": { "type": "Point", "coordinates": [ 73.9786662, 18.5808425 ] } },
{ "type": "Feature", "properties": { "ccd_name": "Others (SWM )", "com_location": " malinga ghat, on mula River, aundh gaon, Pune, Maharashtra" }, "geometry": { "type": "Point", "coordinates": [ 73.8102927, 18.5639463 ] } },
{ "type": "Feature", "properties": { "ccd_name": "Mosquito nuisance/Fogging", "com_location": "dhAyarI gAramala lena na e 17 , Pune, Maharashtra" }, "geometry": { "type": "Point", "coordinates": [ 73.8101999, 18.4471444 ] } },
{ "type": "Feature", "properties": { "ccd_name": "Others (SWM )", "com_location": "in front of hdfc bank atm.opp zensar kharadi Pune 14." }, "geometry": { "type": "Point", "coordinates": [ 73.9463895, 18.5596078 ] } },
{ "type": "Feature", "properties": { "ccd_name": "Garbage vehicle not arrived", "com_location": "Nanded city in front of lokamt office, Pune, Maharashtra" }, "geometry": { "type": "Point", "coordinates": [ 73.80655, 18.45775 ] } },
{ "type": "Feature", "properties": { "ccd_name": "Burning of Garbage/Plastic waste", "com_location": " Orange County Phase 1, Baner-Pashan Link Road, Pashan, Pune-411021.\r\nLandmark: Saffron restaurant " }, "geometry": { "type": "Point", "coordinates": [ 73.7905665, 18.54364 ] } },
{ "type": "Feature", "properties": { "ccd_name": "Burning of Garbage/Plastic waste", "com_location": "64 building armament colony ganesh khind pune 411007" }, "geometry": { "type": "Point", "coordinates": [ 73.820586, 18.5504471 ] } },
{ "type": "Feature", "properties": { "ccd_name": "Burning of Garbage/Plastic waste", "com_location": "Harshville Apartments, Lane Number 8, Veerbhadra Nagar, Baner, Pune, Maharashtra 411045" }, "geometry": { "type": "Point", "coordinates": [ 73.7698309, 18.5608704 ] } },
{ "type": "Feature", "properties": { "ccd_name": "Mosquito nuisance/Fogging", "com_location": "madar teresa nagar sr no 2 sergam hotel bajula, Pune, Maharashtra" }, "geometry": { "type": "Point", "coordinates": [ 73.770242, 18.56298 ] } },
{ "type": "Feature", "properties": { "ccd_name": "Mosquito nuisance/Fogging", "com_location": "Prerna Society,Near Kulkarni Motors,Viman Nagar, Pune 411014" }, "geometry": { "type": "Point", "coordinates": [ 73.9209604, 18.5660363 ] } },
{ "type": "Feature", "properties": { "ccd_name": "Others (SWM )", "com_location": " Vimal vihar society, Bibvewadi. This is opposite of bibvewadi police station., Pune, Maharashtra" }, "geometry": { "type": "Point", "coordinates": [ 73.8656097, 18.4673163 ] } },
{ "type": "Feature", "properties": { "ccd_name": "Mosquito nuisance/Fogging", "com_location": "kumar primavera society near sainath nagar chowk wadgaonshiri pune " }, "geometry": { "type": "Point", "coordinates": [ 73.9280856, 18.5396706 ] } },
{ "type": "Feature", "properties": { "ccd_name": "Burning of Garbage/Plastic waste", "com_location": "opposite to west gate, Magarpatta City. , Pune, Maharashtra" }, "geometry": { "type": "Point", "coordinates": [ 73.9221427, 18.515253 ] } },
{ "type": "Feature", "properties": { "ccd_name": "Other Animals Nuisance", "com_location": "ARC pukhraj keshav nagar mundhwa opp renuka mata mandir pune" }, "geometry": { "type": "Point", "coordinates": [ 73.9462569, 18.534719 ] } },
{ "type": "Feature", "properties": { "ccd_name": "Mosquito nuisance/Fogging", "com_location": "Silver Heights Co- Op Hsg Soc , Opp Kedari Garden Wanowarie, Pune, Maharashtra" }, "geometry": { "type": "Point", "coordinates": [ 73.9018469, 18.5005072 ] } },
{ "type": "Feature", "properties": { "ccd_name": "Mosquito nuisance/Fogging", "com_location": "Mont Vert Pristine, near Khadki station, bopodi , Pune" }, "geometry": { "type": "Point", "coordinates": [ 73.8376792, 18.5643636 ] } },
{ "type": "Feature", "properties": { "ccd_name": "Garbage bin overflowing", "com_location": "Girls hostel garbage collection point Near Vaikunth Road\r\nNavipeth Pune 411030" }, "geometry": { "type": "Point", "coordinates": [ 73.842584, 18.5094467 ] } },
{ "type": "Feature", "properties": { "ccd_name": "Others (SWM )", "com_location": "iMdirA gAMdhI vasAhata, gaNesha khiMDa roDa auMdha puNe 411007, gajAnana mitra maMDaLa janasaMparka kAryalaya samorIla mena roDavarIla" }, "geometry": { "type": "Point", "coordinates": [ 73.8151088, 18.5600355 ] } },
{ "type": "Feature", "properties": { "ccd_name": "Mosquito nuisance/Fogging", "com_location": "Adarsha iMdirA nagara yeravaDA puNe 6" }, "geometry": { "type": "Point", "coordinates": [ 73.8749621, 18.5588729 ] } },
{ "type": "Feature", "properties": { "ccd_name": "Others (SWM )", "com_location": "plot no 10 of the Jagdish housing society  Dhankawdi, Pune 43." }, "geometry": { "type": "Point", "coordinates": [ 73.8546821, 18.4654546 ] } },
{ "type": "Feature", "properties": { "ccd_name": "Garbage bin overflowing", "com_location": "Chafa cafe lane  5d stink to neighbouring societies , Pune, Maharashtra" }, "geometry": { "type": "Point", "coordinates": [ 73.840141, 18.5267963 ] } },
{ "type": "Feature", "properties": { "ccd_name": "Others (SWM )", "com_location": "Ganatra Row house \r\nOpposite Shilpa park \r\nBibwewadi knondwa road \r\nMarketyard \r\nPune 411037" }, "geometry": { "type": "Point", "coordinates": [ 73.8687705, 18.4823544 ] } },
{ "type": "Feature", "properties": { "ccd_name": "Garbage not lifted from co-authorised collection point / House gully", "com_location": "khaMDobA maMdIra rastyA varIla kacharA UchalalA jAta nAhI jedhe vajana kATyA javaLa kAtraja koDhavA roDa koDhavA bU.411048, Pune, Maharashtra" }, "geometry": { "type": "Point", "coordinates": [ 73.894186500000018, 18.4761265 ] } },
{ "type": "Feature", "properties": { "ccd_name": "Mosquito nuisance/Fogging", "com_location": "mayur colony , prashant sabagruha  kothrud , Pune, Maharashtra" }, "geometry": { "type": "Point", "coordinates": [ 73.8161747, 18.5039834 ] } },
{ "type": "Feature", "properties": { "ccd_name": "Garbage not lifted from co-authorised collection point / House gully", "com_location": "Sai park lane no 5 \r\nBorate wasti \r\nNear shiwanjali mitr mandal\r\nApposit moinul hind masjid, Pune, Maharashtra" }, "geometry": { "type": "Point", "coordinates": [ 73.9338117, 18.554029 ] } },
{ "type": "Feature", "properties": { "ccd_name": "Others (SWM )", "com_location": "Bungalow B 2 sahayog apartment Concord Portia apartment backside balewadi pune" }, "geometry": { "type": "Point", "coordinates": [ 73.7716886, 18.5825776 ] } },
{ "type": "Feature", "properties": { "ccd_name": "Garbage not lifted from co-authorised collection point / House gully", "com_location": "150, Shukrawar Peth, more building, Pune 411002" }, "geometry": { "type": "Point", "coordinates": [ 73.8552426, 18.5107245 ] } },
{ "type": "Feature", "properties": { "ccd_name": "Others (SWM )", "com_location": "Sainik residency phase 7 Ganeshnagar Bopkhel  , Pune, Maharashtra" }, "geometry": { "type": "Point", "coordinates": [ 73.8619892, 18.5866603 ] } },
{ "type": "Feature", "properties": { "ccd_name": "Others (SWM )", "com_location": "Panchvati, shinde nagar , opp Maratha mandir \r\nBavdhan-411021, Pune, Maharashtra" }, "geometry": { "type": "Point", "coordinates": [ 73.7814985, 18.5117709 ] } },
{ "type": "Feature", "properties": { "ccd_name": "Pig Nuisance", "com_location": "Ameya Coop Hsg Society, Anantkrupa Housing Society, Janata Sahakari Bank Lane, Paud Road, Pune" }, "geometry": { "type": "Point", "coordinates": [ 73.8077164, 18.5092885 ] } },
{ "type": "Feature", "properties": { "ccd_name": "Others (SWM )", "com_location": " Baner Hill on Baner hill road, Pune, Maharashtra" }, "geometry": { "type": "Point", "coordinates": [ 73.7798939, 18.5495132 ] } },
{ "type": "Feature", "properties": { "ccd_name": "Others (SWM )", "com_location": "946/ 959 , nana peth pune 411002\t" }, "geometry": { "type": "Point", "coordinates": [ 73.8653833, 18.5144313 ] } },
{ "type": "Feature", "properties": { "ccd_name": "Mosquito nuisance/Fogging", "com_location": "23 mumbai pune road bopodi pune" }, "geometry": { "type": "Point", "coordinates": [ 73.8376545, 18.5705625 ] } },
{ "type": "Feature", "properties": { "ccd_name": "Others (SWM )", "com_location": "sarve naMbara 37 rAmanagara ka.cnola roDa vAraje mALavADI prabhAga 32  , Pune, Maharashtra" }, "geometry": { "type": "Point", "coordinates": [ 73.7787488, 18.5256272 ] } },
{ "type": "Feature", "properties": { "ccd_name": "Garbage bin overflowing", "com_location": "Usha palace , \r\nNear teen hatti chowk , dhankawadi near arogya pmc office s.no 13 2/1b 2/1 , usha palace,  pune\r\n411043" }, "geometry": { "type": "Point", "coordinates": [ 73.853091, 18.4679405 ] } },
{ "type": "Feature", "properties": { "ccd_name": "Burning of Garbage/Plastic waste", "com_location": " Magarpatta society , Pune, Maharashtra" }, "geometry": { "type": "Point", "coordinates": [ 73.9271644, 18.5158057 ] } },
{ "type": "Feature", "properties": { "ccd_name": "Others (SWM )", "com_location": "Survey No 64,Media Corner Society , Opposite Shivparvati Mangal Karyalay of Gokul Nagar,Near Dhayari Phata,Vadgaon BK -411041, Pune, Maharashtra" }, "geometry": { "type": "Point", "coordinates": [ 73.8118994, 18.4579201 ] } },
{ "type": "Feature", "properties": { "ccd_name": "Others (SWM )", "com_location": "ashvat banglow modi baug shivajinagar pune 5 " }, "geometry": { "type": "Point", "coordinates": [ 73.8420901, 18.5327058 ] } },
{ "type": "Feature", "properties": { "ccd_name": "Others (SWM )", "com_location": "at Chimna Chimani Park Tulshibagwale Colony Sahakar Nagar, Pune, Maharashtra" }, "geometry": { "type": "Point", "coordinates": [ 73.8475121, 18.4911851 ] } },
{ "type": "Feature", "properties": { "ccd_name": "Others (SWM )", "com_location": "opp to Chintamani Nagar Part 1 & 2, Outside Chaitanya Apartment , Pune, Maharashtra" }, "geometry": { "type": "Point", "coordinates": [ 73.8661633, 18.4663131 ] } },
{ "type": "Feature", "properties": { "ccd_name": "Others (SWM )", "com_location": "Sr 686 natekar colony chandralok javal Bibwewadi pune 411037." }, "geometry": { "type": "Point", "coordinates": [ 73.8610359, 18.4803346 ] } },
{ "type": "Feature", "properties": { "ccd_name": "Garbage not lifted from co-authorised collection point / House gully", "com_location": "Gurukripa colony(Survey no. 47, lohegaon), Pune, Maharashtra" }, "geometry": { "type": "Point", "coordinates": [ 73.9569126, 18.5961568 ] } },
{ "type": "Feature", "properties": { "ccd_name": "Mosquito nuisance/Fogging", "com_location": "SHREYAS APPARTMENT 2 ND FLOOR OPP TO KATARIYA TRADELINK SHOWROOM 61/A BHAWANI PETH, Pune, Maharashtra" }, "geometry": { "type": "Point", "coordinates": [ 73.8654003, 18.5113858 ] } },
{ "type": "Feature", "properties": { "ccd_name": "Others (SWM )", "com_location": "Salisbury park\r\nOpposite mantri estate, near balmoral, Pune 37" }, "geometry": { "type": "Point", "coordinates": [ 73.8738433, 18.4947831 ] } },
{ "type": "Feature", "properties": { "ccd_name": "Garbage not lifted from co-authorised collection point / House gully", "com_location": "456 ghorapaDe peTha jhagaDe vADI ATM samora, Pune, Maharashtra" }, "geometry": { "type": "Point", "coordinates": [ 73.8630477, 18.5013502 ] } },
{ "type": "Feature", "properties": { "ccd_name": "Mosquito nuisance/Fogging", "com_location": "Guru krupa society plot no B31 belur corner javal keshav nagar mundhwa pune 36" }, "geometry": { "type": "Point", "coordinates": [ 73.9519735, 18.5349274 ] } },
{ "type": "Feature", "properties": { "ccd_name": "Others (SWM )", "com_location": "Next to Chrysallis, Lohegoan road, wagholi Pune 412207. Land is owned by Jadhavrao." }, "geometry": { "type": "Point", "coordinates": [ 73.9773336, 18.5835616 ] } },
{ "type": "Feature", "properties": { "ccd_name": "Others (SWM )", "com_location": "sr no 10 kamraj nagar shivraj chowk dr babasaheb Ambedkar kamani javal yerwada pune 6" }, "geometry": { "type": "Point", "coordinates": [ 73.884501, 18.5519041 ] } },
{ "type": "Feature", "properties": { "ccd_name": "Others (SWM )", "com_location": "Nirman-Viva society, Ambegaon-BK, Pune, Maharashtra" }, "geometry": { "type": "Point", "coordinates": [ 73.837795, 18.459768 ] } },
{ "type": "Feature", "properties": { "ccd_name": "Garbage bin overflowing", "com_location": "West end village docy, Raj path or Royal enfield lane, right bhusari colony, kothrud depo area, Pune, Maharashtra" }, "geometry": { "type": "Point", "coordinates": [ 73.7898881, 18.5123033 ] } },
{ "type": "Feature", "properties": { "ccd_name": "Others (SWM )", "com_location": "shiMde pAra ANi oMkAreshvara maMdirA javaLa. govardhana maMgala kAryAlayA samora, shanivAra peTha. puNe 411030. ghara kra.264/4 chyA mAge." }, "geometry": { "type": "Point", "coordinates": [ 73.8440548, 18.5082486 ] } },
{ "type": "Feature", "properties": { "ccd_name": "Others (SWM )", "com_location": "396 Budhwar peth opp Mahavir market Cholkhanali Pune \r\n" }, "geometry": { "type": "Point", "coordinates": [ 73.8584578, 18.5165879 ] } },
{ "type": "Feature", "properties": { "ccd_name": "Garbage not lifted from co-authorised collection point / House gully", "com_location": "Ramindu park,near Sayakar garden, Baner yethil internal road, Pune, Maharashtra" }, "geometry": { "type": "Point", "coordinates": [ 73.7801709, 18.5654759 ] } },
{ "type": "Feature", "properties": { "ccd_name": "Burning of Garbage/Plastic waste", "com_location": "Albacitta Society Veerbhadra Baner\r\nPune 411045" }, "geometry": { "type": "Point", "coordinates": [ 73.7721533, 18.5592856 ] } },
{ "type": "Feature", "properties": { "ccd_name": "Garbage vehicle not arrived", "com_location": "108 Vishav karam society,sahakarnagar no8 pune 411009." }, "geometry": { "type": "Point", "coordinates": [ 73.854702, 18.4747878 ] } },
{ "type": "Feature", "properties": { "ccd_name": "Garbage not lifted from co-authorised collection point / House gully", "com_location": "43/1,Pimple Gurav Marg,Dapodi,Gangotri Nagar,Pimple Gurav,Pimpri-Chinchwad,Maharashtra 411027,India, Pune, Maharashtra" }, "geometry": { "type": "Point", "coordinates": [ 73.8209486, 18.5877231 ] } },
{ "type": "Feature", "properties": { "ccd_name": "Mosquito nuisance/Fogging", "com_location": "373a/2 rAmakRRiShNa sosAyaTI bAlavikAsa mitramaMDaLA shejArI kanyAshALa grA.cuDa shejArI sosayaTI madhe, Pune, Maharashtra" }, "geometry": { "type": "Point", "coordinates": [ 73.9531189, 18.5646495 ] } },
{ "type": "Feature", "properties": { "ccd_name": "Others (SWM )", "com_location": "koregoan park lane-4 opposite dharewala house, Pune, Maharashtra" }, "geometry": { "type": "Point", "coordinates": [ 73.885955, 18.537156 ] } },
{ "type": "Feature", "properties": { "ccd_name": "Pig Nuisance", "com_location": "Preeti Prakash Society \r\nB T Kawade Road\r\nPune 411036" }, "geometry": { "type": "Point", "coordinates": [ 73.9076817, 18.5139216 ] } },
{ "type": "Feature", "properties": { "ccd_name": "Garbage vehicle not arrived", "com_location": "chandragan phese -7 sr no- 15 ambegaob pathar , Pune, Maharashtra" }, "geometry": { "type": "Point", "coordinates": [ 73.8378493, 18.458235 ] } },
{ "type": "Feature", "properties": { "ccd_name": "Others (SWM )", "com_location": "Chandan Nagar nr new bhaji market shivaji chowk phulai niwas pune 14" }, "geometry": { "type": "Point", "coordinates": [ 73.9119182, 18.5595501 ] } },
{ "type": "Feature", "properties": { "ccd_name": "Garbage not lifted from co-authorised collection point / House gully", "com_location": "model colony vidyabhavan highschool shivaji nagar , Pune, Maharashtra" }, "geometry": { "type": "Point", "coordinates": [ 73.8387601, 18.5310587 ] } },
{ "type": "Feature", "properties": { "ccd_name": "Garbage bin overflowing", "com_location": "Vimal vihar soc near jain temple opp to BIBEVEWADI police station Bibevewadi Pune" }, "geometry": { "type": "Point", "coordinates": [ 73.8642051, 18.4673251 ] } },
{ "type": "Feature", "properties": { "ccd_name": "Garbage not lifted from co-authorised collection point / House gully", "com_location": "Karve road \r\nIndrapushp bldg \r\nNext to ranka jewellers , Pune, Maharashtra" }, "geometry": { "type": "Point", "coordinates": [ 73.8338708, 18.5097835 ] } },
{ "type": "Feature", "properties": { "ccd_name": "Others (SWM )", "com_location": "Dhaval Windscape Society hadapsar sasane nagar., Pune, Maharashtra" }, "geometry": { "type": "Point", "coordinates": [ 73.9289736, 18.4939428 ] } },
{ "type": "Feature", "properties": { "ccd_name": "Huge littering in open plot / Garbage Dump", "com_location": "Open plot opposite Raheja Vistas Phase -1, B2 Building. Next to Rajeja Vistas Premier Gate -1 , Pune, Maharashtra" }, "geometry": { "type": "Point", "coordinates": [ 73.9076543, 18.471289 ] } },
{ "type": "Feature", "properties": { "ccd_name": "Others (SWM )", "com_location": "Tucker Army enclave, Gondhale Nagar Hadapsar,, Pune, Maharashtra" }, "geometry": { "type": "Point", "coordinates": [ 73.948902, 18.4941368 ] } },
{ "type": "Feature", "properties": { "ccd_name": "Others (SWM )", "com_location": "outside Ujwal park NIBM Road Pune 411048.Diagonally opposite MSEB office. NALLAH." }, "geometry": { "type": "Point", "coordinates": [ 73.8929138, 18.4770066 ] } },
{ "type": "Feature", "properties": { "ccd_name": "Mosquito nuisance/Fogging", "com_location": "Sai Sarovar, Ambegaon Khurd, Jambhulwadi Road, Pune 411046" }, "geometry": { "type": "Point", "coordinates": [ 73.8465928, 18.4394151 ] } },
{ "type": "Feature", "properties": { "ccd_name": "Mosquito nuisance/Fogging", "com_location": "gaNeshanagara  vaDagAvasherI, Pune, Maharashtra" }, "geometry": { "type": "Point", "coordinates": [ 73.9252534, 18.5572414 ] } },
{ "type": "Feature", "properties": { "ccd_name": "Others (SWM )", "com_location": "48/42, Erandawane, ex servicemens colony paud road , Sankalp bunglow pune 38" }, "geometry": { "type": "Point", "coordinates": [ 73.8205279, 18.5114447 ] } },
{ "type": "Feature", "properties": { "ccd_name": "Burning of Garbage", "com_location": "Near Maruti Enclave, papde wasti, Pune, Maharashtra" }, "geometry": { "type": "Point", "coordinates": [ 73.9476004, 18.483861 ] } },
{ "type": "Feature", "properties": { "ccd_name": "Mosquito nuisance/Fogging", "com_location": "Gandhaar Apartment, Swaranjali Layout, Sapphire Park Road, Balewadi, Pune-411045 " }, "geometry": { "type": "Point", "coordinates": [ 73.771383, 18.5779892 ] } },
{ "type": "Feature", "properties": { "ccd_name": "Others (SWM )", "com_location": "serve no 3 akhil taljai ganapati mandir samor taljai pathar dhankawadi pune 43\r\n" }, "geometry": { "type": "Point", "coordinates": [ 73.8459544, 18.4740022 ] } },
{ "type": "Feature", "properties": { "ccd_name": "Burning of Garbage/Plastic waste", "com_location": "Behind washroom of Eklavya college, on right side of road going from Eklavya col chowk to Kashikapad, Pune, Maharashtra" }, "geometry": { "type": "Point", "coordinates": [ 73.8786239, 18.5246091 ] } },
{ "type": "Feature", "properties": { "ccd_name": "Mosquito nuisance/Fogging", "com_location": "Anand Thakur \r\nFlat no 11, laxmideep Society, Manikbaug, Sinhagad Road, Pune 411051." }, "geometry": { "type": "Point", "coordinates": [ 73.8355127, 18.4744991 ] } },
{ "type": "Feature", "properties": { "ccd_name": "Others (SWM )", "com_location": "D-1/103 brisbane niyati evra, mohhamadwadi road undri , Pune, Maharashtra" }, "geometry": { "type": "Point", "coordinates": [ 73.9182989, 18.4588505 ] } },
{ "type": "Feature", "properties": { "ccd_name": "Mosquito nuisance/Fogging", "com_location": "467 SHANIWAR PETH PUNE 30" }, "geometry": { "type": "Point", "coordinates": [ 73.8549662, 18.5211047 ] } },
{ "type": "Feature", "properties": { "ccd_name": "Others (SWM )", "com_location": "Kerala Ayurvedic Treatment Center, Near Bata Store, Baner, Pune 45" }, "geometry": { "type": "Point", "coordinates": [ 73.8060387, 18.5606467 ] } },
{ "type": "Feature", "properties": { "ccd_name": "Garbage bin overflowing", "com_location": "lohagAva puNe mojhe ALI CTSN 773 shubhama homsa sosAyaTI." }, "geometry": { "type": "Point", "coordinates": [ 73.9531189, 18.5646495 ] } },
{ "type": "Feature", "properties": { "ccd_name": "Others (SWM )", "com_location": " three way junction of Vaidehi Enclave, Bavdhan, Pune 21." }, "geometry": { "type": "Point", "coordinates": [ 73.774997, 18.5118991 ] } },
{ "type": "Feature", "properties": { "ccd_name": "Others (SWM )", "com_location": "sr no 15/16 samarth terraces,wadgaon budruk infront of Abhinav school suncity road pune 41" }, "geometry": { "type": "Point", "coordinates": [ 73.8220748, 18.4783667 ] } },
{ "type": "Feature", "properties": { "ccd_name": "Others (SWM )", "com_location": " Vimal Vihar Soc opposite police station Bibwewadi pune 37" }, "geometry": { "type": "Point", "coordinates": [ 73.8647129, 18.4673761 ] } },
{ "type": "Feature", "properties": { "ccd_name": "Garbage not lifted from co-authorised collection point / House gully", "com_location": "Garbage  Ex-Serviceman Society  Paud Road, Pune, Maharashtra" }, "geometry": { "type": "Point", "coordinates": [ 73.8075018, 18.5074187 ] } },
{ "type": "Feature", "properties": { "ccd_name": "Mosquito nuisance/Fogging", "com_location": " saMtoShanagara AjhAda mitra maMDaLa lena naMbara 1 yA gallItIla Shivani Patil, Pune, Maharashtra" }, "geometry": { "type": "Point", "coordinates": [ 73.8786239, 18.5246091 ] } },
{ "type": "Feature", "properties": { "ccd_name": "Others (SWM )", "com_location": "Tirupati Campus,\r\nPhase 2, Adarsh Colony, Road-2, Tingrenagar, Pune" }, "geometry": { "type": "Point", "coordinates": [ 73.8881143, 18.5779695 ] } },
{ "type": "Feature", "properties": { "ccd_name": "Others (SWM )", "com_location": "pancard club road , baner, Pune, Maharashtra" }, "geometry": { "type": "Point", "coordinates": [ 73.7781704, 18.5589916 ] } },
{ "type": "Feature", "properties": { "ccd_name": "Others (SWM )", "com_location": " Dhayari Phata - Dhayari Gaon Road, Pune, Maharashtra" }, "geometry": { "type": "Point", "coordinates": [ 73.81031, 18.447772 ] } },
{ "type": "Feature", "properties": { "ccd_name": "Others (SWM )", "com_location": "near amit hospital yerwada petrol pump, Pune, Maharashtra" }, "geometry": { "type": "Point", "coordinates": [ 73.888174, 18.5462022 ] } },
{ "type": "Feature", "properties": { "ccd_name": "Others (SWM )", "com_location": " keshavnagar mundhwa to Orbis School,, Pune, Maharashtra" }, "geometry": { "type": "Point", "coordinates": [ 73.9502088, 18.5324561 ] } },
{ "type": "Feature", "properties": { "ccd_name": "Others (SWM )", "com_location": "prabhAga 38 rAjasa sosAyaTI, Pune, Maharashtra" }, "geometry": { "type": "Point", "coordinates": [ 73.9531189, 18.5646495 ] } },
{ "type": "Feature", "properties": { "ccd_name": "Mosquito nuisance/Fogging", "com_location": "Sai Water Crest Building Modak Wasti Jambhulwadi Road Ambegoan Khurd Pune 411046" }, "geometry": { "type": "Point", "coordinates": [ 73.842957, 18.431656 ] } },
{ "type": "Feature", "properties": { "ccd_name": "Others (SWM )", "com_location": "prabhAga kramAMka 29 manapA shALA\r\n kramAMka 80 bA. ga . jagatApa  shALA parisarAta {}, Pune, Maharashtra" }, "geometry": { "type": "Point", "coordinates": [ 73.932337, 18.512446 ] } },
{ "type": "Feature", "properties": { "ccd_name": "Others (SWM )", "com_location": "pU la deshapAMDe gArDana parisarAmadhye, siMhagaDa roDa varIla phUTapAtha., Pune, Maharashtra" }, "geometry": { "type": "Point", "coordinates": [ 73.837086900000017, 18.4912753 ] } },
{ "type": "Feature", "properties": { "ccd_name": "Mosquito nuisance/Fogging", "com_location": "223, 4A/2, Parijat Colony near SERUM Institute Gate No 4A, Pune, Maharashtra" }, "geometry": { "type": "Point", "coordinates": [ 73.9449356, 18.5029674 ] } },
{ "type": "Feature", "properties": { "ccd_name": "Garbage not lifted from co-authorised collection point / House gully", "com_location": "shantivir chowk navi khadki yerwada pun, Pune, Maharashtra" }, "geometry": { "type": "Point", "coordinates": [ 73.8857168, 18.5512038 ] } },
{ "type": "Feature", "properties": { "ccd_name": "Burning of Garbage/Plastic waste", "com_location": " Milenium park Kondhwa Khurd- Meetha Nagar\r\n, Pune, Maharashtra" }, "geometry": { "type": "Point", "coordinates": [ 73.8810205, 18.4722983 ] } },
{ "type": "Feature", "properties": { "ccd_name": "Garbage not lifted from co-authorised collection point / House gully", "com_location": "Keshav Nagar Rd, Sharad Nagar, Mundhwa, Pune,411036" }, "geometry": { "type": "Point", "coordinates": [ 73.9459089, 18.5348414 ] } },
{ "type": "Feature", "properties": { "ccd_name": "Others (SWM )", "com_location": "Opp Janaki Residency\r\nS. No.6, Baner Hill Road\r\nLane opp Bata Showroom \r\nBaner Road, Pune, Maharashtra" }, "geometry": { "type": "Point", "coordinates": [ 73.7932784, 18.5562178 ] } },
{ "type": "Feature", "properties": { "ccd_name": "Others (SWM )", "com_location": " j~nAnala maMgala kAryAlayA samorIla (rAmabAga vasAhata , navI peTha ) , Pune, Maharashtra" }, "geometry": { "type": "Point", "coordinates": [ 73.840436, 18.506821 ] } },
{ "type": "Feature", "properties": { "ccd_name": "Burning of Garbage/Plastic waste", "com_location": "Near our society Kumar Princetown, , Pune, Maharashtra" }, "geometry": { "type": "Point", "coordinates": [ 73.9041164, 18.4602509 ] } },
{ "type": "Feature", "properties": { "ccd_name": "Mosquito nuisance/Fogging", "com_location": " near Daulatngar,sun city road,sinhagad police station,ABCDEFG WINGS Pune 411051" }, "geometry": { "type": "Point", "coordinates": [ 73.8134175, 18.4722484 ] } },
{ "type": "Feature", "properties": { "ccd_name": "Others (SWM )", "com_location": "mAtA ramAI AMbeDakara udyAna samorI vADiyA ka leja mena geTa, Pune, Maharashtra" }, "geometry": { "type": "Point", "coordinates": [ 73.8780883, 18.5325909 ] } },
{ "type": "Feature", "properties": { "ccd_name": "Mosquito nuisance/Fogging", "com_location": "sr no 58 jadhav wasti deccan papaer mill road mundhwa pune 36. Shalima society" }, "geometry": { "type": "Point", "coordinates": [ 73.9278479, 18.5297628 ] } },
{ "type": "Feature", "properties": { "ccd_name": "Others (SWM )", "com_location": "Audi Arcade Co-operative Housing Society,\r\nSr. No. 663, CTS no 828 , Near Lake Town\r\nPune-411037" }, "geometry": { "type": "Point", "coordinates": [ 73.8376448, 18.500334 ] } },
{ "type": "Feature", "properties": { "ccd_name": "Pig Nuisance", "com_location": "welcome hall kondhwa Dsk society kondhwa Homewood society kondhwa Near Kumar suraksha, city lawn kondhwa (parge nagar) , Pune, Maharashtra" }, "geometry": { "type": "Point", "coordinates": [ 73.8920735, 18.4682926 ] } },
{ "type": "Feature", "properties": { "ccd_name": "Mosquito nuisance/Fogging", "com_location": "Alapini Apts.,\r\n1205/3/2, Deccan Gymkhana,\r\nOff J. M. Road,\r\nIn the lane between Adidas and Skechers Showroom,\r\nPune - 411004" }, "geometry": { "type": "Point", "coordinates": [ 73.8467995, 18.5219049 ] } },
{ "type": "Feature", "properties": { "ccd_name": "Garbage bin overflowing", "com_location": "Ambegaon BK pune 46 Sr no 16 Sai siddhiki chowk " }, "geometry": { "type": "Point", "coordinates": [ 73.842437, 18.462668 ] } },
{ "type": "Feature", "properties": { "ccd_name": "Mosquito nuisance/Fogging", "com_location": "Thorat s Bunglow Near Kalmadi school Prabhat Road. Sahakar sadan path, Pune, Maharashtra" }, "geometry": { "type": "Point", "coordinates": [ 73.8336333, 18.5118704 ] } },
{ "type": "Feature", "properties": { "ccd_name": "Garbage not lifted from co-authorised collection point / House gully", "com_location": "Opp Sawarkar Bhawan, Congress House Road\r\nPune 411005" }, "geometry": { "type": "Point", "coordinates": [ 73.849992, 18.522136 ] } },
{ "type": "Feature", "properties": { "ccd_name": "Others (SWM )", "com_location": " 623 gaMja peTha puNe mahAtmA phule " }, "geometry": { "type": "Point", "coordinates": [ 73.8440548, 18.5082486 ] } },
{ "type": "Feature", "properties": { "ccd_name": "Garbage not lifted from co-authorised collection point / House gully", "com_location": "F Wing, \r\nKaran Ashiyana, Somnathnagar Wadgaonsheri pune 411014" }, "geometry": { "type": "Point", "coordinates": [ 73.9207192, 18.5550948 ] } },
{ "type": "Feature", "properties": { "ccd_name": "Others (SWM )", "com_location": "sAI vihAra te shivateja nagara roDavara navina sAsavaDa relve sTeshana simA bhiMta .kALepaDaLa.hADapasara , Pune, Maharashtra" }, "geometry": { "type": "Point", "coordinates": [ 73.8786239, 18.5246091 ] } },
{ "type": "Feature", "properties": { "ccd_name": "Others (SWM )", "com_location": "Park Ridge road New Road from Kumar Shantiniketan Baner Pashan link Road to Someshwar temple, Pune, Maharashtra" }, "geometry": { "type": "Point", "coordinates": [ 73.7867629, 18.5590032 ] } },
{ "type": "Feature", "properties": { "ccd_name": "Garbage not lifted from co-authorised collection point / House gully", "com_location": "A and B Wing Society in Lane 3 Shinde Nagar near Maratha Mandir off NDA Pashan Road Bavdhan, Pune, Maharashtra" }, "geometry": { "type": "Point", "coordinates": [ 73.781295, 18.5110199 ] } },
{ "type": "Feature", "properties": { "ccd_name": "Garbage not lifted from co-authorised collection point / House gully", "com_location": "staff qurter kendriya vidyalaya army area , lulla nagar pune " }, "geometry": { "type": "Point", "coordinates": [ 73.8812326, 18.4869723 ] } },
{ "type": "Feature", "properties": { "ccd_name": "Burning of Garbage/Plastic waste", "com_location": "Ashwini clashics c building,opp anandpur hospital nbm road,kondhwa pune 411048." }, "geometry": { "type": "Point", "coordinates": [ 73.8997474, 18.4790996 ] } },
{ "type": "Feature", "properties": { "ccd_name": "Others (SWM )", "com_location": "mahAlakShmInagara bibavevADIgeTa 2 , Pune, Maharashtra" }, "geometry": { "type": "Point", "coordinates": [ 73.8786239, 18.5246091 ] } },
{ "type": "Feature", "properties": { "ccd_name": "Others (SWM )", "com_location": "Samta mitra mandal hanuman nagar , Pune, Maharashtra" }, "geometry": { "type": "Point", "coordinates": [ 73.8321655, 18.5260789 ] } },
{ "type": "Feature", "properties": { "ccd_name": "Burning of Garbage/Plastic waste", "com_location": "opposite to Green Valley CHS, Wanowrie (Wanawadi), , Pune, Maharashtra" }, "geometry": { "type": "Point", "coordinates": [ 73.900055, 18.4895457 ] } },
{ "type": "Feature", "properties": { "ccd_name": "Others (SWM )", "com_location": "Sr.No.46/1, Govindnagar Society, near Khalsa Gym, chandannagar pune 411014." }, "geometry": { "type": "Point", "coordinates": [ 73.9325552, 18.5635511 ] } },
{ "type": "Feature", "properties": { "ccd_name": "Pig Nuisance", "com_location": "partiksha socity suraksha nagar land mark near juni mahada colony vaidhwadi hadapsar , Pune, Maharashtra" }, "geometry": { "type": "Point", "coordinates": [ 73.9278993, 18.4964236 ] } },
{ "type": "Feature", "properties": { "ccd_name": "Garbage not lifted from co-authorised collection point / House gully", "com_location": "Survey no 52/4 Galande Nagar Wadgaon Sheri Near mother Teresa school Pune 411014" }, "geometry": { "type": "Point", "coordinates": [ 73.9292656, 18.5439774 ] } },
{ "type": "Feature", "properties": { "ccd_name": "Mosquito nuisance/Fogging", "com_location": "Swaroop Co-op hsg soc, Off khilare patil road, near Reliance mall, Mhatre bridge, Erandawane, Pune-4" }, "geometry": { "type": "Point", "coordinates": [ 73.8314073, 18.502951 ] } },
{ "type": "Feature", "properties": { "ccd_name": "Garbage not lifted from co-authorised collection point / House gully", "com_location": "Aundh link road near kapli malhar society , Pune, Maharashtra" }, "geometry": { "type": "Point", "coordinates": [ 73.7915426, 18.5605025 ] } },
{ "type": "Feature", "properties": { "ccd_name": "Others (SWM )", "com_location": "tAMbaDI jogeshvarI maMdIrA javaLa daravAjA madhyai, Pune, Maharashtra" }, "geometry": { "type": "Point", "coordinates": [ 73.8549416, 18.5167441 ] } },
{ "type": "Feature", "properties": { "ccd_name": "Mosquito nuisance/Fogging", "com_location": "florida county, bld b-1, flt no-301, keshav nagar munhva pune -36" }, "geometry": { "type": "Point", "coordinates": [ 73.9399173, 18.530423 ] } },
{ "type": "Feature", "properties": { "ccd_name": "Others (SWM )", "com_location": "bAjIrAva roDavara shanipAra basa sTa pa , Pune, Maharashtra" }, "geometry": { "type": "Point", "coordinates": [ 73.853792, 18.51217 ] } },
{ "type": "Feature", "properties": { "ccd_name": "Burning of Garbage/Plastic waste", "com_location": ". Pt. Jitendra Abhisheki Udyan, Prabhaag 13., Pune, Maharashtra" }, "geometry": { "type": "Point", "coordinates": [ 73.8786239, 18.5246091 ] } },
{ "type": "Feature", "properties": { "ccd_name": "Mosquito nuisance/Fogging", "com_location": "soham riveria suncity road sinhagad road .. near sun planet society pune 51" }, "geometry": { "type": "Point", "coordinates": [ 73.8131418, 18.4780731 ] } },
{ "type": "Feature", "properties": { "ccd_name": "Others (SWM )", "com_location": "outside road of willows society, Umarji hospital lane, Balewadi, Pune, Maharashtra" }, "geometry": { "type": "Point", "coordinates": [ 73.780775, 18.5716854 ] } },
{ "type": "Feature", "properties": { "ccd_name": "Garbage not lifted from co-authorised collection point / House gully", "com_location": "Plot No 53/5, Vishnukamal Apartment, WalvekarNagar, Shivdarshan Road, Pune 411009" }, "geometry": { "type": "Point", "coordinates": [ 73.8540782, 18.4827052 ] } },
{ "type": "Feature", "properties": { "ccd_name": "Garbage bin overflowing", "com_location": "Shiv shankar society prabhag no 36 Bibvewadi , Pune, Maharashtra" }, "geometry": { "type": "Point", "coordinates": [ 73.8686568, 18.4828077 ] } },
{ "type": "Feature", "properties": { "ccd_name": "Huge littering in open plot / Garbage Dump", "com_location": "next to main road before Siddharth Heights, Wanowrie, ahead of Naren Hills Society., Pune, Maharashtra" }, "geometry": { "type": "Point", "coordinates": [ 73.9078436, 18.4835782 ] } },
{ "type": "Feature", "properties": { "ccd_name": "Others (SWM )", "com_location": "Area : Behind Bitwise building,  On Mumbai Bangalore highway,  Baner,  Pune." }, "geometry": { "type": "Point", "coordinates": [ 73.770486, 18.557035 ] } },
{ "type": "Feature", "properties": { "ccd_name": "Others (SWM )", "com_location": "Tukai Mata mandir road, gliding center entry, kale padal, hadapsar, Pune 411028" }, "geometry": { "type": "Point", "coordinates": [ 73.9455133, 18.5323802 ] } },
{ "type": "Feature", "properties": { "ccd_name": "Others (SWM )", "com_location": "jeemaDI eMkaleva sosAiTI chyA samora mohammadavAdI roDa|  mAravela isolA chyA samora , Pune, Maharashtra" }, "geometry": { "type": "Point", "coordinates": [ 73.8786239, 18.5246091 ] } },
{ "type": "Feature", "properties": { "ccd_name": "Others (SWM )", "com_location": "mira society Salisbury park pune 37" }, "geometry": { "type": "Point", "coordinates": [ 73.87572, 18.4926135 ] } },
{ "type": "Feature", "properties": { "ccd_name": "Others (SWM )", "com_location": "DSK Sundarban Phase-2, beside Pawar public school sadesatranali, Hadapsar, Pune, Maharashtra" }, "geometry": { "type": "Point", "coordinates": [ 73.9395056, 18.5166111 ] } },
{ "type": "Feature", "properties": { "ccd_name": "Dog Nuisance", "com_location": "rutuja park surve no 317 plot 119-120 uruli devachi 412308, Pune, Maharashtra" }, "geometry": { "type": "Point", "coordinates": [ 73.9401793, 18.4602359 ] } },
{ "type": "Feature", "properties": { "ccd_name": "Others (SWM )", "com_location": "Meghdoot\r\n\r\nGagan galaxy, Pune, Mah r shtra 411037" }, "geometry": { "type": "Point", "coordinates": [ 73.8753306, 18.4802813 ] } },
{ "type": "Feature", "properties": { "ccd_name": "Others (SWM )", "com_location": "Outside our society ,\r\nGanatra complex \r\nOpp shilpa park \r\nBibwewadi kondhwa road \r\nMarket yard \r\nPune 37" }, "geometry": { "type": "Point", "coordinates": [ 73.8688651, 18.4814779 ] } },
{ "type": "Feature", "properties": { "ccd_name": "Others (SWM )", "com_location": "Vadgaon Sheri, Sundrabai school chouk,  old mundhva road, Pune, Maharashtra" }, "geometry": { "type": "Point", "coordinates": [ 73.9282957, 18.5573383 ] } },
{ "type": "Feature", "properties": { "ccd_name": "Garbage not lifted from co-authorised collection point / House gully", "com_location": "chaitanya pla.cTinama sosAyaTI, dasarA chauka, bAlevADI, puNe -411045" }, "geometry": { "type": "Point", "coordinates": [ 73.77638, 18.573905 ] } },
{ "type": "Feature", "properties": { "ccd_name": "Garbage bin overflowing", "com_location": "Atal society near vasant baug stop Bibvewadi, Pune, Maharashtra" }, "geometry": { "type": "Point", "coordinates": [ 73.8600056, 18.4824247 ] } },
{ "type": "Feature", "properties": { "ccd_name": "Mosquito nuisance/Fogging", "com_location": "21, purtI sosAyaTI keshava ka mpleksa chyA mAghe dhanakavaDI, puNe 411043." }, "geometry": { "type": "Point", "coordinates": [ 73.8447742, 18.4718651 ] } },
{ "type": "Feature", "properties": { "ccd_name": "Garbage not lifted from co-authorised collection point / House gully", "com_location": " Daripul to Warje area, Pune, Maharashtra" }, "geometry": { "type": "Point", "coordinates": [ 73.796834, 18.4864727 ] } },
{ "type": "Feature", "properties": { "ccd_name": "Garbage bin overflowing", "com_location": "JayshreeMotors 367 somwarpeth Narpatgiri chowk pune 11" }, "geometry": { "type": "Point", "coordinates": [ 73.8677526, 18.5225561 ] } },