{
"type": "FeatureCollection",
"name": "2021_Electrical",
"crs": { "type": "name", "properties": { "name": "urn:ogc:def:crs:OGC:1.3:CRS84" } },
"features": [
{ "type": "Feature", "properties": { "ccd_name": "Making street light functional", "com_location": "railway crossing palikade sana backery hadpsar kalepadal., Pune, Maharashtra" }, "geometry": { "type": "Point", "coordinates": [ 73.941631500000014, 18.4808873 ] } },
{ "type": "Feature", "properties": { "ccd_name": "Making street light functional", "com_location": "AshIrvAda' lena naMbara 15, rAjArAma pATIla nagara, kharADI, puNe 411014." }, "geometry": { "type": "Point", "coordinates": [ 73.9394376, 18.5626697 ] } },
{ "type": "Feature", "properties": { "ccd_name": "A new street light (new demand)", "com_location": "Mantra Insignia keshvanagar, mundhwa pune" }, "geometry": { "type": "Point", "coordinates": [ 73.9487194, 18.5384436 ] } },
{ "type": "Feature", "properties": { "ccd_name": "Making street light functional", "com_location": "614 narayan peth near acceler shop pune 30" }, "geometry": { "type": "Point", "coordinates": [ 73.8500717, 18.5154741 ] } },
{ "type": "Feature", "properties": { "ccd_name": "Making street light functional", "com_location": " shrImaMta gaNarAja kRRipA bilDiMMga  naM appara  iMdirAnagara punama gArDana  javaLa,bibevADi  puNe 411037, janatA sahakArI ba.ckechyA samorachI gallI," }, "geometry": { "type": "Point", "coordinates": [ 73.8640944, 18.4690213 ] } },
{ "type": "Feature", "properties": { "ccd_name": "Making street light functional", "com_location": "Ramnagar,\r\nKHAN VASTI ROAD, \r\nAnnabhau sathe chowk,\r\nmangwada vasti,\r\nNext to DHAVARE RATION SHOP\r\nBEHIND SALMAN TAILOR, \r\nRAMNAGAR WARJE, Pune, Maharashtra" }, "geometry": { "type": "Point", "coordinates": [ 73.8029399, 18.4725938 ] } },
{ "type": "Feature", "properties": { "ccd_name": "Making street light functional", "com_location": "North main road lane E Koregaon park, Pune, Maharashtra" }, "geometry": { "type": "Point", "coordinates": [ 73.8940827, 18.5396082 ] } },
{ "type": "Feature", "properties": { "ccd_name": "Removal of open electric box (silver color) on street light pole", "com_location": "pAMDava nagara, hLLitAtmA rAjaguru vidyAlaya javaLa, puNe 411016" }, "geometry": { "type": "Point", "coordinates": [ 73.8299107, 18.5289843 ] } },
{ "type": "Feature", "properties": { "ccd_name": "Making street light functional", "com_location": "Jeevan Vihar , inside Shivaji Housing, near Bahiratwadi, Pune, Maharashtra" }, "geometry": { "type": "Point", "coordinates": [ 73.829469, 18.534325 ] } },
{ "type": "Feature", "properties": { "ccd_name": "Making street light functional", "com_location": "Sr no 290 shivnagar moze ali lohegaon near apple hospital pune 411047" }, "geometry": { "type": "Point", "coordinates": [ 73.9274147, 18.5993572 ] } },
{ "type": "Feature", "properties": { "ccd_name": "A new street light (new demand)", "com_location": "upto Lohegaon, on wagholi road, Pune, Maharashtra" }, "geometry": { "type": "Point", "coordinates": [ 73.9275914, 18.6031447 ] } },
{ "type": "Feature", "properties": { "ccd_name": "Making street light functional", "com_location": "kharADI muMDhavA nadI pulAjavaLa sAInAthanagara gaNapatI ghATa yethIla , Pune, Maharashtra" }, "geometry": { "type": "Point", "coordinates": [ 73.933003, 18.5330323 ] } },
{ "type": "Feature", "properties": { "ccd_name": "Other (ELECTRICAL)", "com_location": " Katraj lake. , Pune, Maharashtra" }, "geometry": { "type": "Point", "coordinates": [ 73.8629937, 18.4444385 ] } },
{ "type": "Feature", "properties": { "ccd_name": "Making street light functional", "com_location": "sus road pashan sai leela hotel , Pune, Maharashtra" }, "geometry": { "type": "Point", "coordinates": [ 73.7844578, 18.5436541 ] } },
{ "type": "Feature", "properties": { "ccd_name": "Making street light functional", "com_location": "Pl see complaint \tW67888, Pune, Maharashtra" }, "geometry": { "type": "Point", "coordinates": [ 73.8786239, 18.5246091 ] } },
{ "type": "Feature", "properties": { "ccd_name": "Making street light functional", "com_location": "Survey number 19 2b Ambegaon Pathar Holkarnagar Pune 411046" }, "geometry": { "type": "Point", "coordinates": [ 73.8460645, 18.4632824 ] } },
{ "type": "Feature", "properties": { "ccd_name": "Making street light functional", "com_location": "gopikrishna apt.plot n-425/15, TMV colony boi lane bibwewadi , Pune, Maharashtra" }, "geometry": { "type": "Point", "coordinates": [ 73.865062, 18.4949265 ] } },
{ "type": "Feature", "properties": { "ccd_name": "Making street light functional", "com_location": "Lane No. A 19, Near Tarangan Residency, Abasaheb Raykar Nagar,\r\nDhayari, Pune\r\nPIN-411041" }, "geometry": { "type": "Point", "coordinates": [ 73.8110708, 18.4545358 ] } },
{ "type": "Feature", "properties": { "ccd_name": "Making street light functional", "com_location": "Shaniwarwada shivaji road, Pune, Maharashtra" }, "geometry": { "type": "Point", "coordinates": [ 73.8554208, 18.5195841 ] } },
{ "type": "Feature", "properties": { "ccd_name": "Other (ELECTRICAL)", "com_location": "old mubai pune highway new anupam nagri society " }, "geometry": { "type": "Point", "coordinates": [ 73.8395767, 18.5670072 ] } },
{ "type": "Feature", "properties": { "ccd_name": "Making street light functional", "com_location": "Harantale vasti lohgaon pune 411047" }, "geometry": { "type": "Point", "coordinates": [ 73.9653193, 18.5891344 ] } },
{ "type": "Feature", "properties": { "ccd_name": "Repairing street light pole (damaged / fallen)", "com_location": "Cts 82/85, Puneet Apartments, Prabhat Road, Lane No 13, Pune 411004" }, "geometry": { "type": "Point", "coordinates": [ 73.8320788, 18.5152654 ] } },
{ "type": "Feature", "properties": { "ccd_name": "Making street light functional", "com_location": "opposite KFC restaurent baner road adjecent lane to HDFC home loan ,omega residency, Pune, Maharashtra" }, "geometry": { "type": "Point", "coordinates": [ 73.7823772, 18.5645747 ] } },
{ "type": "Feature", "properties": { "ccd_name": "Making street light functional", "com_location": "Peninsula apartment next to baner telephone exchange building pune" }, "geometry": { "type": "Point", "coordinates": [ 73.7953015, 18.556659 ] } },
{ "type": "Feature", "properties": { "ccd_name": "Making street light functional", "com_location": "D7 Sonali tower Kasturba housing society near belfere hospitals Vishrantvadi, Pune, Maharashtra" }, "geometry": { "type": "Point", "coordinates": [ 73.8828957, 18.5724962 ] } },
{ "type": "Feature", "properties": { "ccd_name": "Making street light functional", "com_location": "at Lane No 2 Shramik Nagar, Dhanori. , Pune, Maharashtra" }, "geometry": { "type": "Point", "coordinates": [ 73.8893174, 18.5812977 ] } },
{ "type": "Feature", "properties": { "ccd_name": "Making street light functional", "com_location": "Bopodi Jain \r\nMandir \r\nBehind Bopodi police station, Pune, Maharashtra" }, "geometry": { "type": "Point", "coordinates": [ 73.8380423, 18.5705898 ] } },
{ "type": "Feature", "properties": { "ccd_name": "A new street light (new demand)", "com_location": "Everglade society, Kharadi bypass road, Near gulmohar park view society, kharadi, Pune\t" }, "geometry": { "type": "Point", "coordinates": [ 73.9339596, 18.5458805 ] } },
{ "type": "Feature", "properties": { "ccd_name": "Making street light functional", "com_location": "puNe- yeravaDA golpha chauka te nAgapUra chALa posTa  phisa paryaMta" }, "geometry": { "type": "Point", "coordinates": [ 73.879711, 18.5529226 ] } },
{ "type": "Feature", "properties": { "ccd_name": "Making street light functional", "com_location": "APTE ROAD, FROM KOHINOOR EXECUTIVE HOTEL TO SANTOSH BAKERY, Pune, Maharashtra" }, "geometry": { "type": "Point", "coordinates": [ 73.8443879, 18.5228309 ] } },
{ "type": "Feature", "properties": { "ccd_name": "Making street light functional", "com_location": "sa na  161, bhosale nagara haDapasara puNe 411028  " }, "geometry": { "type": "Point", "coordinates": [ 73.932648, 18.5053555 ] } },
{ "type": "Feature", "properties": { "ccd_name": "Making street light functional", "com_location": "baner pashan link road capital building javal  411021\r\n, Pune, Maharashtra" }, "geometry": { "type": "Point", "coordinates": [ 73.7911009, 18.5480592 ] } },
{ "type": "Feature", "properties": { "ccd_name": "Making street light functional", "com_location": "paThAre Thube nagara (pArAshara sosAyaTI bAlAjI ha spiTala mAge sa naM 43 leMna naM 6 puNe 14 nagara roDa" }, "geometry": { "type": "Point", "coordinates": [ 73.9398287, 18.5614683 ] } },
{ "type": "Feature", "properties": { "ccd_name": "Making street light functional", "com_location": "52/2 pArAshara sosAyaTI lena naMM 4 , Pune, Maharashtra" }, "geometry": { "type": "Point", "coordinates": [ 73.9275089, 18.5294079 ] } },
{ "type": "Feature", "properties": { "ccd_name": "A new street light (new demand)", "com_location": "Golden court Aundh Road, Pune, Maharashtra" }, "geometry": { "type": "Point", "coordinates": [ 73.8369997, 18.5614909 ] } },
{ "type": "Feature", "properties": { "ccd_name": "Making street light functional", "com_location": "Lane Number 16, Rajaram Patil Nagar, Vitthal Nagar, Kharadi, Pune, " }, "geometry": { "type": "Point", "coordinates": [ 73.9542442, 18.5596196 ] } },
{ "type": "Feature", "properties": { "ccd_name": "Making street light functional", "com_location": " Indira shankar nagari nishigandh society  paud road kothrud pune 38" }, "geometry": { "type": "Point", "coordinates": [ 73.7981605, 18.5092478 ] } },
{ "type": "Feature", "properties": { "ccd_name": "Making street light functional", "com_location": "287 navi khadki old tamil yerwada pune 06" }, "geometry": { "type": "Point", "coordinates": [ 73.8859083, 18.5497248 ] } },
{ "type": "Feature", "properties": { "ccd_name": "Others (Garden-Electrical)", "com_location": "Tikone garden , Pune, Maharashtra" }, "geometry": { "type": "Point", "coordinates": [ 73.8367603, 18.4913813 ] } },
{ "type": "Feature", "properties": { "ccd_name": "Repairing of Lights / Halogen in Garden", "com_location": "Rasta peth,KEM hospital pune 411011.\t" }, "geometry": { "type": "Point", "coordinates": [ 73.8674781, 18.5197777 ] } },
{ "type": "Feature", "properties": { "ccd_name": "Other (ELECTRICAL)", "com_location": "Santnagar, Lohegaon, Pune 411047" }, "geometry": { "type": "Point", "coordinates": [ 73.9372971, 18.5947006 ] } },
{ "type": "Feature", "properties": { "ccd_name": "Making street light functional", "com_location": "sa na 161 vardhamAna baMgalA te gaNesha sosAyaTI bhosale nagara haDapasara  puNe 411028" }, "geometry": { "type": "Point", "coordinates": [ 73.931139, 18.5060533 ] } },
{ "type": "Feature", "properties": { "ccd_name": "Making street light functional", "com_location": "nyU yasha sahakArI sosAyaTI,sa.na.89/90,lokamAnya ka lanI ,pauDaroDa sIenajI paMpA mAge,kotharuDa,puNe 38" }, "geometry": { "type": "Point", "coordinates": [ 73.8786239, 18.5246091 ] } },
{ "type": "Feature", "properties": { "ccd_name": "Making street light functional", "com_location": "ser  no 155 mseb Colony opp aundh goan pune 7" }, "geometry": { "type": "Point", "coordinates": [ 73.8089447, 18.5635373 ] } },
{ "type": "Feature", "properties": { "ccd_name": "Others (Garden-Electrical)", "com_location": " hutatma Babu genu udayan Kondhwa bk., Pune, Maharashtra" }, "geometry": { "type": "Point", "coordinates": [ 73.8889779, 18.4695088 ] } },
{ "type": "Feature", "properties": { "ccd_name": "Making street light functional", "com_location": "Pushkraj socity Indira kids school Baner road Op Prabhavi Tack , Pune, Maharashtra" }, "geometry": { "type": "Point", "coordinates": [ 73.7790453, 18.562075 ] } },
{ "type": "Feature", "properties": { "ccd_name": "Making street light functional", "com_location": "1052 Nana Peth Namrata Tarun Mandal \r\n, Pune, Maharashtra" }, "geometry": { "type": "Point", "coordinates": [ 73.86982, 18.5121993 ] } },
{ "type": "Feature", "properties": { "ccd_name": "Making street light functional", "com_location": "Dhole pATIla roDa | EON IT pArka samora| kharADI, Pune, Maharashtra" }, "geometry": { "type": "Point", "coordinates": [ 73.960596, 18.5558026 ] } },
{ "type": "Feature", "properties": { "ccd_name": "A new street light (new demand)", "com_location": "AMbegAva khurda samAja maMdira samora , Pune, Maharashtra" }, "geometry": { "type": "Point", "coordinates": [ 73.8786239, 18.5246091 ] } },
{ "type": "Feature", "properties": { "ccd_name": "Repairing street light pole (damaged / fallen)", "com_location": "7th Heven Dhanorie, Pune, Maharashtra" }, "geometry": { "type": "Point", "coordinates": [ 73.904808, 18.6041963 ] } },
{ "type": "Feature", "properties": { "ccd_name": "Signal not working", "com_location": "Vadgaon Sheri, Tata Guard room chouk, Nagar road, Pune, Maharashtra" }, "geometry": { "type": "Point", "coordinates": [ 73.9282552, 18.5622128 ] } },
{ "type": "Feature", "properties": { "ccd_name": "Making street light functional", "com_location": "kumar papilon society sutar wadi depo pashan pune " }, "geometry": { "type": "Point", "coordinates": [ 73.7783982, 18.5427011 ] } },
{ "type": "Feature", "properties": { "ccd_name": "A new street light (new demand)", "com_location": "gaMgAdhAma te kapilanagara svAmI vivekAnaMda gArDana- qoMDhavA budraka, Pune, Maharashtra" }, "geometry": { "type": "Point", "coordinates": [ 73.8164111, 18.4605692 ] } },
{ "type": "Feature", "properties": { "ccd_name": "Making street light functional", "com_location": "Please fix the street lights behind chatrapathi Shivaji Maharaj Statue , Navi Khadki, Yerwada Pune 6" }, "geometry": { "type": "Point", "coordinates": [ 73.888737, 18.551179 ] } },
{ "type": "Feature", "properties": { "ccd_name": "Making street light functional", "com_location": "Shrddha bangla house number 486 sr no 22/1B venketesh socity Balaji nagar dhankhwadi , Pune, Maharashtra" }, "geometry": { "type": "Point", "coordinates": [ 73.8546821, 18.4654546 ] } },
{ "type": "Feature", "properties": { "ccd_name": "Removal of open electric box (silver color) on street light pole", "com_location": " In front of Shiv Sagar Hotel, JM Road., Pune, Maharashtra" }, "geometry": { "type": "Point", "coordinates": [ 73.8458162, 18.5203195 ] } },
{ "type": "Feature", "properties": { "ccd_name": "Making street light functional", "com_location": "ma.cjesTika yuriskA, nyAtI isTeTa roDa, hAya sTeshana ilekTrikala pola javaLa, mohamadavADI, puNe 411006." }, "geometry": { "type": "Point", "coordinates": [ 73.890142, 18.546553 ] } },
{ "type": "Feature", "properties": { "ccd_name": "Making street light functional", "com_location": "sonavaNe ha spiTalamadhIla va chamana kholIjavaLa, Pune, Maharashtra" }, "geometry": { "type": "Point", "coordinates": [ 73.8786239, 18.5246091 ] } },
{ "type": "Feature", "properties": { "ccd_name": "Making street light functional", "com_location": "behind Gadgil dawakhana, Pune, Maharashtra" }, "geometry": { "type": "Point", "coordinates": [ 73.8786239, 18.5246091 ] } },
{ "type": "Feature", "properties": { "ccd_name": "Making street light functional", "com_location": "kharadi bypass to riverside road, Pune, Maharashtra" }, "geometry": { "type": "Point", "coordinates": [ 73.9397272, 18.5388741 ] } },
{ "type": "Feature", "properties": { "ccd_name": "Making street light functional", "com_location": "Dhanori samshan bhumi, Pune, Maharashtra" }, "geometry": { "type": "Point", "coordinates": [ 73.896851, 18.5967587 ] } },
{ "type": "Feature", "properties": { "ccd_name": "Making street light functional", "com_location": "Rajiv Gandhi Patha Sounsthe Samor Maharashtra Panpatti chya Bajula Shewadi Bhavani Peth Pune 42" }, "geometry": { "type": "Point", "coordinates": [ 73.8731614, 18.5087947 ] } },
{ "type": "Feature", "properties": { "ccd_name": "Making street light functional", "com_location": "vimAna nagara yethIla ccd chauka, uDAna jheMsAra gArDana bAherIla , Pune, Maharashtra" }, "geometry": { "type": "Point", "coordinates": [ 73.8614218, 18.4754285 ] } },
{ "type": "Feature", "properties": { "ccd_name": "Making street light functional", "com_location": "tiraMgA chauka phurasuMgI, Pune, Maharashtra" }, "geometry": { "type": "Point", "coordinates": [ 73.9784573, 18.4726725 ] } },
{ "type": "Feature", "properties": { "ccd_name": "Making street light functional", "com_location": "khAna vITa bhaTTI khAnavastI khAna baMgalyAchyA shejArI shivaNe khAna vastI liMka roDa vara vAraje mALavADI prabhAga kramAMka 32, Pune, Maharashtra" }, "geometry": { "type": "Point", "coordinates": [ 73.9570345, 18.5212272 ] } },
{ "type": "Feature", "properties": { "ccd_name": "Making street light functional", "com_location": "Amar heights lane. Aundh road, Khadk, Pune, Maharashtra" }, "geometry": { "type": "Point", "coordinates": [ 73.8726956, 18.4883177 ] } },
{ "type": "Feature", "properties": { "ccd_name": "A new street light (new demand)", "com_location": "S. No. 31/9, tuLajAbhavAnI maMdira roDa, abhinava ka leja roDa, narhe , Pune, Maharashtra" }, "geometry": { "type": "Point", "coordinates": [ 73.950055, 18.560241 ] } },
{ "type": "Feature", "properties": { "ccd_name": "Making street light functional", "com_location": " Jeevan Vihar Housing Society, Near Pride Portal building Inside Shivaji Housing Bahiratwadi Pune 411016." }, "geometry": { "type": "Point", "coordinates": [ 73.8277683, 18.5339443 ] } },
{ "type": "Feature", "properties": { "ccd_name": "Making street light functional", "com_location": "jijai nagari mahatama society kothrud eklavya collage\r\n, Pune, Maharashtra" }, "geometry": { "type": "Point", "coordinates": [ 73.7960994, 18.4993791 ] } },
{ "type": "Feature", "properties": { "ccd_name": "Repairing street light pole (damaged / fallen)", "com_location": "Lane no -13P Tingre Nagar Pune-411032 " }, "geometry": { "type": "Point", "coordinates": [ 73.894941, 18.5816534 ] } },
{ "type": "Feature", "properties": { "ccd_name": "Making street light functional", "com_location": "A/57,Kasturba hsg soc. Near Janata School.  \r\nVishrantwadi. Pune 411015" }, "geometry": { "type": "Point", "coordinates": [ 73.8872962, 18.5798609 ] } },
{ "type": "Feature", "properties": { "ccd_name": "Making street light functional", "com_location": "Rajhans colony shastrinagar kothrud near Amraj ganpati, Pune, Maharashtra" }, "geometry": { "type": "Point", "coordinates": [ 73.8070043, 18.4881459 ] } },
{ "type": "Feature", "properties": { "ccd_name": "Making street light functional", "com_location": " Shivprasad Housing Society\r\nGaneshmala Sinhagad Road Pune 411030" }, "geometry": { "type": "Point", "coordinates": [ 73.8033639, 18.4571619 ] } },
{ "type": "Feature", "properties": { "ccd_name": "Other (ELECTRICAL)", "com_location": "Pole no 4, \r\nLane 2, Bhagyashree Nagar, Zendhe Vasthi, BT Kawade Road, Mundhwa, Pune, Maharashtra" }, "geometry": { "type": "Point", "coordinates": [ 73.9063539, 18.52418 ] } },
{ "type": "Feature", "properties": { "ccd_name": "Others (Garden-Electrical)", "com_location": "hutatma Babu genu udayan, Kondhwa bk. , Pune, Maharashtra" }, "geometry": { "type": "Point", "coordinates": [ 73.8889779, 18.4695088 ] } },
{ "type": "Feature", "properties": { "ccd_name": "Making street light functional", "com_location": "Sr.no.154/2,Shramik vasahat,Sai petrol pamp tingare nagar rd.,pune-6." }, "geometry": { "type": "Point", "coordinates": [ 73.8849049, 18.5731665 ] } },
{ "type": "Feature", "properties": { "ccd_name": "Making street light functional", "com_location": "subhASha nagara yeravaDA puNe 6\r\npavAra giraNI samorIla gallI madhye." }, "geometry": { "type": "Point", "coordinates": [ 73.8759176, 18.4843944 ] } },
{ "type": "Feature", "properties": { "ccd_name": "Other (ELECTRICAL)", "com_location": "Sunflower Commercial , Near PrimRose Mall, Baner Pune 45" }, "geometry": { "type": "Point", "coordinates": [ 73.7862512, 18.5613027 ] } },
{ "type": "Feature", "properties": { "ccd_name": "Making street light functional", "com_location": "ahirA geTa dharmavira mitra maMDaLa,shivaNe mena roDa 6, Pune, Maharashtra" }, "geometry": { "type": "Point", "coordinates": [ 73.7821719, 18.4661512 ] } },
{ "type": "Feature", "properties": { "ccd_name": "Making street light functional", "com_location": "BG Shirke Road Magarpatta Pune" }, "geometry": { "type": "Point", "coordinates": [ 73.9252052, 18.5217575 ] } },
{ "type": "Feature", "properties": { "ccd_name": "A new street light (new demand)", "com_location": "location NIBM - Undri Pune" }, "geometry": { "type": "Point", "coordinates": [ 73.8947675, 18.4759195 ] } },
{ "type": "Feature", "properties": { "ccd_name": "Making street light functional", "com_location": "rahul nagar near karve statue ser no 4/1+2,5/1+2 411038, Pune, Maharashtra" }, "geometry": { "type": "Point", "coordinates": [ 73.8150452, 18.5019711 ] } },
{ "type": "Feature", "properties": { "ccd_name": "Making street light functional", "com_location": "dIpa baMgalA chauka te j~nAneshvara pAdukA chauka hyA rastyAvara\t, Pune, Maharashtra" }, "geometry": { "type": "Point", "coordinates": [ 73.8581919, 18.4682575 ] } },
{ "type": "Feature", "properties": { "ccd_name": "Making street light functional", "com_location": "tADIvAlA roDa yA ThikANI rAhata asUna yA ThikANI mhaNaje mahAtmA phule vasAhata bhima shaktI taruNa maMDaLa  gallI naMbara 29 yA ThikANI , Pune, Maharashtra" }, "geometry": { "type": "Point", "coordinates": [ 73.8786239, 18.5246091 ] } },
{ "type": "Feature", "properties": { "ccd_name": "Making street light functional", "com_location": "GRAFIKON paradise ph 2 ,PLOT-13  ,14,15, NIBM ROAD , Pune, Maharashtra" }, "geometry": { "type": "Point", "coordinates": [ 73.900183, 18.4702556 ] } },
{ "type": "Feature", "properties": { "ccd_name": "Making street light functional", "com_location": "sayyada nagara,gallI naM A 13 haDapasara,puNe 28," }, "geometry": { "type": "Point", "coordinates": [ 73.9398818, 18.5009288 ] } },
{ "type": "Feature", "properties": { "ccd_name": "Making street light functional", "com_location": "Lohgaon water park road malwadi basti galli no 6, Pune, Maharashtra" }, "geometry": { "type": "Point", "coordinates": [ 73.9578126, 18.5913744 ] } },
{ "type": "Feature", "properties": { "ccd_name": "Making street light functional", "com_location": "phurasuMgI gAvAtIla choraghaDe maLA yethIla oDhyA shejArIla, Pune, Maharashtra" }, "geometry": { "type": "Point", "coordinates": [ 73.8786239, 18.5246091 ] } },
{ "type": "Feature", "properties": { "ccd_name": "Making street light functional", "com_location": "Shardaniketan garden lane, Benkar wast, Dhayari Gaon, Pune 411041. " }, "geometry": { "type": "Point", "coordinates": [ 73.8139689, 18.4440444 ] } },
{ "type": "Feature", "properties": { "ccd_name": "Making street light functional", "com_location": "Yash Classic/Pashankar Flats/Lotus excellency till Mont Vert Grande society , Pune, Maharashtra" }, "geometry": { "type": "Point", "coordinates": [ 73.7843617, 18.5402787 ] } },
{ "type": "Feature", "properties": { "ccd_name": "Making street light functional", "com_location": "Lane no 2 Sasane Nagar Hadapsar Near post office , Pune, Maharashtra" }, "geometry": { "type": "Point", "coordinates": [ 73.9314802, 18.4967422 ] } },
{ "type": "Feature", "properties": { "ccd_name": "A new street light (new demand)", "com_location": "Bakori Phata Chowk in front Of BJS Collage Main Enterance Kaman on Nagar Pune" }, "geometry": { "type": "Point", "coordinates": [ 73.9834668, 18.4945469 ] } },
{ "type": "Feature", "properties": { "ccd_name": "Repairing street light pole (damaged / fallen)", "com_location": "Niyati building gunjan tokies opp yerwada, Pune, Maharashtra" }, "geometry": { "type": "Point", "coordinates": [ 73.8898816, 18.546515 ] } },
{ "type": "Feature", "properties": { "ccd_name": "Making street light functional", "com_location": "bhavAnI mAtA maMdira te shAmaprasAda mukharjI chauka mahAtmA phule mArga..244 bhavAnI peTha puNe 42." }, "geometry": { "type": "Point", "coordinates": [ 73.8703577, 18.5099515 ] } },
{ "type": "Feature", "properties": { "ccd_name": "Other (ELECTRICAL)", "com_location": "navI peTha, shikShaka bhavana , Pune, Maharashtra" }, "geometry": { "type": "Point", "coordinates": [ 73.8403511, 18.5059151 ] } },
{ "type": "Feature", "properties": { "ccd_name": "Making street light functional", "com_location": "Near \nMantra Skypark\nNear VIIT college\nKondhwa Budruk Pune" }, "geometry": { "type": "Point", "coordinates": [ 73.8819589, 18.4567445 ] } },
{ "type": "Feature", "properties": { "ccd_name": "Other (ELECTRICAL)", "com_location": "suvarNa shani marUtI maMdIra mAgIla bAjUsa taLajAI maMdIra pAyarI, Pune, Maharashtra" }, "geometry": { "type": "Point", "coordinates": [ 73.8451701, 18.4755986 ] } },
{ "type": "Feature", "properties": { "ccd_name": "Making street light functional", "com_location": "on sus road from balaji chowk to sai chowk, Pune, Maharashtra" }, "geometry": { "type": "Point", "coordinates": [ 73.825282, 18.6309313 ] } },
{ "type": "Feature", "properties": { "ccd_name": "Making street light functional", "com_location": "sr. No 46/2/1, sus road, Baner ,Prashant Jadhav: Abhinuj apartment, Sr. No. 46/2/1, behind Audi showroom , sus road, Baner., Pune, Maharashtra" }, "geometry": { "type": "Point", "coordinates": [ 73.7718486, 18.5488528 ] } },
{ "type": "Feature", "properties": { "ccd_name": "Making street light functional", "com_location": "Kapadganj Ravivar peth in front of lakshmi narayan mandir, Pune, Maharashtra" }, "geometry": { "type": "Point", "coordinates": [ 73.8603933, 18.5137264 ] } },
{ "type": "Feature", "properties": { "ccd_name": "Making street light functional", "com_location": "Add. Sr no. 167 lane D sant nagar lohegaon pune.." }, "geometry": { "type": "Point", "coordinates": [ 73.930743, 18.5951337 ] } },
{ "type": "Feature", "properties": { "ccd_name": "Other (ELECTRICAL)", "com_location": "Pune Advantis hospital road, maharshinagar," }, "geometry": { "type": "Point", "coordinates": [ 73.8712734, 18.491847 ] } },
{ "type": "Feature", "properties": { "ccd_name": "Making street light functional", "com_location": "Chavan nagar near Bank of Maharashtra dhankwadi In front of Shani maruti mandir, Pune, Maharashtra" }, "geometry": { "type": "Point", "coordinates": [ 73.861121, 18.4646876 ] } },
{ "type": "Feature", "properties": { "ccd_name": "Making street light functional", "com_location": "ganesh residency dangad patil nagar 1st kaman shivane pune " }, "geometry": { "type": "Point", "coordinates": [ 73.7895529, 18.4666477 ] } },
{ "type": "Feature", "properties": { "ccd_name": "Removal of open electric box (silver color) on street light pole", "com_location": "yashavaMtanagara, reDa ka phI ha Tela shejArIla yeravaDA, puNe 411006" }, "geometry": { "type": "Point", "coordinates": [ 73.879711, 18.5529226 ] } },
{ "type": "Feature", "properties": { "ccd_name": "Making street light functional", "com_location": " baner behind demart carolin society galli no 4 baner, Pune, Maharashtra" }, "geometry": { "type": "Point", "coordinates": [ 73.7938471, 18.5526538 ] } },
{ "type": "Feature", "properties": { "ccd_name": "Making street light functional", "com_location": "baner pashan link road near regent plaza, one street light not working at crystal garden society gate,, Pune, Maharashtra" }, "geometry": { "type": "Point", "coordinates": [ 73.7961989, 18.5501534 ] } },
{ "type": "Feature", "properties": { "ccd_name": "Making street light functional", "com_location": "326, Rasta peth,near Laxmi sugandhalay, pune-11" }, "geometry": { "type": "Point", "coordinates": [ 73.8659281, 18.5189511 ] } },
{ "type": "Feature", "properties": { "ccd_name": "Stop line at Signal before Zebra Crossing", "com_location": "Oghle chowk, ideal colony, poud road kothrud pune " }, "geometry": { "type": "Point", "coordinates": [ 73.817067, 18.510121 ] } },
{ "type": "Feature", "properties": { "ccd_name": "Making street light functional", "com_location": "venizia society pashan sus corner opp audi showeroom baner , Pune, Maharashtra" }, "geometry": { "type": "Point", "coordinates": [ 73.7743013, 18.5491381 ] } },
{ "type": "Feature", "properties": { "ccd_name": "Making street light functional", "com_location": " at Indranagari Dahanukar Colony Kothrud, Pune, Maharashtra" }, "geometry": { "type": "Point", "coordinates": [ 73.8095762, 18.4946945 ] } },
{ "type": "Feature", "properties": { "ccd_name": "Making street light functional", "com_location": "Shewale Hospital, Aundh Road, Bopodi, Pune, Maharashtra" }, "geometry": { "type": "Point", "coordinates": [ 73.8327006, 18.5626782 ] } },
{ "type": "Feature", "properties": { "ccd_name": "Making street light functional", "com_location": " E-2/17, Tridal Nagar, Yerwada, Pune-411006" }, "geometry": { "type": "Point", "coordinates": [ 73.8987319, 18.5610727 ] } },
{ "type": "Feature", "properties": { "ccd_name": "Making street light functional", "com_location": "Khandoba mal lane no 9 near aakashganga society Lohagaon, Pune, Maharashtra" }, "geometry": { "type": "Point", "coordinates": [ 73.9268761, 18.6106252 ] } },
{ "type": "Feature", "properties": { "ccd_name": "Signal not working", "com_location": "Royal enfield square signal, between kothrud bus depo n chandni chowk., Pune, Maharashtra" }, "geometry": { "type": "Point", "coordinates": [ 73.795424, 18.506785 ] } },
{ "type": "Feature", "properties": { "ccd_name": "Other (ELECTRICAL)", "com_location": "baner pashan link rd, ranmala hotel , rolling hill soc,, Pune, Maharashtra" }, "geometry": { "type": "Point", "coordinates": [ 73.7979555, 18.5513163 ] } },
{ "type": "Feature", "properties": { "ccd_name": "Making street light functional", "com_location": "Bhoslenagar, Ganeshkhind, Pune, Maharashtra 411016" }, "geometry": { "type": "Point", "coordinates": [ 73.8356575, 18.5442047 ] } },
{ "type": "Feature", "properties": { "ccd_name": "Other (ELECTRICAL)", "com_location": "Happy Colony, Lane no.2, Kothrud, Pune" }, "geometry": { "type": "Point", "coordinates": [ 73.8154646, 18.4953449 ] } },
{ "type": "Feature", "properties": { "ccd_name": "Other (Traffic-signal Electrical)", "com_location": "At university circle traffic signal after coming from baner road, Pune, Maharashtra" }, "geometry": { "type": "Point", "coordinates": [ 73.7925792, 18.5581625 ] } },
{ "type": "Feature", "properties": { "ccd_name": "Making street light functional", "com_location": "gagadip aprtment flat 101 model colony oop model colony post office pune 411016 " }, "geometry": { "type": "Point", "coordinates": [ 73.8381464, 18.5288707 ] } },
{ "type": "Feature", "properties": { "ccd_name": "Making street light functional", "com_location": "gokhalenagara shALechyA maidAnAjavaLa asalelyA chALa kra. 44 va 47  madhIla , Pune, Maharashtra" }, "geometry": { "type": "Point", "coordinates": [ 73.855278, 18.5135064 ] } },
{ "type": "Feature", "properties": { "ccd_name": "Making street light functional", "com_location": "mAnAjIbAga, ashoka bhoITe nagara, AdinAtha mitra maMDaLa, bopoDI, puNe - 411003" }, "geometry": { "type": "Point", "coordinates": [ 73.8350831, 18.5709235 ] } },
{ "type": "Feature", "properties": { "ccd_name": "Making street light functional", "com_location": "Venkatesh Villa Cooperative Housing Society Sus Road Pashan, Pune - 411021" }, "geometry": { "type": "Point", "coordinates": [ 73.7866331, 18.5449269 ] } },
{ "type": "Feature", "properties": { "ccd_name": "A new street light (new demand)", "com_location": " Gv7 phase3 Ambegaon pune 411046" }, "geometry": { "type": "Point", "coordinates": [ 73.8324805, 18.4612992 ] } },
{ "type": "Feature", "properties": { "ccd_name": "Making street light functional", "com_location": "Chandani Chowk to Pashan Main Road, Near Ghule Wins\r\nBavdhan\r\nPune 411021" }, "geometry": { "type": "Point", "coordinates": [ 73.7794093, 18.506527 ] } },
{ "type": "Feature", "properties": { "ccd_name": "Making street light functional", "com_location": "Plot No 21, Lane No 13, Tingrenagar, Pune, Maharashtra" }, "geometry": { "type": "Point", "coordinates": [ 73.8952753, 18.5812451 ] } },
{ "type": "Feature", "properties": { "ccd_name": "Making street light functional", "com_location": "baner pashan link road vispring wing to kumar sahawas , Pune, Maharashtra" }, "geometry": { "type": "Point", "coordinates": [ 73.793313, 18.5482884 ] } },
{ "type": "Feature", "properties": { "ccd_name": "Repairing street light pole (damaged / fallen)", "com_location": "Survey No 253/1B, Behind Anand Bhavan,\r\nKhese Park, \r\nLohegaon, Pune 411032" }, "geometry": { "type": "Point", "coordinates": [ 73.9109977, 18.5907515 ] } },
{ "type": "Feature", "properties": { "ccd_name": "Making street light functional", "com_location": "Balaji nagar,tuljabhavani temple,pune." }, "geometry": { "type": "Point", "coordinates": [ 73.8130634, 18.5132378 ] } },
{ "type": "Feature", "properties": { "ccd_name": "Making street light functional", "com_location": "607/8 660/8 sathe vasahat back side of upper depo pune " }, "geometry": { "type": "Point", "coordinates": [ 73.871665, 18.46102 ] } },
{ "type": "Feature", "properties": { "ccd_name": "Making street light functional", "com_location": "fountain road world trade center kharadi pune 14" }, "geometry": { "type": "Point", "coordinates": [ 73.9479221, 18.5520015 ] } },
{ "type": "Feature", "properties": { "ccd_name": "Making street light functional", "com_location": "on Baner pashan link road between Iris clinic and prestige Avenue , Pune, Maharashtra" }, "geometry": { "type": "Point", "coordinates": [ 73.7912895, 18.5491346 ] } },
{ "type": "Feature", "properties": { "ccd_name": "Making street light functional", "com_location": "Kharadi anusaya park lane no1, Pune, Maharashtra" }, "geometry": { "type": "Point", "coordinates": [ 73.9417835, 18.5516663 ] } },
{ "type": "Feature", "properties": { "ccd_name": "Making street light functional", "com_location": "Yogesh medical yerwada near vittal mandir , Pune, Maharashtra" }, "geometry": { "type": "Point", "coordinates": [ 73.7695056, 18.4569485 ] } },
{ "type": "Feature", "properties": { "ccd_name": "Making street light functional", "com_location": "gandhar appt road towards grahak peth in balewadi,pune" }, "geometry": { "type": "Point", "coordinates": [ 73.8507463, 18.5076838 ] } },
{ "type": "Feature", "properties": { "ccd_name": "Making street light functional", "com_location": "matruchaya society lane no 2 ,Kalyani Nagar Pune 6 " }, "geometry": { "type": "Point", "coordinates": [ 73.9008749, 18.5474889 ] } },
{ "type": "Feature", "properties": { "ccd_name": "Making street light functional", "com_location": " Baner main road two lights not working Opp HDFC bank at Sai Raj apartments, Pune, Maharashtra" }, "geometry": { "type": "Point", "coordinates": [ 73.7773769, 18.5652676 ] } },
{ "type": "Feature", "properties": { "ccd_name": "Making street light functional", "com_location": "rAja chauka, gaNesha nagara, buddha vihAra javaLa, yeravaDA, puNe." }, "geometry": { "type": "Point", "coordinates": [ 73.879711, 18.5529226 ] } },
{ "type": "Feature", "properties": { "ccd_name": "Making street light functional", "com_location": "Everglade society,\r\nKharadi bypass road,\r\nNear gulmohar park view society, kharadi, Pune" }, "geometry": { "type": "Point", "coordinates": [ 73.9339596, 18.5458805 ] } },
{ "type": "Feature", "properties": { "ccd_name": "Removing street light pole (pole obstructing road)", "com_location": "pApaDevastI, shrI kulasvAminI kRRipA, Pune, Maharashtra" }, "geometry": { "type": "Point", "coordinates": [ 73.8444959, 18.462828 ] } },
{ "type": "Feature", "properties": { "ccd_name": "A new street light (new demand)", "com_location": "Chakankar mala Baner, Pune, Maharashtra" }, "geometry": { "type": "Point", "coordinates": [ 73.7819831, 18.5675832 ] } },
{ "type": "Feature", "properties": { "ccd_name": "Making street light functional", "com_location": "1425 shukarwar peth Joshi wada\r\nBajirao road, Pune, Maharashtra" }, "geometry": { "type": "Point", "coordinates": [ 73.8537444, 18.509824 ] } },
{ "type": "Feature", "properties": { "ccd_name": "Making street light functional", "com_location": "chavaTI pAShANa madhIla hanumAna maMdira chauka te gArDana roDa , Pune, Maharashtra" }, "geometry": { "type": "Point", "coordinates": [ 73.850462, 18.493906 ] } },
{ "type": "Feature", "properties": { "ccd_name": "Making street light functional", "com_location": "From Ashirwad Hotel upto Vishwas Lodge On Katraj - Mumbai Highway & also the Main HIGHMAST near by., Pune, Maharashtra" }, "geometry": { "type": "Point", "coordinates": [ 73.865238, 18.4529322 ] } },
{ "type": "Feature", "properties": { "ccd_name": "Making street light functional", "com_location": "Rutuja Park, Lane No.1, At corner of Casa Grande, Pune, Maharashtra" }, "geometry": { "type": "Point", "coordinates": [ 73.8196792, 18.4962265 ] } },
{ "type": "Feature", "properties": { "ccd_name": "Making street light functional", "com_location": "Tyulipa sosAyaTI roDa vinAyaka meDikala samora, bI TI kavaDe roDa puNe 411036" }, "geometry": { "type": "Point", "coordinates": [ 73.9370923, 18.5332622 ] } },
{ "type": "Feature", "properties": { "ccd_name": "A new street light (new demand)", "com_location": " avargrid socity acolate socity chya bajula Hp petrol pump back side kharadi baypass , Pune, Maharashtra" }, "geometry": { "type": "Point", "coordinates": [ 73.9335504, 18.5470473 ] } },
{ "type": "Feature", "properties": { "ccd_name": "Making street light functional", "com_location": "Greencity Society\r\nHandewadi Road\r\nSatavnagar\r\nHadapsar, Pune, Maharashtra" }, "geometry": { "type": "Point", "coordinates": [ 73.934142, 18.475679 ] } },
{ "type": "Feature", "properties": { "ccd_name": "Making street light functional", "com_location": "survey number 256 lane number 4/3 khese park pune 411032 " }, "geometry": { "type": "Point", "coordinates": [ 73.9137879, 18.5926943 ] } },
{ "type": "Feature", "properties": { "ccd_name": "Making street light functional", "com_location": "vasantbaug society bibwewadi pune" }, "geometry": { "type": "Point", "coordinates": [ 73.8588139, 18.4817828 ] } },
{ "type": "Feature", "properties": { "ccd_name": "Making street light functional", "com_location": "gurugram chal karam 5/6 S.p.college sane guruji nagar aambe loda colony pune 30\t" }, "geometry": { "type": "Point", "coordinates": [ 73.8786239, 18.5246091 ] } },
{ "type": "Feature", "properties": { "ccd_name": "Other (ELECTRICAL)", "com_location": "gaMgAdhAma te kapilanagara svAmI vivekAnaMda gArDana- qoMDhavA budraka, Pune, Maharashtra" }, "geometry": { "type": "Point", "coordinates": [ 73.8164111, 18.4605692 ] } },
{ "type": "Feature", "properties": { "ccd_name": "Making street light functional", "com_location": "ujavI bhusArI ka.cAlanI kotharuDa Depo, Pune, Maharashtra" }, "geometry": { "type": "Point", "coordinates": [ 73.795424, 18.506785 ] } },
{ "type": "Feature", "properties": { "ccd_name": "Making street light functional", "com_location": "Bhusari colony main lane opposite to PMPML Depot & Lane 4, Pune, Maharashtra" }, "geometry": { "type": "Point", "coordinates": [ 73.9527661, 18.4844831 ] } },
{ "type": "Feature", "properties": { "ccd_name": "Making street light functional", "com_location": "Shirke colony lohegaon mukesh market, Pune, Maharashtra" }, "geometry": { "type": "Point", "coordinates": [ 73.9262864, 18.6039008 ] } },
{ "type": "Feature", "properties": { "ccd_name": "Making street light functional", "com_location": "Ramban housing society anund telephone opp dp road, Pune, Maharashtra" }, "geometry": { "type": "Point", "coordinates": [ 73.8019945, 18.5591781 ] } },
{ "type": "Feature", "properties": { "ccd_name": "Making street light functional", "com_location": "Sr no. 167 lane D sant nagar Lohegaon pune" }, "geometry": { "type": "Point", "coordinates": [ 73.930743, 18.5951337 ] } },
{ "type": "Feature", "properties": { "ccd_name": "Making street light functional", "com_location": "saras baug mandir samoril pmc parking madhil, Pune, Maharashtra" }, "geometry": { "type": "Point", "coordinates": [ 73.8524163, 18.5017567 ] } },
{ "type": "Feature", "properties": { "ccd_name": "Making street light functional", "com_location": "S.N. 123/1 lane, Baner Mhalunge road, Baner, Pune 411045" }, "geometry": { "type": "Point", "coordinates": [ 73.7763156, 18.5641551 ] } },
{ "type": "Feature", "properties": { "ccd_name": "Making street light functional", "com_location": "siddhivinAyaka sosAyaTI se saptagirI sosAyaTI taka , Pune, Maharashtra" }, "geometry": { "type": "Point", "coordinates": [ 73.9531189, 18.5646495 ] } },
{ "type": "Feature", "properties": { "ccd_name": "Making street light functional", "com_location": "Sr. No. 7, saidatta nagar, talajai pathar, dhanakawadi, Pune-43" }, "geometry": { "type": "Point", "coordinates": [ 73.8447662, 18.470066 ] } },
{ "type": "Feature", "properties": { "ccd_name": "Making street light functional", "com_location": "Regent Plaza \r\nBaner Pashan link Road  Someshwar wadi Road\r\nNext to Ojas- Magnolia Road \r\nOff Baner Pashan link Road, Pune, Maharashtra" }, "geometry": { "type": "Point", "coordinates": [ 73.7930752, 18.5523154 ] } },
{ "type": "Feature", "properties": { "ccd_name": "Making street light functional", "com_location": "gaMja peTha polIsa chaukI shejArI puNe - 42" }, "geometry": { "type": "Point", "coordinates": [ 73.8471005, 18.5159105 ] } },
{ "type": "Feature", "properties": { "ccd_name": "Making street light functional", "com_location": "yeravaDA prabhAga kraM 6 kaTAriyA ha spiTala te kAbaMLe dUdha, Pune, Maharashtra" }, "geometry": { "type": "Point", "coordinates": [ 73.8499302, 18.5696965 ] } },
{ "type": "Feature", "properties": { "ccd_name": "Making street light functional", "com_location": "Ser46/2 dattaprasad housing society kharadi road chandan nagar opposite sudama bhel , Pune, Maharashtra" }, "geometry": { "type": "Point", "coordinates": [ 73.9284721, 18.5593904 ] } },
{ "type": "Feature", "properties": { "ccd_name": "Making street light functional", "com_location": "pune sata road padmavati bridge, near gururaj society 411037\r\n" }, "geometry": { "type": "Point", "coordinates": [ 73.856401, 18.4744696 ] } },
{ "type": "Feature", "properties": { "ccd_name": "Making street light functional", "com_location": "Sr no 49/A Suyog Colony Kale Padal, Hadapsar, Pune," }, "geometry": { "type": "Point", "coordinates": [ 73.9433299, 18.4869571 ] } },
{ "type": "Feature", "properties": { "ccd_name": "Making street light functional", "com_location": "mahada row house number 518 to 520 opposite shivrana pratap police station survey number 37 chandan nagar kharadi pune " }, "geometry": { "type": "Point", "coordinates": [ 73.934555, 18.560235 ] } },
{ "type": "Feature", "properties": { "ccd_name": "Making street light functional", "com_location": "at the triangle around Jhansi Rani Chowk, near Bal Gandhrva rangmandir, Pune, Maharashtra" }, "geometry": { "type": "Point", "coordinates": [ 73.848114, 18.522819 ] } },
{ "type": "Feature", "properties": { "ccd_name": "Making street light functional", "com_location": "goMdhaLenagara, haDapasara , puNe -411028" }, "geometry": { "type": "Point", "coordinates": [ 73.82708550000001, 18.5291524 ] } },
{ "type": "Feature", "properties": { "ccd_name": "Making street light functional", "com_location": "Parth heights DP road next to yash tower aundh pune " }, "geometry": { "type": "Point", "coordinates": [ 73.8036982, 18.5607358 ] } },
{ "type": "Feature", "properties": { "ccd_name": "Other (ELECTRICAL)", "com_location": "Bakori Phata Chowk in front Of BJS Collage Main Enterance Kaman on Nagar Pune" }, "geometry": { "type": "Point", "coordinates": [ 73.9834668, 18.4945469 ] } },
{ "type": "Feature", "properties": { "ccd_name": "Making street light functional", "com_location": "from passport office till baner road, Pune, Maharashtra" }, "geometry": { "type": "Point", "coordinates": [ 73.7925792, 18.5581625 ] } },
{ "type": "Feature", "properties": { "ccd_name": "Other (ELECTRICAL)", "com_location": "mArkeTa yArDa chauka vakhAra mahAmaMDaLa samora, Pune, Maharashtra" }, "geometry": { "type": "Point", "coordinates": [ 73.8786239, 18.5246091 ] } },
{ "type": "Feature", "properties": { "ccd_name": "Making street light functional", "com_location": "Audumber Soc, plot no 9 \r\nSwapnapurti bungalow\r\n, Pune, Maharashtra" }, "geometry": { "type": "Point", "coordinates": [ 73.7944265, 18.4415875 ] } },
{ "type": "Feature", "properties": { "ccd_name": "Making street light functional", "com_location": "#svAgata hA.cTela te gujaravADI phATA , Pune, Maharashtra" }, "geometry": { "type": "Point", "coordinates": [ 73.8149657, 18.4469279 ] } },
{ "type": "Feature", "properties": { "ccd_name": "Making street light functional", "com_location": " hilavhiva sosAyaTI , mahAtmA sosAyaTI apojiTasAIDa\r\nkotharuDa puNe:-411038" }, "geometry": { "type": "Point", "coordinates": [ 73.9531189, 18.5646495 ] } },
{ "type": "Feature", "properties": { "ccd_name": "Making street light functional", "com_location": "From rajaram bridge to vitthal wadi chowk left side all street light off, Pune, Maharashtra" }, "geometry": { "type": "Point", "coordinates": [ 73.8278975, 18.4884771 ] } },
{ "type": "Feature", "properties": { "ccd_name": "Making street light functional", "com_location": "near unique gas pipe agency kothrud gaothan , Pune, Maharashtra" }, "geometry": { "type": "Point", "coordinates": [ 73.8124644, 18.5004171 ] } },
{ "type": "Feature", "properties": { "ccd_name": "Making street light functional", "com_location": "chaudharIvastI-shAMtInagara , rAkShakanagara pheja 2 chyA mAge shela peTrola paMpAchyA pAsUna DAvIkaDe, ekanAtha paThAre vastI samora,durgAmAtA maMdira chyA samora, Pune, Maharashtra" }, "geometry": { "type": "Point", "coordinates": [ 73.9359026, 18.5597556 ] } },
{ "type": "Feature", "properties": { "ccd_name": "Other (Traffic-signal Electrical)", "com_location": "Location- Mundwa chowk, Pune, Maharashtra" }, "geometry": { "type": "Point", "coordinates": [ 73.9328965, 18.5324891 ] } },
{ "type": "Feature", "properties": { "ccd_name": "Making street light functional", "com_location": "behind p.m.c school Sutarwadi pashan Pune 411021" }, "geometry": { "type": "Point", "coordinates": [ 73.7816154, 18.5419934 ] } },
{ "type": "Feature", "properties": { "ccd_name": "Making street light functional", "com_location": "From IT park to River road Bopodi , Pune, Maharashtra" }, "geometry": { "type": "Point", "coordinates": [ 73.797757, 18.6251358 ] } },
{ "type": "Feature", "properties": { "ccd_name": "Making street light functional", "com_location": "Opp Bishop school kalyani nagar lane, Pune, Maharashtra" }, "geometry": { "type": "Point", "coordinates": [ 73.9057228, 18.5525988 ] } },
{ "type": "Feature", "properties": { "ccd_name": "Making street light functional", "com_location": "datta lIlA nivAsa iMgaLe ka lanI  Da mArTa samora eppala bAra shejArI, Pune, Maharashtra" }, "geometry": { "type": "Point", "coordinates": [ 73.8786239, 18.5246091 ] } },
{ "type": "Feature", "properties": { "ccd_name": "Making street light functional", "com_location": "Chayya society Bhakti Marg Law college Pune. Opp Dr Adkar Bungalow." }, "geometry": { "type": "Point", "coordinates": [ 73.8258106, 18.5115594 ] } },
{ "type": "Feature", "properties": { "ccd_name": "Making street light functional", "com_location": "DSK Ranwara road opposite to chandrneel apartment , Pune, Maharashtra" }, "geometry": { "type": "Point", "coordinates": [ 73.7739464, 18.5209853 ] } },
{ "type": "Feature", "properties": { "ccd_name": "Making street light functional", "com_location": "Pashan Road between University Circle and Pashan Circle., Pune, Maharashtra" }, "geometry": { "type": "Point", "coordinates": [ 73.7963142, 18.537721 ] } },
{ "type": "Feature", "properties": { "ccd_name": "Making street light functional", "com_location": "svArageTa te svargIya keshavarAva jedhe chauka navanAtha maMdira parisara (bajAja putaLA), Pune, Maharashtra" }, "geometry": { "type": "Point", "coordinates": [ 73.8584993, 18.5005978 ] } },
{ "type": "Feature", "properties": { "ccd_name": "Repairing street light pole (damaged / fallen)", "com_location": "Lohagaon Harantale Vasti Road, Pune, Maharashtra" }, "geometry": { "type": "Point", "coordinates": [ 73.939708, 18.5808366 ] } },
{ "type": "Feature", "properties": { "ccd_name": "Making street light functional", "com_location": " Mark Resisdency,\r\nSr. No. 46/2/1, behind Audi showroom , sus road, Baner., Pune, Maharashtra" }, "geometry": { "type": "Point", "coordinates": [ 73.7720133, 18.548927 ] } },
{ "type": "Feature", "properties": { "ccd_name": "A new street light (new demand)", "com_location": "207/3, Purgrast Vasahat, Behind Mehendale Garage, Ganesh Nagar, Pune 411004" }, "geometry": { "type": "Point", "coordinates": [ 73.831325, 18.504578 ] } },
{ "type": "Feature", "properties": { "ccd_name": "Making street light functional", "com_location": "shrI mhADA sosAyaTI, kAMchanabana sosAyaTI madhIla, Pune, Maharashtra" }, "geometry": { "type": "Point", "coordinates": [ 73.9531189, 18.5646495 ] } },
{ "type": "Feature", "properties": { "ccd_name": "Other (ELECTRICAL)", "com_location": " sonubai Joshi path and Ashiyana banglow footpath, opposite, Pune, Maharashtra" }, "geometry": { "type": "Point", "coordinates": [ 73.830686, 18.5175689 ] } },
{ "type": "Feature", "properties": { "ccd_name": "Making street light functional", "com_location": "14A,Sarthak,Ganesh datta society,Sahakar nagar 1,, Pune, Maharashtra" }, "geometry": { "type": "Point", "coordinates": [ 73.8525656, 18.4772792 ] } },
{ "type": "Feature", "properties": { "ccd_name": "Making street light functional", "com_location": "296/1 Behind Classic Coop Society, Adj St.Patricks Town, Hadapsar Indl Estate Road Pune 411013" }, "geometry": { "type": "Point", "coordinates": [ 73.9111125, 18.5087634 ] } },
{ "type": "Feature", "properties": { "ccd_name": "Making street light functional", "com_location": "Khradi eon it park, Pune, Maharashtra" }, "geometry": { "type": "Point", "coordinates": [ 73.9507582, 18.5518266 ] } },
{ "type": "Feature", "properties": { "ccd_name": "Making street light functional", "com_location": "alka socity tarde wasti mohamadwadi road gali no 3, Pune, Maharashtra" }, "geometry": { "type": "Point", "coordinates": [ 73.8786239, 18.5246091 ] } },
{ "type": "Feature", "properties": { "ccd_name": "Making street light functional", "com_location": "sa.na ,570 AMbeDakara nagara mArkeTa yArDa yethIla gallI kra  14,11,10 ,7, Pune, Maharashtra" }, "geometry": { "type": "Point", "coordinates": [ 73.8965692, 18.5051266 ] } },
{ "type": "Feature", "properties": { "ccd_name": "Making street light functional", "com_location": "Sr no 567 vastu nagar socity Nayan tara bangala plot no C/2A and 2 B  bibewadi kondhava dp road op sree Swami Samarth socity near ganatra complex bibewadi pune " }, "geometry": { "type": "Point", "coordinates": [ 73.8034923, 18.5021136 ] } },
{ "type": "Feature", "properties": { "ccd_name": "Repairing street light pole (damaged / fallen)", "com_location": "kamalA neharU bAga samora joshI ha spiTala, Pune, Maharashtra" }, "geometry": { "type": "Point", "coordinates": [ 73.861982, 18.522533 ] } },
{ "type": "Feature", "properties": { "ccd_name": "Making street light functional", "com_location": "\r\nKatrj Kondhwa road Sundar nagar society, Pune, Maharashtra" }, "geometry": { "type": "Point", "coordinates": [ 73.8747982, 18.4498089 ] } },
{ "type": "Feature", "properties": { "ccd_name": "Making street light functional", "com_location": "Sr. No. 7, talajai pathar, khopde galli, lane no. 5, dhanakawadi, pune 43" }, "geometry": { "type": "Point", "coordinates": [ 73.8458981, 18.4733181 ] } },
{ "type": "Feature", "properties": { "ccd_name": "Making street light functional", "com_location": " Manager, Mont vert II Society,  near Reliance Fresh,  Sus Road Pashan Pune 411021" }, "geometry": { "type": "Point", "coordinates": [ 73.7906235, 18.5429631 ] } },
{ "type": "Feature", "properties": { "ccd_name": "Making street light functional", "com_location": "baner hill side road from 'pashan highway side road'., Pune, Maharashtra" }, "geometry": { "type": "Point", "coordinates": [ 73.77067, 18.5560767 ] } },
{ "type": "Feature", "properties": { "ccd_name": "Making street light functional", "com_location": "ahire geTa manIShA thieTara, Pune, Maharashtra" }, "geometry": { "type": "Point", "coordinates": [ 73.8786239, 18.5246091 ] } },
{ "type": "Feature", "properties": { "ccd_name": "Making street light functional", "com_location": "Ritika building Model colony post office pune 16" }, "geometry": { "type": "Point", "coordinates": [ 73.8381464, 18.5288707 ] } },
{ "type": "Feature", "properties": { "ccd_name": "Other (ELECTRICAL)", "com_location": "nanasaheb deshpande lane off j m road, ghole road, Pune, Maharashtra" }, "geometry": { "type": "Point", "coordinates": [ 73.8441416, 18.5054354 ] } },
{ "type": "Feature", "properties": { "ccd_name": "Making street light functional", "com_location": " in front of GRAFIKON paradise ph 2,PLOT-13  ,14,15 NIBM ROAD adjacent to salunke vihar telephone exchange. , Pune, Maharashtra" }, "geometry": { "type": "Point", "coordinates": [ 73.9014711, 18.4782637 ] } },
{ "type": "Feature", "properties": { "ccd_name": "Making street light functional", "com_location": "vaDAravADI bla ga naM 51 shejArI amara mi~na maDaMLa, Pune, Maharashtra" }, "geometry": { "type": "Point", "coordinates": [ 73.8161129, 18.5136909 ] } },
{ "type": "Feature", "properties": { "ccd_name": "Making street light functional", "com_location": "Admira, Ajinkya Park, behind Zenistry apartment, baner hill trials, baner, Pune-45" }, "geometry": { "type": "Point", "coordinates": [ 73.7785407, 18.5525292 ] } },
{ "type": "Feature", "properties": { "ccd_name": "Signal not working", "com_location": "DSK Road Corner, Umbrya Ganapati Chowk, Dhayari, Pune 411041" }, "geometry": { "type": "Point", "coordinates": [ 73.8102741, 18.447247 ] } },
{ "type": "Feature", "properties": { "ccd_name": "Making street light functional", "com_location": " road 11 f tingrenagar near kishor garden vidyanagar dhonari, Pune, Maharashtra" }, "geometry": { "type": "Point", "coordinates": [ 73.8962749, 18.5785371 ] } },
{ "type": "Feature", "properties": { "ccd_name": "Making street light functional", "com_location": "Khajina vihir chowk , Pune, Maharashtra" }, "geometry": { "type": "Point", "coordinates": [ 73.8511816, 18.5081871 ] } },
{ "type": "Feature", "properties": { "ccd_name": "Other (ELECTRICAL)", "com_location": "sarve na. 10 mANika nagara mAMgIra bAbA chauka yeravaDA puNe 411006\r\n" }, "geometry": { "type": "Point", "coordinates": [ 73.8693522, 18.5539084 ] } },
{ "type": "Feature", "properties": { "ccd_name": "Making street light functional", "com_location": "Katraj chowk next to hazrat hospital highway pune 46" }, "geometry": { "type": "Point", "coordinates": [ 73.8584891, 18.448127 ] } },
{ "type": "Feature", "properties": { "ccd_name": "A new street light (new demand)", "com_location": "Everglade society,\r\nKharadi bypass road,\r\nNear gulmohar park view society, kharadi, Pune" }, "geometry": { "type": "Point", "coordinates": [ 73.9339596, 18.5458805 ] } },
{ "type": "Feature", "properties": { "ccd_name": "Signal not working", "com_location": "CDSS chauka, guLavaNI mahArAja rastA, paTavardhana bAga, puNe 411004/038" }, "geometry": { "type": "Point", "coordinates": [ 73.8261478, 18.5042175 ] } },
{ "type": "Feature", "properties": { "ccd_name": "Making street light functional", "com_location": "address Konark Bella vista opp Amar cottage Hadapsar 28, Pune, Maharashtra" }, "geometry": { "type": "Point", "coordinates": [ 73.9301884, 18.5072591 ] } },
{ "type": "Feature", "properties": { "ccd_name": "Making street light functional", "com_location": "Mohamadwadi Chowk to Country Club Rd., Pune, Maharashtra" }, "geometry": { "type": "Point", "coordinates": [ 73.9175196, 18.5631362 ] } },
{ "type": "Feature", "properties": { "ccd_name": "Making street light functional", "com_location": "SN-16/1/31 waghjai nagar mandir,   lane no 2, sukhsagar nagar katraj,pune 411048" }, "geometry": { "type": "Point", "coordinates": [ 73.8690468, 18.4539915 ] } },
{ "type": "Feature", "properties": { "ccd_name": "Making street light functional", "com_location": " Rolling hills society to crystal garden and Kumar sahwas, Pune, Maharashtra" }, "geometry": { "type": "Point", "coordinates": [ 73.793313, 18.5482884 ] } },
{ "type": "Feature", "properties": { "ccd_name": "Making street light functional", "com_location": "near plot no 54/55 for last 12 days in Shree Gaurishankar Society, Hingane Khurd near Damodar nagar sinhagad road pune 411051" }, "geometry": { "type": "Point", "coordinates": [ 73.8323904, 18.4740948 ] } },
{ "type": "Feature", "properties": { "ccd_name": "Making street light functional", "com_location": "Test complaint, Pune, Maharashtra" }, "geometry": { "type": "Point", "coordinates": [ 73.7466202, 18.4962006 ] } },
{ "type": "Feature", "properties": { "ccd_name": "Making street light functional", "com_location": "802 Bhawani peth yakub Nagar bhagwandas chawl next to vimal general store K.T  Bhosale Marg pune 411042" }, "geometry": { "type": "Point", "coordinates": [ 73.8742322, 18.5084138 ] } },
{ "type": "Feature", "properties": { "ccd_name": "Making street light functional", "com_location": "Rahul Nagar society Kothrud near Karve Putala , Pune, Maharashtra" }, "geometry": { "type": "Point", "coordinates": [ 73.8147042, 18.4995356 ] } },
{ "type": "Feature", "properties": { "ccd_name": "Making street light functional", "com_location": "ambegaon pathar polic chowki jija mata chowk pune 46\r\n" }, "geometry": { "type": "Point", "coordinates": [ 73.8436862, 18.4574234 ] } },
{ "type": "Feature", "properties": { "ccd_name": "Making street light functional", "com_location": "sm joshi bridge  nivara  navi peth , Pune, Maharashtra" }, "geometry": { "type": "Point", "coordinates": [ 73.8403225, 18.5097609 ] } },
{ "type": "Feature", "properties": { "ccd_name": "Making street light functional", "com_location": "Bhoslenagar, Ganeshkhind, Pune, Maharashtra 411016\t" }, "geometry": { "type": "Point", "coordinates": [ 73.8356575, 18.5442047 ] } },
{ "type": "Feature", "properties": { "ccd_name": "Making street light functional", "com_location": "Ser 40/2 Jambhale plot keshav nagar near mhasoba mandir , Pune, Maharashtra" }, "geometry": { "type": "Point", "coordinates": [ 73.9191235, 18.4736087 ] } },
{ "type": "Feature", "properties": { "ccd_name": "A new street light (new demand)", "com_location": "Kamakar Davakhana, Ganesh Nagar, yerawada, Pune. " }, "geometry": { "type": "Point", "coordinates": [ 73.8841725, 18.5527597 ] } },
{ "type": "Feature", "properties": { "ccd_name": "Making street light functional", "com_location": "Amarendra Shri Society, behind Vada's Ganapati, Ganesh Mala, Pune 411030" }, "geometry": { "type": "Point", "coordinates": [ 73.8369441, 18.4962569 ] } },
{ "type": "Feature", "properties": { "ccd_name": "Making street light functional", "com_location": "\r\nshramika vasAhata sAvaMta peTrola paMpa samora buddha vihAra javaLa vishrAMtavADI, Pune, Maharashtra" }, "geometry": { "type": "Point", "coordinates": [ 73.8786239, 18.5246091 ] } },
{ "type": "Feature", "properties": { "ccd_name": "Making street light functional", "com_location": "Chayya society Bhakti Marg Law college Pune. Opp Dr Adkar Bungalow." }, "geometry": { "type": "Point", "coordinates": [ 73.8258106, 18.5115594 ] } },
{ "type": "Feature", "properties": { "ccd_name": "Making street light functional", "com_location": "Whole Ideal colony kothrud, Pune, Maharashtra" }, "geometry": { "type": "Point", "coordinates": [ 73.8176451, 18.5084314 ] } },
{ "type": "Feature", "properties": { "ccd_name": "Making street light functional", "com_location": "sr no 27 lane no 11b munjaba wasti dhanori pune 15" }, "geometry": { "type": "Point", "coordinates": [ 73.8976714, 18.5901238 ] } },
{ "type": "Feature", "properties": { "ccd_name": "Making street light functional", "com_location": " Kumar Purab Society, Near PMC Shooting Range,Canal Road,Vaidwadi, Hadapsar Pune 13," }, "geometry": { "type": "Point", "coordinates": [ 73.9205509, 18.5029883 ] } },
{ "type": "Feature", "properties": { "ccd_name": "Making street light functional", "com_location": "Sindrela house no 9 Yogi Park Baner Pune" }, "geometry": { "type": "Point", "coordinates": [ 73.7744934, 18.5526813 ] } },
{ "type": "Feature", "properties": { "ccd_name": "Other (ELECTRICAL)", "com_location": "deccan gymkhana PYC tenis ground baher pune" }, "geometry": { "type": "Point", "coordinates": [ 73.83999630000001, 18.5172507 ] } },
{ "type": "Feature", "properties": { "ccd_name": "Making street light functional", "com_location": "Anant Talkies Budh Vihar Gorapadi Gaoun Prachi co-op housing society, Pune, Maharashtra" }, "geometry": { "type": "Point", "coordinates": [ 73.9021794, 18.5281637 ] } },
{ "type": "Feature", "properties": { "ccd_name": "Making street light functional", "com_location": " Aruna chowk kaman nana peth pune" }, "geometry": { "type": "Point", "coordinates": [ 73.8659967, 18.5153798 ] } },
{ "type": "Feature", "properties": { "ccd_name": "Making street light functional", "com_location": "panchawati madhukunj society, pashan road, nr open jim ., Pune, Maharashtra" }, "geometry": { "type": "Point", "coordinates": [ 73.788155, 18.526314 ] } },
{ "type": "Feature", "properties": { "ccd_name": "Making street light functional", "com_location": "lakShmI ChAyA sosAyaTI te balejhA sosAyaTI yA roDavara srno 236/3+4+5, Malwadi , Hadapsar Pune 28." }, "geometry": { "type": "Point", "coordinates": [ 73.9358457, 18.5014449 ] } },
{ "type": "Feature", "properties": { "ccd_name": "Making street light functional", "com_location": " Shailesh Society, Ganesh Nagar, Karve Nagar, Pune, Maharashtra 411052" }, "geometry": { "type": "Point", "coordinates": [ 73.8268353, 18.4966351 ] } },
{ "type": "Feature", "properties": { "ccd_name": "Making street light functional", "com_location": " 58/7,Azad Nagar, Jambhullkar Vasti,  Wanowrie Pune40." }, "geometry": { "type": "Point", "coordinates": [ 73.9060324, 18.4840847 ] } },
{ "type": "Feature", "properties": { "ccd_name": "Making street light functional", "com_location": "survey number 256 lane number 4/3 khese park pune 411032\r\n\r\n" }, "geometry": { "type": "Point", "coordinates": [ 73.9137879, 18.5926943 ] } },
{ "type": "Feature", "properties": { "ccd_name": "Repairing street light pole (damaged / fallen)", "com_location": "Mohammad wadi taravde wasti police station near ATC tower Rajiv Gandhi colny, Pune, Maharashtra" }, "geometry": { "type": "Point", "coordinates": [ 73.9250034, 18.4751777 ] } },
{ "type": "Feature", "properties": { "ccd_name": "Making street light functional", "com_location": "sarve no.77/1 kotharuDa, chAMdaNI chauka., Pune, Maharashtra" }, "geometry": { "type": "Point", "coordinates": [ 73.7794093, 18.506527 ] } },
{ "type": "Feature", "properties": { "ccd_name": "Making street light functional", "com_location": "lane in front of Balaji Generosia, s no 90/2/3, behind Spice court restaurant,Baner. , Pune, Maharashtra" }, "geometry": { "type": "Point", "coordinates": [ 73.7708323, 18.5595205 ] } },
{ "type": "Feature", "properties": { "ccd_name": "Making street light functional", "com_location": "Location: Khandve Nagar to Bakori Phata,Pune-Nagar Road in Wagholi,pune." }, "geometry": { "type": "Point", "coordinates": [ 73.968678, 18.5770093 ] } },
{ "type": "Feature", "properties": { "ccd_name": "Making street light functional", "com_location": "Surabhi darshan apartment tinagare nagar vidya nagar, Pune, Maharashtra" }, "geometry": { "type": "Point", "coordinates": [ 73.9175077, 18.5946677 ] } },
{ "type": "Feature", "properties": { "ccd_name": "A new street light (new demand)", "com_location": "We at Bopodi Jain \r\nMandir \r\nBehind Bopodi police station\r\nhave 2 tulsi poles , Pune, Maharashtra" }, "geometry": { "type": "Point", "coordinates": [ 73.8380423, 18.5705898 ] } },
{ "type": "Feature", "properties": { "ccd_name": "A new street light (new demand)", "com_location": "MAJESTIC URESKA ,NYATI ESTATE ROAD,NEAR ELECTRICITY HIGH POLL STATION,MOHMMAD WADI PUNE 411016." }, "geometry": { "type": "Point", "coordinates": [ 73.9244341, 18.4620733 ] } },
{ "type": "Feature", "properties": { "ccd_name": "Making street light functional", "com_location": "in Shree Gaurahonkar Society, Hingane Khurd near Damodar nagar sinhagad road pune 411051" }, "geometry": { "type": "Point", "coordinates": [ 73.8323904, 18.4740948 ] } },
{ "type": "Feature", "properties": { "ccd_name": "Making street light functional", "com_location": "puNyAta karvenagara chauka te kAkaDe siTI daramyAna , Pune, Maharashtra" }, "geometry": { "type": "Point", "coordinates": [ 73.820907800000015, 18.4442439 ] } },
{ "type": "Feature", "properties": { "ccd_name": "Making street light functional", "com_location": "Hadapsar sayyad nagar galli no A 3, Pune, Maharashtra" }, "geometry": { "type": "Point", "coordinates": [ 73.9407582, 18.4971776 ] } },
{ "type": "Feature", "properties": { "ccd_name": "Making street light functional", "com_location": "Annasaheb Deshpande lane behind Adidas off j m road, Pune, Maharashtra" }, "geometry": { "type": "Point", "coordinates": [ 73.8467508, 18.5211595 ] } },
{ "type": "Feature", "properties": { "ccd_name": "Making street light functional", "com_location": "baner road , to sindh society, Pune, Maharashtra" }, "geometry": { "type": "Point", "coordinates": [ 73.7925792, 18.5581625 ] } },
{ "type": "Feature", "properties": { "ccd_name": "Making street light functional", "com_location": "136, radhashree  bld tulja bhavani mandir warje malwadi , Pune, Maharashtra" }, "geometry": { "type": "Point", "coordinates": [ 73.7986149, 18.4815904 ] } },
{ "type": "Feature", "properties": { "ccd_name": "Making street light functional", "com_location": "In front of Amar cotage in front of chinar hotel hadapsar, Pune, Maharashtra" }, "geometry": { "type": "Point", "coordinates": [ 73.9307009, 18.5070675 ] } },
{ "type": "Feature", "properties": { "ccd_name": "A new street light (new demand)", "com_location": "Sr. No.101/9B Aarambh hotel beside internal road in Ambegaon(kh) , Pune, Maharashtra" }, "geometry": { "type": "Point", "coordinates": [ 73.8380766, 18.4436952 ] } },
{ "type": "Feature", "properties": { "ccd_name": "Making street light functional", "com_location": "flat number 6 gomathi  aprtment western socity karvenagar pune " }, "geometry": { "type": "Point", "coordinates": [ 73.8309013, 18.4987255 ] } },
{ "type": "Feature", "properties": { "ccd_name": "Making street light functional", "com_location": "on this area Karan bazaar Somnathnagar Pune 411014 " }, "geometry": { "type": "Point", "coordinates": [ 73.92079, 18.5553797 ] } },
{ "type": "Feature", "properties": { "ccd_name": "Making street light functional", "com_location": "sanset avenev society pan card club road opposit murkute garden pune " }, "geometry": { "type": "Point", "coordinates": [ 73.7713176, 18.5577355 ] } },
{ "type": "Feature", "properties": { "ccd_name": "Making street light functional", "com_location": "right bhusari colony destiny bulding lane 7 opp new india school, Pune, Maharashtra" }, "geometry": { "type": "Point", "coordinates": [ 73.7950267, 18.5113254 ] } },
{ "type": "Feature", "properties": { "ccd_name": "Making street light functional", "com_location": "Mhasoba mandir Bhausaheb veet bhatti beside Talim Malwadi Hadapsar, Pune, Maharashtra" }, "geometry": { "type": "Point", "coordinates": [ 73.9412863, 18.4797807 ] } },
{ "type": "Feature", "properties": { "ccd_name": "Making street light functional", "com_location": "sr no 54/2 Annabhau sathe nagar Aranyeshwar Pune 9\r\n" }, "geometry": { "type": "Point", "coordinates": [ 73.8517792, 18.4856112 ] } },
{ "type": "Feature", "properties": { "ccd_name": "Making street light functional", "com_location": "khaDakI sTeshana te bopoDI chauka,muMbaI-puNe roDa,bopoDI" }, "geometry": { "type": "Point", "coordinates": [ 73.84171, 18.562828 ] } },
{ "type": "Feature", "properties": { "ccd_name": "Making street light functional", "com_location": "112/B Vishrantwadi Alandi road behind of Milind bakary Pune 15" }, "geometry": { "type": "Point", "coordinates": [ 73.8782079, 18.5726054 ] } },
{ "type": "Feature", "properties": { "ccd_name": "Making street light functional", "com_location": "p no 9 tapobhumi soc dattawadi,, Pune, Maharashtra" }, "geometry": { "type": "Point", "coordinates": [ 73.8315681, 18.4927734 ] } },
{ "type": "Feature", "properties": { "ccd_name": "Making street light functional", "com_location": "sr.no.7 dattanager jambhulawadi road, near dattanager police station, chamunda kitchen trolley lane , Pune, Maharashtra" }, "geometry": { "type": "Point", "coordinates": [ 73.8451092, 18.4412934 ] } },
{ "type": "Feature", "properties": { "ccd_name": "Making street light functional", "com_location": "baner pashan link rd, ranmala hotel , rolling hill soc,, Pune, Maharashtra" }, "geometry": { "type": "Point", "coordinates": [ 73.7979555, 18.5513163 ] } },
{ "type": "Feature", "properties": { "ccd_name": "Making street light functional", "com_location": "chandani chowk, to gloriya apt. bavdhan , Pune, Maharashtra" }, "geometry": { "type": "Point", "coordinates": [ 73.7686991, 18.5071889 ] } },
{ "type": "Feature", "properties": { "ccd_name": "Making street light functional", "com_location": "sarve naM 1jAdhava vADA pAShANa puNe 21 lakShmI mAtA maMdira" }, "geometry": { "type": "Point", "coordinates": [ 73.851825, 18.4904505 ] } },
{ "type": "Feature", "properties": { "ccd_name": "Making street light functional", "com_location": "tiraMgA chauka bhADaLe ALI phurasuMgI , Pune, Maharashtra" }, "geometry": { "type": "Point", "coordinates": [ 73.8418687, 18.5171586 ] } },
{ "type": "Feature", "properties": { "ccd_name": "Making street light functional", "com_location": " notting hill society kondhwa BK pune " }, "geometry": { "type": "Point", "coordinates": [ 73.8969127, 18.4597347 ] } },
{ "type": "Feature", "properties": { "ccd_name": "Making street light functional", "com_location": "Thite Nagar, Kharadi, Maharashtra 411014, India, Pune, Maharashtra" }, "geometry": { "type": "Point", "coordinates": [ 73.9403908, 18.5443244 ] } },
{ "type": "Feature", "properties": { "ccd_name": "Repairing and maintenance of Signal", "com_location": "Hotel Marriot chowk , Pune, Maharashtra" }, "geometry": { "type": "Point", "coordinates": [ 73.8786239, 18.5246091 ] } },
{ "type": "Feature", "properties": { "ccd_name": "Making street light functional", "com_location": "Opp Orchid School Road lite Sbi bank to Janki niwas lane  \r\n 411045, Pune, Maharashtra" }, "geometry": { "type": "Point", "coordinates": [ 73.7815005, 18.5642785 ] } },
{ "type": "Feature", "properties": { "ccd_name": "Making street light functional", "com_location": " Balewadi High Street, Pune, Maharashtra" }, "geometry": { "type": "Point", "coordinates": [ 73.7752435, 18.5687114 ] } },
{ "type": "Feature", "properties": { "ccd_name": "Making street light functional", "com_location": "khese park lane-6, sr -253, lohegaon rd , Pune, Maharashtra" }, "geometry": { "type": "Point", "coordinates": [ 73.9115029, 18.5903003 ] } },
{ "type": "Feature", "properties": { "ccd_name": "Other (ELECTRICAL)", "com_location": "Supreme Palms Society, Balewadi,pune." }, "geometry": { "type": "Point", "coordinates": [ 73.7799731, 18.5712964 ] } },
{ "type": "Feature", "properties": { "ccd_name": "Making street light functional", "com_location": "vaha.cpI ka lanI,gosAvI vastI,kotharUDa,(vAraje kShetrIya kAryAlaya, Pune, Maharashtra" }, "geometry": { "type": "Point", "coordinates": [ 73.801704, 18.4758047 ] } },
{ "type": "Feature", "properties": { "ccd_name": "Making street light functional", "com_location": "kasturabA hAUsiMga sosAyaTI, phla.cTa naM 1 sI, ha Tela samRRiddhI samora, puNe 411015." }, "geometry": { "type": "Point", "coordinates": [ 73.8824002, 18.5817759 ] } },
{ "type": "Feature", "properties": { "ccd_name": "Other (ELECTRICAL)", "com_location": "grant road near ion it park phase 2 kharadi pune " }, "geometry": { "type": "Point", "coordinates": [ 73.9423296, 18.5489545 ] } },
{ "type": "Feature", "properties": { "ccd_name": "Making street light functional", "com_location": "Sr. No. 46/2/1, behind Audi showroom , sus road, Baner., Pune, Maharashtra" }, "geometry": { "type": "Point", "coordinates": [ 73.773364, 18.5478 ] } },
{ "type": "Feature", "properties": { "ccd_name": "Making street light functional", "com_location": "Sr no 2/1 2/2 nath banglow kesar lane opp access bank baner pune 45" }, "geometry": { "type": "Point", "coordinates": [ 73.7730342, 18.5599115 ] } },
{ "type": "Feature", "properties": { "ccd_name": "Making street light functional", "com_location": "From Trimurti Hospital to Media Corner Apartment off nahre road near dhayari phata, Pune, Maharashtra" }, "geometry": { "type": "Point", "coordinates": [ 73.8156064, 18.4591679 ] } },
{ "type": "Feature", "properties": { "ccd_name": "Making street light functional", "com_location": "FORGUSSEN ROAD NYANESHWAR PADUKA CHOWK BHARAT PETROL PUMP, Pune, Maharashtra" }, "geometry": { "type": "Point", "coordinates": [ 73.842534, 18.532693 ] } },
{ "type": "Feature", "properties": { "ccd_name": "Other (ELECTRICAL)", "com_location": "Grafikon Paradise Phase 2,PLOT-13, 14,15 NIBM ROAD adjacent to salunke vihar telephone exchange, still the lights on al the light posts on., Pune, Maharashtra" }, "geometry": { "type": "Point", "coordinates": [ 73.902776, 18.478717 ] } },
{ "type": "Feature", "properties": { "ccd_name": "Making street light functional", "com_location": "Bopodi opposite to Pune IT park bhau patil road " }, "geometry": { "type": "Point", "coordinates": [ 73.8313525, 18.5668028 ] } },
{ "type": "Feature", "properties": { "ccd_name": "Making street light functional", "com_location": "yeravaDA gAvAtIla jAmA masjida bAherIla, Pune, Maharashtra" }, "geometry": { "type": "Point", "coordinates": [ 73.879711, 18.5529226 ] } },
{ "type": "Feature", "properties": { "ccd_name": "Making street light functional", "com_location": "Sr no 635 building no 38 mahesh socity bibewadi behinde datt mandir bibewadi, Pune, Maharashtra" }, "geometry": { "type": "Point", "coordinates": [ 73.86559, 18.469438 ] } },
{ "type": "Feature", "properties": { "ccd_name": "Making street light functional", "com_location": "turning from Shreeji lawns to Kumar Prithvi Phase 2., Pune, Maharashtra" }, "geometry": { "type": "Point", "coordinates": [ 73.8796707, 18.467306 ] } },
{ "type": "Feature", "properties": { "ccd_name": "Making street light functional", "com_location": "7 SHAM SOCIETY,584 CALIBURY PARK,PUNE 411037" }, "geometry": { "type": "Point", "coordinates": [ 73.8724301, 18.4807627 ] } },
{ "type": "Feature", "properties": { "ccd_name": "Making street light functional", "com_location": "eon phase 2, marvel enigma intersection kharadi, Pune, Maharashtra" }, "geometry": { "type": "Point", "coordinates": [ 73.9557637, 18.5518776 ] } },
{ "type": "Feature", "properties": { "ccd_name": "Making street light functional", "com_location": "navyug mitra mandal dattawadi pune -30" }, "geometry": { "type": "Point", "coordinates": [ 73.8488809, 18.4948775 ] } },
{ "type": "Feature", "properties": { "ccd_name": "Making street light functional", "com_location": " Chudaman Talim, Bhavani Peth., Pune, Maharashtra" }, "geometry": { "type": "Point", "coordinates": [ 73.8746269, 18.5084085 ] } },
{ "type": "Feature", "properties": { "ccd_name": "Making street light functional", "com_location": "opposite Laxmi Datta society, near LMD chowk, bavdhan     , Pune, Maharashtra" }, "geometry": { "type": "Point", "coordinates": [ 73.774749, 18.51149 ] } },
{ "type": "Feature", "properties": { "ccd_name": "Making street light functional", "com_location": "Ganadhish Sankul Phase 2, Khorad Vasti Lane, Sainagar, Hingne khurd, Sinhagad Road, Pune 411051" }, "geometry": { "type": "Point", "coordinates": [ 73.8382544, 18.473668 ] } },
{ "type": "Feature", "properties": { "ccd_name": "Other (ELECTRICAL)", "com_location": "110 111 gaMja peTha mahAtmA phule puNe 411042" }, "geometry": { "type": "Point", "coordinates": [ 73.8687194, 18.504503 ] } },
{ "type": "Feature", "properties": { "ccd_name": "Making street light functional", "com_location": "junA brija saMgamavADI , Pune, Maharashtra" }, "geometry": { "type": "Point", "coordinates": [ 73.8786239, 18.5246091 ] } },
{ "type": "Feature", "properties": { "ccd_name": "Removing street light pole (pole obstructing road)", "com_location": "Shrishti Park, Mayuresh Apartment, Samrudhi Rowhouse, Balewadi, Pune, Maharashtra" }, "geometry": { "type": "Point", "coordinates": [ 73.7843789, 18.5640182 ] } },
{ "type": "Feature", "properties": { "ccd_name": "Making street light functional", "com_location": "pArakhe / shiMde maLA rA.cyala enaphilDa \r\nshorUma bANera mAgIla rastA (kapila \r\nmalhAra javaLa ), Pune, Maharashtra" }, "geometry": { "type": "Point", "coordinates": [ 73.8786239, 18.5246091 ] } },
{ "type": "Feature", "properties": { "ccd_name": "Making street light functional", "com_location": "laxminagar sahu college road dattawadi police station parvati payata pmc shala no 111 parvati 411049, Pune, Maharashtra" }, "geometry": { "type": "Point", "coordinates": [ 73.8484109, 18.4928165 ] } },
{ "type": "Feature", "properties": { "ccd_name": "Making street light functional", "com_location": "801 bhawani peth bhagwan das chawl near baba bakery opposite sasa photo studio pune" }, "geometry": { "type": "Point", "coordinates": [ 73.8699182, 18.5116565 ] } },
{ "type": "Feature", "properties": { "ccd_name": "Making street light functional", "com_location": "Megh Malhar Near Sai shahaji nagar Pune Banglore Highway Warje " }, "geometry": { "type": "Point", "coordinates": [ 73.7735428, 18.5481622 ] } },
{ "type": "Feature", "properties": { "ccd_name": "Making street light functional", "com_location": "Ketkar Road Street Lights not working, Pune, Maharashtra" }, "geometry": { "type": "Point", "coordinates": [ 73.8338264, 18.5143021 ] } },
{ "type": "Feature", "properties": { "ccd_name": "Making street light functional", "com_location": "sr 203 sadesatranali galli no 3 s near krishna clinic hadapsar pune 411028\t" }, "geometry": { "type": "Point", "coordinates": [ 73.9491275, 18.5128142 ] } },
{ "type": "Feature", "properties": { "ccd_name": "Making street light functional", "com_location": "swarnavilas baner pashan link road pashan pune 411021" }, "geometry": { "type": "Point", "coordinates": [ 73.7900259, 18.5505343 ] } },
{ "type": "Feature", "properties": { "ccd_name": "Making street light functional", "com_location": "Lullanagar signal\r\n, Pune, Maharashtra" }, "geometry": { "type": "Point", "coordinates": [ 73.88362, 18.4852672 ] } },
{ "type": "Feature", "properties": { "ccd_name": "Making street light functional", "com_location": "Sr no 676 padmakunj society Bibvewadi Pune 37" }, "geometry": { "type": "Point", "coordinates": [ 73.8592006, 18.4716915 ] } },
{ "type": "Feature", "properties": { "ccd_name": "Making street light functional", "com_location": "prabhAga 23  haDapasara kShetrIya kAryAlaya aMtargata sasANe nagara yethIla bhuyArI vardhamAna TAUna shipa javaLIla bhuyArI mArga Ahe tyA ThikANI, Pune, Maharashtra" }, "geometry": { "type": "Point", "coordinates": [ 73.8059723, 18.621297 ] } },
{ "type": "Feature", "properties": { "ccd_name": "Repairing of Lights / Halogen in Garden", "com_location": "Gold leaf society, Sai satyam Park, Wagholi , Pune, Maharashtra" }, "geometry": { "type": "Point", "coordinates": [ 73.9605657, 18.5756051 ] } },
{ "type": "Feature", "properties": { "ccd_name": "Removing street light pole (pole obstructing road)", "com_location": " LMD Chowk, Bavdhan, pune- 411021" }, "geometry": { "type": "Point", "coordinates": [ 73.777771, 18.511031 ] } },
{ "type": "Feature", "properties": { "ccd_name": "Making street light functional", "com_location": "plot number 10 survey number 253/1A khese park lane number 16 near asha viddyalaye school pune " }, "geometry": { "type": "Point", "coordinates": [ 73.9100902, 18.5909421 ] } },
{ "type": "Feature", "properties": { "ccd_name": "Making street light functional", "com_location": "at Vidysagar colony Salisbury Park behind shankar mandir, Pune, Maharashtra" }, "geometry": { "type": "Point", "coordinates": [ 73.876455, 18.484757 ] } },
{ "type": "Feature", "properties": { "ccd_name": "Making street light functional", "com_location": "S NO-289/A/1 ASHTVINAYAK SOCIETY NO-2 D Y PATIL ROAD NEAR PARK VISTA, Pune, Maharashtra" }, "geometry": { "type": "Point", "coordinates": [ 73.9251818, 18.6040293 ] } },
{ "type": "Feature", "properties": { "ccd_name": "Making street light functional", "com_location": "jaya bhavAnI chauka,phUrasuMgI gAva, Pune, Maharashtra" }, "geometry": { "type": "Point", "coordinates": [ 73.8786239, 18.5246091 ] } },
{ "type": "Feature", "properties": { "ccd_name": "Making street light functional", "com_location": "kAkAsAheba gADagILa duchAkI pUla (Z brija ), Pune, Maharashtra" }, "geometry": { "type": "Point", "coordinates": [ 73.8786239, 18.5246091 ] } },
{ "type": "Feature", "properties": { "ccd_name": "A new street light (new demand)", "com_location": "sAyakaravADI phurasuMgI ., Pune, Maharashtra" }, "geometry": { "type": "Point", "coordinates": [ 73.9784573, 18.4726725 ] } },
{ "type": "Feature", "properties": { "ccd_name": "Making street light functional", "com_location": "sr 140/3 nikas lawns soceity bhegadenagar sus raod pashan pune 411021" }, "geometry": { "type": "Point", "coordinates": [ 73.7778297, 18.5454017 ] } },
{ "type": "Feature", "properties": { "ccd_name": "Making street light functional", "com_location": "FURSUNGI GAON HADAPSAR, Pune, Maharashtra" }, "geometry": { "type": "Point", "coordinates": [ 73.9744204, 18.469783 ] } },
{ "type": "Feature", "properties": { "ccd_name": "Making street light functional", "com_location": "BT kawde road canel road balasaheb mahdoji visarajan ghat , Pune, Maharashtra" }, "geometry": { "type": "Point", "coordinates": [ 73.906023, 18.5197737 ] } },
{ "type": "Feature", "properties": { "ccd_name": "Making street light functional", "com_location": "Mahatma society kothrud , Pune, Maharashtra" }, "geometry": { "type": "Point", "coordinates": [ 73.7985281, 18.4981221 ] } },
{ "type": "Feature", "properties": { "ccd_name": "Making street light functional", "com_location": " ZAGADE PARK, S.NO 93/22B, GHORPADI ROAD, MUNDHWA, PUNE 411036" }, "geometry": { "type": "Point", "coordinates": [ 73.9250305, 18.535419 ] } },
{ "type": "Feature", "properties": { "ccd_name": "Making street light functional", "com_location": "phurasuMgI jaya bhavAnI chauka jaina maMdira, Pune, Maharashtra" }, "geometry": { "type": "Point", "coordinates": [ 73.850181, 18.494991 ] } },
{ "type": "Feature", "properties": { "ccd_name": "A new street light (new demand)", "com_location": "Mittal House, 2095 Sadashiv Peth, \r\nSane Guruji Road, Nilayam Theatre Chowk , Pune, Maharashtra" }, "geometry": { "type": "Point", "coordinates": [ 73.850560700000017, 18.5028693 ] } },
{ "type": "Feature", "properties": { "ccd_name": "Making street light functional", "com_location": "3rd pole opp. Siddhi heights soc nr ayyappa temple kopre road uttamnagar pune 411023" }, "geometry": { "type": "Point", "coordinates": [ 73.7742205, 18.4649808 ] } },
{ "type": "Feature", "properties": { "ccd_name": "Making street light functional", "com_location": " madhukunj hos soc panchwati pashan, Pune, Maharashtra" }, "geometry": { "type": "Point", "coordinates": [ 73.8117632, 18.5309553 ] } },
{ "type": "Feature", "properties": { "ccd_name": "Making street light functional", "com_location": "111/2 near Mamta Hospital Shanti Nagar Vishrantwadi Pune 411006" }, "geometry": { "type": "Point", "coordinates": [ 73.8787947, 18.5679924 ] } },
{ "type": "Feature", "properties": { "ccd_name": "Making street light functional", "com_location": "sutAravADI manapA shALe mAge prema nagara  , Pune, Maharashtra" }, "geometry": { "type": "Point", "coordinates": [ 73.7816154, 18.5419934 ] } },
{ "type": "Feature", "properties": { "ccd_name": "Making street light functional", "com_location": "bavdhan near lmd chowk niche crown society near laxmi datt pune " }, "geometry": { "type": "Point", "coordinates": [ 73.8555338, 18.5105824 ] } },
{ "type": "Feature", "properties": { "ccd_name": "Making street light functional", "com_location": "C1 sneh mangal bangla mahinna ho society opp sharda niketan ladies hostel Karve nagar Pune 52" }, "geometry": { "type": "Point", "coordinates": [ 73.8236745, 18.4948559 ] } },
{ "type": "Feature", "properties": { "ccd_name": "Making street light functional", "com_location": "From Kamaan, mns office, Yewlewadi, Kondhwa budruk along a long stretch., Pune, Maharashtra" }, "geometry": { "type": "Point", "coordinates": [ 73.8118041, 18.4843372 ] } },
{ "type": "Feature", "properties": { "ccd_name": "Making street light functional", "com_location": "kAshmirA byuTI pArlara oma chines mAge NDA road, Pune, Maharashtra" }, "geometry": { "type": "Point", "coordinates": [ 73.784013, 18.4670083 ] } },
{ "type": "Feature", "properties": { "ccd_name": "Signal not working", "com_location": "kotharuDa Depo yethIla , Pune, Maharashtra" }, "geometry": { "type": "Point", "coordinates": [ 73.8786239, 18.5246091 ] } },
{ "type": "Feature", "properties": { "ccd_name": "Making street light functional", "com_location": "Bhosale nagar near nakshatra garden to Lakshmi vihar socity , Pune, Maharashtra" }, "geometry": { "type": "Point", "coordinates": [ 73.8514195, 18.5192365 ] } },
{ "type": "Feature", "properties": { "ccd_name": "Making street light functional", "com_location": "prabhAga kramAMka 26 hAMDevADIroDa sAtavanagara Ama kA jhADa iMdirA nagara gallI naMbara 2 sarvhe naMbara 64 , Pune, Maharashtra" }, "geometry": { "type": "Point", "coordinates": [ 73.8786239, 18.5246091 ] } },
{ "type": "Feature", "properties": { "ccd_name": "Making street light functional", "com_location": "hopate lane (between ghole road modern college road), Pune, Maharashtra" }, "geometry": { "type": "Point", "coordinates": [ 73.8458876, 18.5263478 ] } },
{ "type": "Feature", "properties": { "ccd_name": "Repairing street light pole (damaged / fallen)", "com_location": "serve no 247 Lane 2 kalwad wasti lohagaon road pune 411032\r\nnear renuka medical" }, "geometry": { "type": "Point", "coordinates": [ 73.9050254, 18.5864911 ] } },
{ "type": "Feature", "properties": { "ccd_name": "Other (ELECTRICAL)", "com_location": "sarvhe naM.25 shiva ka lanI, sAgara bekarIjavaLa, dhanakavaDI AMbegAva paThAra yA ThikANI shrI.sasANe yAMchyA gharAjavaLa., Pune, Maharashtra" }, "geometry": { "type": "Point", "coordinates": [ 73.8546821, 18.4654546 ] } },
{ "type": "Feature", "properties": { "ccd_name": "Making street light functional", "com_location": "Shingad college road,behand bank of maharashatrra,anmegaon budruk,pune 411046." }, "geometry": { "type": "Point", "coordinates": [ 73.8358008, 18.4596528 ] } },
{ "type": "Feature", "properties": { "ccd_name": "Making street light functional", "com_location": "58/7,Azad Nagar, Jambhullkar Vasti,  Wanowrie Pune40." }, "geometry": { "type": "Point", "coordinates": [ 73.9060324, 18.4840847 ] } },
{ "type": "Feature", "properties": { "ccd_name": "Making street light functional", "com_location": "sr. No* 46/2/1, Sus Road, Baner ,\r\nMARK RESIDENCY,\r\nSr. No. 46/2/1, behind Audi Showroom , Sus Road, Baner., Pune, Maharashtra" }, "geometry": { "type": "Point", "coordinates": [ 73.7720133, 18.548927 ] } },
{ "type": "Feature", "properties": { "ccd_name": "Making street light functional", "com_location": "at hotel badshahi corner Baner Pashan Link Road, Pune, Maharashtra" }, "geometry": { "type": "Point", "coordinates": [ 73.7912895, 18.5491346 ] } },
{ "type": "Feature", "properties": { "ccd_name": "Making street light functional", "com_location": "82 Lohgaon Wagholi Road Karmabhumi Nagar, Pune, Maharashtra" }, "geometry": { "type": "Point", "coordinates": [ 73.9434325, 18.592978 ] } },
{ "type": "Feature", "properties": { "ccd_name": "Making street light functional", "com_location": "Pashan road. From University to Pashan circle . Especially after NCL, Pune, Maharashtra" }, "geometry": { "type": "Point", "coordinates": [ 73.7963142, 18.537721 ] } },
{ "type": "Feature", "properties": { "ccd_name": "Making street light functional", "com_location": "NMV school near axis bank appa balwant chowk narayan peth., Pune, Maharashtra" }, "geometry": { "type": "Point", "coordinates": [ 73.8544175, 18.5154592 ] } },
{ "type": "Feature", "properties": { "ccd_name": "Making street light functional", "com_location": "Padmavati pool to Chavan nagar kaman besides of Gururaj society Satara road, Pune, Maharashtra" }, "geometry": { "type": "Point", "coordinates": [ 73.856401, 18.4744696 ] } },
{ "type": "Feature", "properties": { "ccd_name": "Removing street light pole (pole obstructing road)", "com_location": "aundh dav  public school pune  " }, "geometry": { "type": "Point", "coordinates": [ 73.8038028, 18.5600007 ] } },
{ "type": "Feature", "properties": { "ccd_name": "Making street light functional", "com_location": "Baner pashan Link Road, Pune, Maharashtra" }, "geometry": { "type": "Point", "coordinates": [ 73.7912895, 18.5491346 ] } },
{ "type": "Feature", "properties": { "ccd_name": "Making street light functional", "com_location": "Raheja Vistas Phase 1, Pune, Maharashtra" }, "geometry": { "type": "Point", "coordinates": [ 73.9076543, 18.471289 ] } },
{ "type": "Feature", "properties": { "ccd_name": "Making street light functional", "com_location": "gokuLa nagara, koMDhavA bu, sTeTa ba.cMkechyA lena madhIla shikShaka sosAyaTI rastyAvarIla mAtAjI supara mArkeTa samorIla , Pune, Maharashtra" }, "geometry": { "type": "Point", "coordinates": [ 73.9531189, 18.5646495 ] } },
{ "type": "Feature", "properties": { "ccd_name": "Other (Traffic-signal Electrical)", "com_location": "Mundhwa, Main chouk, near river Bridge, Magarpatta road, Pune, Maharashtra" }, "geometry": { "type": "Point", "coordinates": [ 73.9323998, 18.5304992 ] } },
{ "type": "Feature", "properties": { "ccd_name": "Other (ELECTRICAL)", "com_location": "prabhAga kramAMka 21 bhImanagara lena no 24, Pune, Maharashtra" }, "geometry": { "type": "Point", "coordinates": [ 73.8786239, 18.5246091 ] } },
{ "type": "Feature", "properties": { "ccd_name": "Making street light functional", "com_location": "Rohan Leher , Baner, Baner Sus Road ,  Behind Bitwise Terra Tower\r\nWard Baner Balewadi , under Aundh PMC office, Pune, Maharashtra" }, "geometry": { "type": "Point", "coordinates": [ 73.7678268, 18.5542813 ] } },
{ "type": "Feature", "properties": { "ccd_name": "Making street light functional", "com_location": "Main road, Happy Steel furniture, near Siddhi vinayak Medical, Urmila Society, Dhankawadi, Pune-43" }, "geometry": { "type": "Point", "coordinates": [ 73.8534534, 18.4672393 ] } },
{ "type": "Feature", "properties": { "ccd_name": "Making street light functional", "com_location": "Tank road tamboli residence porawal park yerawada pune 6 " }, "geometry": { "type": "Point", "coordinates": [ 73.8754345, 18.5686282 ] } },
{ "type": "Feature", "properties": { "ccd_name": "Making street light functional", "com_location": "AMbeDakara nagara mArkeTa yArDa puNe shahara prabhAga kramAMka 36 " }, "geometry": { "type": "Point", "coordinates": [ 73.8786239, 18.5246091 ] } },
{ "type": "Feature", "properties": { "ccd_name": "Making street light functional", "com_location": "Baner Pashan link road\r\nNear uttam super store\r\nOpposite sant tukaram school, Pune, Maharashtra" }, "geometry": { "type": "Point", "coordinates": [ 73.7914388, 18.5507632 ] } },
{ "type": "Feature", "properties": { "ccd_name": "Making street light functional", "com_location": "Opposite Road side of Balaji Hospital Kharadi Bypass, Pune, Maharashtra" }, "geometry": { "type": "Point", "coordinates": [ 73.9406922, 18.5626376 ] } },
{ "type": "Feature", "properties": { "ccd_name": "Making street light functional", "com_location": " Few street lights not working on Aundh Baner Link Road and Baner Pashan Link Road., Pune, Maharashtra" }, "geometry": { "type": "Point", "coordinates": [ 73.7912895, 18.5491346 ] } },
{ "type": "Feature", "properties": { "ccd_name": "Making street light functional", "com_location": "swaranagari co-op society sinhagad road Anand Nagar Pune 411051" }, "geometry": { "type": "Point", "coordinates": [ 73.8256828, 18.4765783 ] } },
{ "type": "Feature", "properties": { "ccd_name": "Making street light functional", "com_location": "ma Dela ka lanI yethIla lalita mahala ha Tela te jagatApa DearI yethIla, Pune, Maharashtra" }, "geometry": { "type": "Point", "coordinates": [ 73.8149434, 18.5969885 ] } },
{ "type": "Feature", "properties": { "ccd_name": "Making street light functional", "com_location": "Paradise Towers Society , Sn 2/1,2/1, Near GS Lab , Opp Axis Bank Baner Road , Baner Pune-45" }, "geometry": { "type": "Point", "coordinates": [ 73.7966746, 18.5544528 ] } },
{ "type": "Feature", "properties": { "ccd_name": "Other (Traffic-signal Electrical)", "com_location": " 7 Loves Chowk Shanker Sheth Rd., Pune, Maharashtra" }, "geometry": { "type": "Point", "coordinates": [ 73.8692149, 18.5014809 ] } },
{ "type": "Feature", "properties": { "ccd_name": "Making street light functional", "com_location": " at lane 4 opposite joad house, sanjay park., Pune, Maharashtra" }, "geometry": { "type": "Point", "coordinates": [ 73.9054265, 18.569415 ] } },
{ "type": "Feature", "properties": { "ccd_name": "Making street light functional", "com_location": "rAsakara pArka pheja naM.3, plATa naMbara 36, sa. naM.13 mAMgaDevADI, kAtraja, puNe 411046" }, "geometry": { "type": "Point", "coordinates": [ 73.865238, 18.4529322 ] } },
{ "type": "Feature", "properties": { "ccd_name": "Making street light functional", "com_location": "trimurti gym biver church sejari khandve nagar pune" }, "geometry": { "type": "Point", "coordinates": [ 73.9557366, 18.577256 ] } },
{ "type": "Feature", "properties": { "ccd_name": "Making street light functional", "com_location": "Unnati heritez konadhava road kondhava bu, Pune, Maharashtra" }, "geometry": { "type": "Point", "coordinates": [ 73.8889779, 18.4695088 ] } },
{ "type": "Feature", "properties": { "ccd_name": "Making street light functional", "com_location": "Rajastana Beauty products durga Building inside Tambadi Jogeshwari temple lane near Appa Balwant chowk, Pune, Maharashtra" }, "geometry": { "type": "Point", "coordinates": [ 73.8549416, 18.5167441 ] } },
{ "type": "Feature", "properties": { "ccd_name": "Making street light functional", "com_location": "Sr no 10/7/5 Sun City road Anand Nagar near fire brigade station Vadgaon bk, Pune, Maharashtra" }, "geometry": { "type": "Point", "coordinates": [ 73.8153712, 18.4769125 ] } },
{ "type": "Feature", "properties": { "ccd_name": "Making street light functional", "com_location": "sarvhe naMbara 44, hanumAna nagara, pauDa roDa mohaLa giraNI mAge  kotharUDa puNe 38" }, "geometry": { "type": "Point", "coordinates": [ 73.8176839, 18.4918016 ] } },
{ "type": "Feature", "properties": { "ccd_name": "A new street light (new demand)", "com_location": "Sai Ganesh park society, Khandve Nagar Road, Lohegaon,Beh Urja fuel pump, Pune-Nagar road" }, "geometry": { "type": "Point", "coordinates": [ 73.9542955, 18.5730573 ] } },
{ "type": "Feature", "properties": { "ccd_name": "Making street light functional", "com_location": "near Bella Casa to Vibgyor school, Baner, Pune - 411045." }, "geometry": { "type": "Point", "coordinates": [ 73.7768511, 18.5642452 ] } },
{ "type": "Feature", "properties": { "ccd_name": "Making street light functional", "com_location": "pArakhe shiMde maLA bANera , Pune, Maharashtra" }, "geometry": { "type": "Point", "coordinates": [ 73.8786239, 18.5246091 ] } },
{ "type": "Feature", "properties": { "ccd_name": "Making street light functional", "com_location": "Behind of Bal tanaji matra mandal Mavale aali near Kakade palace mangal karyalaya Karve nagar pune 52" }, "geometry": { "type": "Point", "coordinates": [ 73.821729, 18.4914883 ] } },
{ "type": "Feature", "properties": { "ccd_name": "Making street light functional", "com_location": "surve no 216/2 parkhe mala baner, Pune, Maharashtra" }, "geometry": { "type": "Point", "coordinates": [ 73.7950322, 18.5598673 ] } },
{ "type": "Feature", "properties": { "ccd_name": "Making street light functional", "com_location": "kalAkAra kaTTA guDalaka chauka ephasI roDa, Pune, Maharashtra" }, "geometry": { "type": "Point", "coordinates": [ 73.8365599, 18.4628941 ] } },
{ "type": "Feature", "properties": { "ccd_name": "Other (ELECTRICAL)", "com_location": "110 111b, Pune, Maharashtra" }, "geometry": { "type": "Point", "coordinates": [ 73.8786239, 18.5246091 ] } },
{ "type": "Feature", "properties": { "ccd_name": "A new street light (new demand)", "com_location": "From Milind Vaidya , Rohan Leher , Baner, Baner Sus Road ,  Behind Bitwise Terra Tower, Pune, Maharashtra" }, "geometry": { "type": "Point", "coordinates": [ 73.7678268, 18.5542813 ] } },
{ "type": "Feature", "properties": { "ccd_name": "Making street light functional", "com_location": "Alankar Society Road Karvenagar Pune 52." }, "geometry": { "type": "Point", "coordinates": [ 73.8262852, 18.4908959 ] } },
{ "type": "Feature", "properties": { "ccd_name": "Making street light functional", "com_location": "kamte property fursungi mantarwadi bypass road 412308\r\n, Pune, Maharashtra" }, "geometry": { "type": "Point", "coordinates": [ 73.9266384, 18.5053824 ] } },
{ "type": "Feature", "properties": { "ccd_name": "Making street light functional", "com_location": "1618, gopALa gAyana samAja gallI, sadAshiva peTha, puNe - 411030" }, "geometry": { "type": "Point", "coordinates": [ 73.8440548, 18.5082486 ] } },
{ "type": "Feature", "properties": { "ccd_name": "Making street light functional", "com_location": "dN parande road nyati Evita dhanori porwal road pune 4110047\t" }, "geometry": { "type": "Point", "coordinates": [ 73.9065045, 18.6097699 ] } },
{ "type": "Feature", "properties": { "ccd_name": "Making street light functional", "com_location": "girIjAshaMkara hau sosAyaTI chavhANanagara dhanakavaDI, Pune, Maharashtra" }, "geometry": { "type": "Point", "coordinates": [ 73.8564117, 18.4654778 ] } },
{ "type": "Feature", "properties": { "ccd_name": "Other (ELECTRICAL)", "com_location": "Apate road,J.M.road varil all lane, Pune, Maharashtra" }, "geometry": { "type": "Point", "coordinates": [ 73.8467508, 18.5211595 ] } },
{ "type": "Feature", "properties": { "ccd_name": "Making street light functional", "com_location": "Sukhasagar nagar lane no 3 , Pune, Maharashtra" }, "geometry": { "type": "Point", "coordinates": [ 73.8711023, 18.4556427 ] } },
{ "type": "Feature", "properties": { "ccd_name": "Signal not working", "com_location": "GVFC+H3R, Somwar Peth, Pune, Maharashtra 411001" }, "geometry": { "type": "Point", "coordinates": [ 73.8701406, 18.5239875 ] } },
{ "type": "Feature", "properties": { "ccd_name": "Repairing street light pole (damaged / fallen)", "com_location": "Shivalaya Society\r\nPashan Sus Rpad \r\nNear Sai Chock \r\nPin 411021 \r\nPhone : 9822914463, Pune, Maharashtra" }, "geometry": { "type": "Point", "coordinates": [ 73.7842351, 18.5440679 ] } },
{ "type": "Feature", "properties": { "ccd_name": "Making street light functional", "com_location": "Swami Samarth kripa soc,\r\nShridhar nagar, Dhankawadi Pune" }, "geometry": { "type": "Point", "coordinates": [ 73.8620586, 18.4614983 ] } },
{ "type": "Feature", "properties": { "ccd_name": "Making street light functional", "com_location": "Raja Homes Apartments, NIBM Lane no. 21, NIBM Road, Kondhwa Khurd, Pune 411048" }, "geometry": { "type": "Point", "coordinates": [ 73.891398, 18.474496 ] } },