{
"type": "FeatureCollection",
"name": "2021_Garden",
"crs": { "type": "name", "properties": { "name": "urn:ogc:def:crs:OGC:1.3:CRS84" } },
"features": [
{ "type": "Feature", "properties": { "ccd_name": "Permission to Trim Branches in private Society / Land", "com_location": "1315/3 jAnakI apArTameMTabhArata nATya javaLa  Karandiikar Rd, Limayewadi, Sadashiv Peth, Pune, Maharashtra 411030" }, "geometry": { "type": "Point", "coordinates": [ 73.8487931, 18.510747 ] } },
{ "type": "Feature", "properties": { "ccd_name": "Planting of trees besides divider/foothpath (HO)", "com_location": "near The Harmony co-op soc, near Noor-e-Hira Masjid on Bibwewadi Road., Pune, Maharashtra" }, "geometry": { "type": "Point", "coordinates": [ 73.8728549, 18.4806107 ] } },
{ "type": "Feature", "properties": { "ccd_name": "Permission to Trim Branches in private Society / Land", "com_location": "sarve naMbara 103, mahAtmA gAMdhInagara kai. bAbU jagajIvanarAma shALeshejArI yeravaDA puNe 6." }, "geometry": { "type": "Point", "coordinates": [ 73.8901804, 18.5486246 ] } },
{ "type": "Feature", "properties": { "ccd_name": "Others (Garden) (HO)", "com_location": "rAnamaLA ha Tela chauka  te mahAbaLeshvara ha Tela chauka., Pune, Maharashtra" }, "geometry": { "type": "Point", "coordinates": [ 73.8786239, 18.5246091 ] } },
{ "type": "Feature", "properties": { "ccd_name": "Others (Garden) (HO)", "com_location": " crossing of Nagras road to Rutupurna society, Pune, Maharashtra" }, "geometry": { "type": "Point", "coordinates": [ 73.8050664, 18.5655207 ] } },
{ "type": "Feature", "properties": { "ccd_name": "Others (Garden-Civil)", "com_location": "Nanasaheb Dharmadhikari Vanodyan, Aare colony, Tilekar nager. Katraj Kondhawa road, Pune, Maharashtra" }, "geometry": { "type": "Point", "coordinates": [ 73.8812359, 18.4513493 ] } },
{ "type": "Feature", "properties": { "ccd_name": "Others (Garden) (HO)", "com_location": "1118 sadashive peth, Pune, Maharashtra" }, "geometry": { "type": "Point", "coordinates": [ 73.8440548, 18.5082486 ] } },
{ "type": "Feature", "properties": { "ccd_name": "Lifiting of tree cutting", "com_location": "Shreenath nagar 4th lane Baner ., Pune, Maharashtra" }, "geometry": { "type": "Point", "coordinates": [ 73.9040161, 18.5242385 ] } },
{ "type": "Feature", "properties": { "ccd_name": "Branch of tree / complete tree cutting", "com_location": "B- 106, Devgiri Apartment, Ganesh Mala, Sinhagad Road, Pune 411030 " }, "geometry": { "type": "Point", "coordinates": [ 73.8375, 18.4956 ] } },
{ "type": "Feature", "properties": { "ccd_name": "Branch of tree / complete tree cutting", "com_location": "VimanNagar, Shrikrishna hotel chouk, opposite union bank, opposite parishram gate, Pune, Maharashtra" }, "geometry": { "type": "Point", "coordinates": [ 73.8642507, 18.5241758 ] } },
{ "type": "Feature", "properties": { "ccd_name": "Cleaning of Garden (HO)", "com_location": "Alliance Harmony Building, Gangote Path, Opp. KNP, Behind Joshi Hospital, Erandawane, Shiwajinagar, , Pune, Maharashtra" }, "geometry": { "type": "Point", "coordinates": [ 73.8327418, 18.5177948 ] } },
{ "type": "Feature", "properties": { "ccd_name": "Others (Garden) (HO)", "com_location": "Kamala Nehru Park, Dr. Ketkar Marg, Erandavana, Pune 4110044" }, "geometry": { "type": "Point", "coordinates": [ 73.8344134, 18.5170408 ] } },
{ "type": "Feature", "properties": { "ccd_name": "Lifiting of tree cutting", "com_location": "Near chavan nagar kaman near kalubai mandir lane om shiv shakti society, Pune, Maharashtra" }, "geometry": { "type": "Point", "coordinates": [ 73.932266, 18.4957044 ] } },
{ "type": "Feature", "properties": { "ccd_name": "Permission to Trim Branches in private Society / Land", "com_location": "Sai Residency Bunglow no: 2 Baner road Near baskin robbins icecream parlourPune: 411045" }, "geometry": { "type": "Point", "coordinates": [ 73.777662, 18.563972 ] } },
{ "type": "Feature", "properties": { "ccd_name": "Lifiting of tree cutting", "com_location": "prabhAta rastA gallI naM 3, Pune, Maharashtra" }, "geometry": { "type": "Point", "coordinates": [ 73.9409403, 18.4779897 ] } },
{ "type": "Feature", "properties": { "ccd_name": "Others (Garden-Civil)", "com_location": " siMhagaDa roDa, abhirUchI ma la, Pune, Maharashtra" }, "geometry": { "type": "Point", "coordinates": [ 73.8321083, 18.513162 ] } },
{ "type": "Feature", "properties": { "ccd_name": "Lifiting of tree cutting", "com_location": "Plot no 49 Bhosale nagar rean hils road shivaji nagar pune 7" }, "geometry": { "type": "Point", "coordinates": [ 73.835861, 18.54448 ] } },
{ "type": "Feature", "properties": { "ccd_name": "Lifiting of tree cutting", "com_location": "Plot no 24, Trimurti,\r\nEx servicemen Colony, Poud Road, Pune 38" }, "geometry": { "type": "Point", "coordinates": [ 73.8175448, 18.5148735 ] } },
{ "type": "Feature", "properties": { "ccd_name": "Branch of tree / complete tree cutting", "com_location": "67 Anand Park, Lane 2, Aundh, Pune 411007" }, "geometry": { "type": "Point", "coordinates": [ 73.81873, 18.5877214 ] } },
{ "type": "Feature", "properties": { "ccd_name": "Branch of tree / complete tree cutting", "com_location": "shiva sadana so. DAvI bhusArI, sAvalIsaMsthejavaLa, kotharuDa yethe, Pune, Maharashtra" }, "geometry": { "type": "Point", "coordinates": [ 73.7904396, 18.5082124 ] } },
{ "type": "Feature", "properties": { "ccd_name": "Permission to Trim Branches in private Society / Land", "com_location": "Sai ganesh residency \r\nDeshmukhwadi Shivane pune " }, "geometry": { "type": "Point", "coordinates": [ 73.7788076, 18.4673236 ] } },
{ "type": "Feature", "properties": { "ccd_name": "Lifiting of tree cutting", "com_location": "vinatey soc,bibwewadi kondhva road, pune -37" }, "geometry": { "type": "Point", "coordinates": [ 73.8773394, 18.480885 ] } },
{ "type": "Feature", "properties": { "ccd_name": "Others (Garden) (HO)", "com_location": "s.no. 39/4 peony socy yogi park baner pune 45" }, "geometry": { "type": "Point", "coordinates": [ 73.7742797, 18.5512079 ] } },
{ "type": "Feature", "properties": { "ccd_name": "Branch of tree / complete tree cutting", "com_location": "Corinthians Resort Undri pune 411060" }, "geometry": { "type": "Point", "coordinates": [ 73.9194443, 18.4638854 ] } },
{ "type": "Feature", "properties": { "ccd_name": "Others (Garden) (HO)", "com_location": "pAjhara talAva shejArI pAlakhI roDa a.NgulaM pArka sosAyaTI, Pune, Maharashtra" }, "geometry": { "type": "Point", "coordinates": [ 73.9531189, 18.5646495 ] } },
{ "type": "Feature", "properties": { "ccd_name": "Branch of tree / complete tree cutting", "com_location": "CLOVER DALE CDEF CHS LTD.\r\nLANE NO. 7 SOUTH MAIN ROAD ,\r\nKOREGAON PARK\r\nPUNE 411001" }, "geometry": { "type": "Point", "coordinates": [ 73.899213, 18.5322402 ] } },
{ "type": "Feature", "properties": { "ccd_name": "Branch of tree / complete tree cutting", "com_location": "Lane No. 3, Surya Apartment, Kalyani Bungalow Opposite Street, Kalyani Nagar, Pune, Maharashtra" }, "geometry": { "type": "Point", "coordinates": [ 73.899607100000011, 18.5472105 ] } },
{ "type": "Feature", "properties": { "ccd_name": "Lifiting of tree cutting", "com_location": "Aundh baner link road Opp to water filteration plant, Pune, Maharashtra" }, "geometry": { "type": "Point", "coordinates": [ 73.7961758, 18.5632754 ] } },
{ "type": "Feature", "properties": { "ccd_name": "Branch of tree / complete tree cutting", "com_location": "borase ha spiTala samora, ujavI bhusArI, royal enfield signal javaLa, kotharuDa Depo va chAMdaNI chaukAmadhe, Pune, Maharashtra" }, "geometry": { "type": "Point", "coordinates": [ 73.7948462, 18.5089646 ] } },
{ "type": "Feature", "properties": { "ccd_name": "Branch of tree / complete tree cutting", "com_location": "VARAD HOUSING SOCIETY VITTHALWADI SINHGAD ROAD PUNE MAHARASHTRA PIN 411051 Varad Housing Society..Viththalawadi..Sinhgad Road..Pune 51" }, "geometry": { "type": "Point", "coordinates": [ 73.8332731, 18.4758052 ] } },
{ "type": "Feature", "properties": { "ccd_name": "Branch of tree / complete tree cutting", "com_location": "50 B,Yamuna Bungalow,Hanuman Nagar,Senapati Bapat Road,Pune:16" }, "geometry": { "type": "Point", "coordinates": [ 73.8293948, 18.521888 ] } },
{ "type": "Feature", "properties": { "ccd_name": "Permission to Trim Branches in private Society / Land", "com_location": "Celebration Building, A-404, Survey No. 59, 1/3/5&6, Hadapsar - Handewadi Road, Hadapsar, Pune" }, "geometry": { "type": "Point", "coordinates": [ 73.9359364, 18.4697206 ] } },
{ "type": "Feature", "properties": { "ccd_name": "Branch of tree / complete tree cutting", "com_location": "Shop No 9, Agarkar Namjoshi Bhavan, LBS Road  , Navi Peth, Pune- 411030" }, "geometry": { "type": "Point", "coordinates": [ 73.8443677, 18.506936 ] } },
{ "type": "Feature", "properties": { "ccd_name": "Cleaning of Garden (HO)", "com_location": "Bund Garden Pune.\t" }, "geometry": { "type": "Point", "coordinates": [ 73.8816001, 18.5420928 ] } },
{ "type": "Feature", "properties": { "ccd_name": "Others (Garden) (HO)", "com_location": "Jay Prakash narayan Garden near Pune station Dhole patil road" }, "geometry": { "type": "Point", "coordinates": [ 73.8767194, 18.5349483 ] } },
{ "type": "Feature", "properties": { "ccd_name": "Branch of tree / complete tree cutting", "com_location": "Sr.no.122/1 Sutarwadi p.m.c.school back premnagar  pashan pune 411021" }, "geometry": { "type": "Point", "coordinates": [ 73.780317, 18.540731 ] } },
{ "type": "Feature", "properties": { "ccd_name": "Branch of tree / complete tree cutting", "com_location": "mena koMDhavA roDa, sarakArI shauchAlayAsamora, shivasenA officechyA puDhe , koMDhavA khurda, puNe-411048" }, "geometry": { "type": "Point", "coordinates": [ 73.8849232, 18.4663604 ] } },
{ "type": "Feature", "properties": { "ccd_name": "Lifiting of tree cutting", "com_location": "sarve naMbara 103 jaya prakAsha nagara yethIla gaMgA sosAyaTI samora, Pune, Maharashtra" }, "geometry": { "type": "Point", "coordinates": [ 73.8786239, 18.5246091 ] } },
{ "type": "Feature", "properties": { "ccd_name": "Lifiting of tree cutting", "com_location": "Opp to water filteration aundh  Near spires dociety aloma county Near spires dociety aloma county, Pune, Maharashtra" }, "geometry": { "type": "Point", "coordinates": [ 73.7961384, 18.5621655 ] } },
{ "type": "Feature", "properties": { "ccd_name": "Branch of tree / complete tree cutting", "com_location": "  14 & 17 Prashant nagar near Kaka Halwai, Pune, Maharashtra" }, "geometry": { "type": "Point", "coordinates": [ 73.843928, 18.5065855 ] } },
{ "type": "Feature", "properties": { "ccd_name": "Permission to Trim Branches in private Society / Land", "com_location": "Ratan park. Hsg soc Phase 1\r\nOff. Vighnartha Chowk. \r\nSus Rd. Pashan.\r\nPune 411021" }, "geometry": { "type": "Point", "coordinates": [ 73.7777885, 18.5454191 ] } },
{ "type": "Feature", "properties": { "ccd_name": "Repairing of playing equipments in garden", "com_location": "chittaraMjana vATikA near harekRRiShNa roDa mahApAlikA Ayukta baMgalA shejArI bAgeta, Pune, Maharashtra" }, "geometry": { "type": "Point", "coordinates": [ 73.8378708, 18.5322985 ] } },
{ "type": "Feature", "properties": { "ccd_name": "Others (Garden) (HO)", "com_location": "SWNANAD HOSPITAL AND BHAIDE BUNGLOW LANE KUSALKAR ROAD OPP SWASTIK COLONY, Pune, Maharashtra" }, "geometry": { "type": "Point", "coordinates": [ 73.8332011, 18.5294249 ] } },
{ "type": "Feature", "properties": { "ccd_name": "Lifiting of tree cutting", "com_location": "Girija society Nala paud road pune 411038" }, "geometry": { "type": "Point", "coordinates": [ 73.7060383, 18.5054044 ] } },
{ "type": "Feature", "properties": { "ccd_name": "Planting of trees besides divider/foothpath (HO)", "com_location": " Location Near Gagan Galaxy, on Sahid Ashok Kamate Marg, Gangadham.\r\nmap: Ganga Dham Rd, Gagan Ganga Parisar, Gangadham Phase II, Kondhwa, Pune, Maharashtra 411037" }, "geometry": { "type": "Point", "coordinates": [ 73.875557, 18.480043 ] } },
{ "type": "Feature", "properties": { "ccd_name": "Lifiting of tree cutting", "com_location": "ujwal deep apt. Galli no A 17 garmal dhayari pune 411041." }, "geometry": { "type": "Point", "coordinates": [ 73.8117632, 18.457528 ] } },
{ "type": "Feature", "properties": { "ccd_name": "Branch of tree / complete tree cutting", "com_location": "pla Ta no 40 va 41 chyA sAmAIka bhiMtIchyAjavaLa pla Ta naM 41 madhale udhaI lAgalele jhADa. mitramaMDaLa sosAyaTI , Pune, Maharashtra" }, "geometry": { "type": "Point", "coordinates": [ 73.9531189, 18.5646495 ] } },
{ "type": "Feature", "properties": { "ccd_name": "Cleaning of Garden (HO)", "com_location": "Yogi Park Garden , Yogi Park Baner, Pune, Maharashtra" }, "geometry": { "type": "Point", "coordinates": [ 73.7744934, 18.5526813 ] } },
{ "type": "Feature", "properties": { "ccd_name": "Lifiting of tree cutting", "com_location": "girIjA shaMkara sosAyaTI chavhANa nagara dhanakavaDI puNe 43 yethe" }, "geometry": { "type": "Point", "coordinates": [ 73.8546821, 18.4654546 ] } },
{ "type": "Feature", "properties": { "ccd_name": "Branch of tree / complete tree cutting", "com_location": "Nilgiri lane , baner rd, Pune, Maharashtra" }, "geometry": { "type": "Point", "coordinates": [ 73.8165245, 18.5473949 ] } },
{ "type": "Feature", "properties": { "ccd_name": "Others (Garden) (HO)", "com_location": "BHAIRAVNATH UDYAN IN MUNURWAR HOUSING SOCIETY, VADGAON SHERI, Pune, Maharashtra" }, "geometry": { "type": "Point", "coordinates": [ 73.924569, 18.5442197 ] } },
{ "type": "Feature", "properties": { "ccd_name": "Lifiting of tree cutting", "com_location": "mRRityuMjaya ka lanI, kotharUDa ( pauDa roDa, AnaMda nagarachyA mAgIla geTa pAsUnachA rastA), Pune, Maharashtra" }, "geometry": { "type": "Point", "coordinates": [ 73.8786239, 18.5246091 ] } },
{ "type": "Feature", "properties": { "ccd_name": "Branch of tree / complete tree cutting", "com_location": "3,aruNImA  apArTameMTa,  jijAU mA.NsAheba mArga, ujavI bhusArI, pauDa roDa, kotharUDa, puNe 411038" }, "geometry": { "type": "Point", "coordinates": [ 73.7965176, 18.5068025 ] } },
{ "type": "Feature", "properties": { "ccd_name": "Lifiting of tree cutting", "com_location": " Sassoon road,  OPP ruby hall entrance gate,  next to GST colony entrance gate,  411001, Pune, Maharashtra" }, "geometry": { "type": "Point", "coordinates": [ 73.878561, 18.533605 ] } },
{ "type": "Feature", "properties": { "ccd_name": "Cleaning of Garden (HO)", "com_location": "BHAIRAVNATH UDAYAN IN MUNURWAR HOUSING SOCIETY, VADGAON SHERI, Pune, Maharashtra" }, "geometry": { "type": "Point", "coordinates": [ 73.924569, 18.5442197 ] } },
{ "type": "Feature", "properties": { "ccd_name": "Lifiting of tree cutting", "com_location": "rAjasa sosAyaTI, gallI kra 6, Pune, Maharashtra" }, "geometry": { "type": "Point", "coordinates": [ 73.9531189, 18.5646495 ] } },
{ "type": "Feature", "properties": { "ccd_name": "Others (Garden) (HO)", "com_location": "BHAIRAVNATH UDAYAN IN MUNURWAR HOUSING SOCIETY, VADGAON SHERI, Pune, Maharashtra" }, "geometry": { "type": "Point", "coordinates": [ 73.924569, 18.5442197 ] } },
{ "type": "Feature", "properties": { "ccd_name": "Others (Garden-Civil)", "com_location": "koMDhavA khurda shivanerI nagara madhye jI opana jima Ahe dattAjI gavhANe krIDAMgaNa madhye, Pune, Maharashtra" }, "geometry": { "type": "Point", "coordinates": [ 73.8786239, 18.5246091 ] } },
{ "type": "Feature", "properties": { "ccd_name": "Permission to Trim Branches in private Society / Land", "com_location": "kotharUDa Depo chauka, ujavI bhusArI kA.NlanI ,mArutI hAiTas , Pune, Maharashtra" }, "geometry": { "type": "Point", "coordinates": [ 73.7948462, 18.5089646 ] } },
{ "type": "Feature", "properties": { "ccd_name": "Branch of tree / complete tree cutting", "com_location": "yeravaDA yethila smashAnabhumI geTa, Pune, Maharashtra" }, "geometry": { "type": "Point", "coordinates": [ 73.879711, 18.5529226 ] } },
{ "type": "Feature", "properties": { "ccd_name": "Cleaning of Garden (HO)", "com_location": "poravala roDa, dhAnorI yethe Apple Chemist te 7th Heaven Society rastyAvara, Pune, Maharashtra" }, "geometry": { "type": "Point", "coordinates": [ 73.904808, 18.6041963 ] } },
{ "type": "Feature", "properties": { "ccd_name": "Permission to Trim Branches in private Society / Land", "com_location": "Sr. No- 89, Yuthika Aparatments, Veerbhandra Nagar, Baner 411045. , Pune, Maharashtra" }, "geometry": { "type": "Point", "coordinates": [ 73.7717235, 18.5616657 ] } },
{ "type": "Feature", "properties": { "ccd_name": "Permission to Trim Branches in private Society / Land", "com_location": "ShriKrishna Housing Society plot number 6 \r\nNear Kalyani Hospital ChandanNagar\r\nPune 411014" }, "geometry": { "type": "Point", "coordinates": [ 73.933594, 18.5601219 ] } },
{ "type": "Feature", "properties": { "ccd_name": "Lifiting of tree cutting", "com_location": "201, AJ Dattashobha apartment, pandurang colony, erandwane, pune-411038" }, "geometry": { "type": "Point", "coordinates": [ 73.8269087, 18.5042785 ] } },
{ "type": "Feature", "properties": { "ccd_name": "Branch of tree / complete tree cutting", "com_location": "C-Wing, Rishi Apt, Plot 93/1, Viman Nagar, Pune - 411014" }, "geometry": { "type": "Point", "coordinates": [ 73.9146061, 18.565431 ] } },
{ "type": "Feature", "properties": { "ccd_name": "Permission to Trim Branches in private Society / Land", "com_location": "kamalA neharU hospital, Pune, Maharashtra" }, "geometry": { "type": "Point", "coordinates": [ 73.8622102, 18.5227057 ] } },
{ "type": "Feature", "properties": { "ccd_name": "Branch of tree / complete tree cutting", "com_location": "saM na. 6/7/3/a/1+a/2 ena.Di.ai.pAShANa roDa bAvadhana khurda puNe 411021" }, "geometry": { "type": "Point", "coordinates": [ 73.93118, 18.56022 ] } },
{ "type": "Feature", "properties": { "ccd_name": "Permission to Trim Branches in private Society / Land", "com_location": "Kaveri Apartments,\r\nMahadev Gangaram Park, Kirloskar Road, Bopodi, Pune, Maharashtra" }, "geometry": { "type": "Point", "coordinates": [ 73.8408594, 18.5694375 ] } },
{ "type": "Feature", "properties": { "ccd_name": "Repairing of civil work in Garden", "com_location": "ghorapaDe udyAnAtIla , Pune, Maharashtra" }, "geometry": { "type": "Point", "coordinates": [ 73.8323597, 18.4435746 ] } },
{ "type": "Feature", "properties": { "ccd_name": "Lifiting of tree cutting", "com_location": "yeravaDA  apojiTa jaina Tra.cvhalsa  manI vallabha baMgalo 411006, Pune, Maharashtra" }, "geometry": { "type": "Point", "coordinates": [ 73.8866726, 18.5453265 ] } },
{ "type": "Feature", "properties": { "ccd_name": "Branch of tree / complete tree cutting", "com_location": "D4/1 sunder Garden Manikbag . Sinhagad road Pune 411051\r\n" }, "geometry": { "type": "Point", "coordinates": [ 73.8033639, 18.4571619 ] } },
{ "type": "Feature", "properties": { "ccd_name": "Others (Garden-Civil)", "com_location": "ram laxman garden park parihar chauk, Pune, Maharashtra" }, "geometry": { "type": "Point", "coordinates": [ 73.8067186, 18.5601537 ] } },
{ "type": "Feature", "properties": { "ccd_name": "Planting of trees besides divider/foothpath (HO)", "com_location": "Gultekdi to Hadapsar along Canol side., Pune, Maharashtra" }, "geometry": { "type": "Point", "coordinates": [ 73.932942, 18.49555 ] } },
{ "type": "Feature", "properties": { "ccd_name": "Others (Garden) (HO)", "com_location": "plot no.191,S no.51,bhairavnagar,Dhanori road,Pune-411015" }, "geometry": { "type": "Point", "coordinates": [ 73.8865064, 18.585296 ] } },
{ "type": "Feature", "properties": { "ccd_name": "Others (Garden) (HO)", "com_location": "near SBI Main Branch Mumbai Hwy, Somwar Peth, Pune, Maharashtra 411001" }, "geometry": { "type": "Point", "coordinates": [ 73.8704093, 18.5234279 ] } },
{ "type": "Feature", "properties": { "ccd_name": "Maintenance of Garden (Horticulture Related) (HO)", "com_location": "Prima Domus Society, Balewadi, Pune, Maharashtra" }, "geometry": { "type": "Point", "coordinates": [ 73.7664479, 18.5819671 ] } },
{ "type": "Feature", "properties": { "ccd_name": "Branch of tree / complete tree cutting", "com_location": "e-bld, plot-164 lulla nagar kondhva bibwewadi , Pune, Maharashtra" }, "geometry": { "type": "Point", "coordinates": [ 73.8830523, 18.4816473 ] } },
{ "type": "Feature", "properties": { "ccd_name": "Branch of tree / complete tree cutting", "com_location": "sadashiv peth malewadi colony pune 30 BSNL office samor" }, "geometry": { "type": "Point", "coordinates": [ 73.8519173, 18.5087083 ] } },
{ "type": "Feature", "properties": { "ccd_name": "Permission to Trim Branches in private Society / Land", "com_location": "Parth Apartment,\r\n1194, Shukrawar Peth, \r\nSubhash nagar,lane number 03,\r\nPune 411002" }, "geometry": { "type": "Point", "coordinates": [ 73.8567541, 18.504693 ] } },
{ "type": "Feature", "properties": { "ccd_name": "Branch of tree / complete tree cutting", "com_location": "jangli maharaj road pune" }, "geometry": { "type": "Point", "coordinates": [ 73.8467508, 18.5211595 ] } },
{ "type": "Feature", "properties": { "ccd_name": "Lifiting of tree cutting", "com_location": "plot no 44/100 Nava Sahyadri society Kanchan path., Pune, Maharashtra" }, "geometry": { "type": "Point", "coordinates": [ 73.830573, 18.4963726 ] } },
{ "type": "Feature", "properties": { "ccd_name": "Lifiting of tree cutting", "com_location": "102/2 Anamika banglow behind vaidu wadi riksha stand senapati Bapat road Shivaji Nagar Pune 16" }, "geometry": { "type": "Point", "coordinates": [ 73.8274192, 18.5289227 ] } },
{ "type": "Feature", "properties": { "ccd_name": "Branch of tree / complete tree cutting", "com_location": "Cake shop in Ganga garden Pingale Vasti ., Pune, Maharashtra" }, "geometry": { "type": "Point", "coordinates": [ 73.9101668, 18.5298571 ] } },
{ "type": "Feature", "properties": { "ccd_name": "Planting of trees besides divider/foothpath (HO)", "com_location": "Sinhagad road rajaram pool next to axis bank pune" }, "geometry": { "type": "Point", "coordinates": [ 73.8188201, 18.4678997 ] } },
{ "type": "Feature", "properties": { "ccd_name": "Lifiting of tree cutting", "com_location": "Building no 6,anand nagar,kothrud,paud road,pune 411038." }, "geometry": { "type": "Point", "coordinates": [ 73.8152594, 18.5094711 ] } },
{ "type": "Feature", "properties": { "ccd_name": "Branch of tree / complete tree cutting", "com_location": "Abasaheb Raikar Nagar, Dhayari, Pune, Maharashtra 411041" }, "geometry": { "type": "Point", "coordinates": [ 73.8139689, 18.4526817 ] } },
{ "type": "Feature", "properties": { "ccd_name": "Others (Garden-Civil)", "com_location": "Padmavibhushan Garden - Kirtane baug, Pune, Maharashtra" }, "geometry": { "type": "Point", "coordinates": [ 73.9323081, 18.5284964 ] } },
{ "type": "Feature", "properties": { "ccd_name": "Permission to Trim Branches in private Society / Land", "com_location": "Silver Breeze Apartment, 40/11 Bhonde Colony, Nanasaheb Bhonde Path, Erandwane, Pune 411004" }, "geometry": { "type": "Point", "coordinates": [ 73.8344341, 18.512322 ] } },
{ "type": "Feature", "properties": { "ccd_name": "Cleaning of Garden (HO)", "com_location": "Mundhwa ram manohar paryawaran udyan near magarpatta, Pune, Maharashtra" }, "geometry": { "type": "Point", "coordinates": [ 73.9271644, 18.5158057 ] } },
{ "type": "Feature", "properties": { "ccd_name": "Lifiting of tree cutting", "com_location": "Rood no 13    tingree nagar , Pune, Maharashtra" }, "geometry": { "type": "Point", "coordinates": [ 73.8950889, 18.5808364 ] } },
{ "type": "Feature", "properties": { "ccd_name": "Others (Garden) (HO)", "com_location": "Sinhagad road santosh bekri lane in front of shahsitra vihar pune mahangarpalika aayukt plot " }, "geometry": { "type": "Point", "coordinates": [ 73.8033639, 18.4571619 ] } },
{ "type": "Feature", "properties": { "ccd_name": "Branch of tree / complete tree cutting", "com_location": "HAPPY colony , lane no2, Kothrud Pune 38 " }, "geometry": { "type": "Point", "coordinates": [ 73.8153789, 18.4960312 ] } },
{ "type": "Feature", "properties": { "ccd_name": "Others (Garden) (HO)", "com_location": "Sr No:85/86 Annabhau Sathe Vasahat,Sahakar Nagar No:02,Pune :411009 Prabhag Kramank:37 " }, "geometry": { "type": "Point", "coordinates": [ 73.8463619, 18.4904807 ] } },
{ "type": "Feature", "properties": { "ccd_name": "Branch of tree / complete tree cutting", "com_location": "Hadapsar ,17 1/2 nali , ambika chouk , stylo tailer , stadium -, Pune, Maharashtra" }, "geometry": { "type": "Point", "coordinates": [ 73.9326181, 18.5076696 ] } },
{ "type": "Feature", "properties": { "ccd_name": "Others (Garden) (HO)", "com_location": "esa ema joshI pulAkaDe jAtAnA, Pune, Maharashtra" }, "geometry": { "type": "Point", "coordinates": [ 73.8786239, 18.5246091 ] } },
{ "type": "Feature", "properties": { "ccd_name": "Lifiting of tree cutting", "com_location": "survey 114 Baner 411045. , Pune, Maharashtra" }, "geometry": { "type": "Point", "coordinates": [ 73.7867629, 18.5590032 ] } },
{ "type": "Feature", "properties": { "ccd_name": "Others (Garden) (HO)", "com_location": "gate of occasions lawn Baner pashan link road, Pune, Maharashtra" }, "geometry": { "type": "Point", "coordinates": [ 73.7938589, 18.5518891 ] } },
{ "type": "Feature", "properties": { "ccd_name": "Others (Garden) (HO)", "com_location": "puNe shaharAtIla sarva uDDANa pUlAvara" }, "geometry": { "type": "Point", "coordinates": [ 73.8786239, 18.5246091 ] } },
{ "type": "Feature", "properties": { "ccd_name": "Others (Garden) (HO)", "com_location": "bANera pAShANa liMka roDa okejana samora rIjenTa plAjhA shejArI puNe 21" }, "geometry": { "type": "Point", "coordinates": [ 73.8411302, 18.4589527 ] } },
{ "type": "Feature", "properties": { "ccd_name": "Lifiting of tree cutting", "com_location": "Happy co lane no 3 Abhishek bldg Kothrud, Pune, Maharashtra" }, "geometry": { "type": "Point", "coordinates": [ 73.8025965, 18.5088235 ] } },
{ "type": "Feature", "properties": { "ccd_name": "Maintenance of Garden (Horticulture Related) (HO)", "com_location": "Kamala Nehru park,  Harshvardhan Society Lane Number 11 Deccan Gymkhana, Erandwane, Pune, Maharashtra 411004" }, "geometry": { "type": "Point", "coordinates": [ 73.8344134, 18.5170408 ] } },
{ "type": "Feature", "properties": { "ccd_name": "Lifiting of tree cutting", "com_location": "431/432 ghorapaDe peTha jhagaDevADI shanimaMdirA samorIla bAjUsa , Pune, Maharashtra" }, "geometry": { "type": "Point", "coordinates": [ 73.8786239, 18.5246091 ] } },
{ "type": "Feature", "properties": { "ccd_name": "Lifiting of tree cutting", "com_location": "HARMONY BUILDING , PADAM HSG SOC BIBWEWADI ROAD PUNE" }, "geometry": { "type": "Point", "coordinates": [ 73.8602178, 18.4829272 ] } },
{ "type": "Feature", "properties": { "ccd_name": "Branch of tree / complete tree cutting", "com_location": "pATIla plAjhA onarsa asosieshana 'pATIla plAjhA'\r\n493 mitra maMDaLa sarkala javaLa puDhArI pepara chyA samora puNe 411009" }, "geometry": { "type": "Point", "coordinates": [ 73.8501103, 18.4865807 ] } },
{ "type": "Feature", "properties": { "ccd_name": "Others (Garden-Civil)", "com_location": " PMC at Neco Garden, Vimannagar Pune\r\n" }, "geometry": { "type": "Point", "coordinates": [ 73.9166943, 18.562254 ] } },
{ "type": "Feature", "properties": { "ccd_name": "Others (Garden) (HO)", "com_location": "Swami Vivekanand Garden Kondhwa Budruk, Pune," }, "geometry": { "type": "Point", "coordinates": [ 73.8805099, 18.4601557 ] } },
{ "type": "Feature", "properties": { "ccd_name": "Branch of tree / complete tree cutting", "com_location": "Khadki Aundhroad in front of CQA (ME) office premises, Pune, Maharashtra" }, "geometry": { "type": "Point", "coordinates": [ 73.8313115, 18.5615134 ] } },
{ "type": "Feature", "properties": { "ccd_name": "Lifiting of tree cutting", "com_location": "Tree fallen at Ex-Servicemen Society Paud Road, Pune, Maharashtra" }, "geometry": { "type": "Point", "coordinates": [ 73.8075018, 18.5074187 ] } },
{ "type": "Feature", "properties": { "ccd_name": "Branch of tree / complete tree cutting", "com_location": " kAkAsAheba limaye patha, gupte ha spiTala chyA mAgachI gallI, phargyusana rastyAvarIla ha Tela vADeshvara samorIla gallI., Pune, Maharashtra" }, "geometry": { "type": "Point", "coordinates": [ 73.8786239, 18.5246091 ] } },
{ "type": "Feature", "properties": { "ccd_name": "Branch of tree / complete tree cutting", "com_location": "Jehangir Hospital, parking lot,, Pune, Maharashtra" }, "geometry": { "type": "Point", "coordinates": [ 73.8764253, 18.5306422 ] } },
{ "type": "Feature", "properties": { "ccd_name": "Branch of tree / complete tree cutting", "com_location": "SBI bank road, behind Jaihind, near Parihar chowk, Aundh, Pune- 411007" }, "geometry": { "type": "Point", "coordinates": [ 73.8089418, 18.5602214 ] } },
{ "type": "Feature", "properties": { "ccd_name": "Branch of tree / complete tree cutting", "com_location": "Dnyanraj Apt,  S..No48/1, Ganesh Nagar,  Wadgaon Sheri, Near Swami Samartha Temple, Pune-411014 \r\n" }, "geometry": { "type": "Point", "coordinates": [ 73.9260251, 18.5558787 ] } },
{ "type": "Feature", "properties": { "ccd_name": "Others (Garden) (HO)", "com_location": "Thorat Udyan, Kothrud , Near Shivaji Statue, Pune 411038" }, "geometry": { "type": "Point", "coordinates": [ 73.8126822, 18.5038583 ] } },
{ "type": "Feature", "properties": { "ccd_name": "Others (Garden-Civil)", "com_location": "ghorapaDe peTha udyAna, Pune, Maharashtra" }, "geometry": { "type": "Point", "coordinates": [ 73.8662917, 18.5019469 ] } },
{ "type": "Feature", "properties": { "ccd_name": "Maintenance of Garden (Horticulture Related) (HO)", "com_location": "Kunal Paradise\r\nNear Salunke Vihar Telephone exchange building\r\nShinde Path \r\n 2nd left after Lonkar garden\r\nBetween Salunke Vihar Road and Sunshree, Pune, Maharashtra" }, "geometry": { "type": "Point", "coordinates": [ 73.9004934, 18.4674932 ] } },
{ "type": "Feature", "properties": { "ccd_name": "Lifiting of tree cutting", "com_location": "navI peTha lokamAnyanagara yethe shAstrI roDapAsUna pradIpa deshapAMDe pathakaDe , Pune, Maharashtra" }, "geometry": { "type": "Point", "coordinates": [ 73.8403511, 18.5059151 ] } },
{ "type": "Feature", "properties": { "ccd_name": "Lifiting of tree cutting", "com_location": "Lane A26 Dhayari Pune, near Shubhada Apt opposite to Isha Apt, Nachiket Ap.." }, "geometry": { "type": "Point", "coordinates": [ 73.810639, 18.4513128 ] } },
{ "type": "Feature", "properties": { "ccd_name": "Branch of tree / complete tree cutting", "com_location": "Varadendra Prasad Apts, Dhavalgiri Society , Bibwewadi Kondwa Road, Market Yard , Pune, Maharashtra" }, "geometry": { "type": "Point", "coordinates": [ 73.8667977, 18.4809805 ] } },
{ "type": "Feature", "properties": { "ccd_name": "Lifiting of tree cutting", "com_location": "dIpa baMgalA chaukA javaLa, mitra sosAyaTIchyA lena, Pune, Maharashtra" }, "geometry": { "type": "Point", "coordinates": [ 73.9531189, 18.5646495 ] } },
{ "type": "Feature", "properties": { "ccd_name": "Others (Garden) (HO)", "com_location": " on the Baner- Aundh Link Road ( Medipoint- Jupiter road), Pune, Maharashtra" }, "geometry": { "type": "Point", "coordinates": [ 73.7961758, 18.5632754 ] } },
{ "type": "Feature", "properties": { "ccd_name": "Others (Garden) (HO)", "com_location": "Ser 53/18/A/2 Vikas nagar sai shraddha wanwadi , Pune, Maharashtra" }, "geometry": { "type": "Point", "coordinates": [ 73.902550300000016, 18.4926512 ] } },
{ "type": "Feature", "properties": { "ccd_name": "Repairing of playing equipments in garden", "com_location": "mA.udyAna adhikShaka sAheba,\r\nkasabA peTha,kuMbhAra vesa chaukAjavaLa asalelyA ' kai.vijayA kailAsa tikone ' udyAnA madhIla , Pune, Maharashtra" }, "geometry": { "type": "Point", "coordinates": [ 73.8291047, 18.5290383 ] } },
{ "type": "Feature", "properties": { "ccd_name": "Lifiting of tree cutting", "com_location": "at D-16 Kasturba Society, Vishrantwadi Pune." }, "geometry": { "type": "Point", "coordinates": [ 73.8795836, 18.5707221 ] } },
{ "type": "Feature", "properties": { "ccd_name": "Lifiting of tree cutting", "com_location": "Sterling Nisarg phase 2 , Opposite Sundar Samruddhi Society Dhayari-Narhe Road,Dhayari., Pune, Maharashtra" }, "geometry": { "type": "Point", "coordinates": [ 73.8163514, 18.4475863 ] } },
{ "type": "Feature", "properties": { "ccd_name": "Branch of tree / complete tree cutting", "com_location": "Sai Krupa Society\r\nPune 43" }, "geometry": { "type": "Point", "coordinates": [ 73.9211595, 18.556441 ] } },
{ "type": "Feature", "properties": { "ccd_name": "Branch of tree / complete tree cutting", "com_location": "sukhasagar  nagar, katraj pune-46, bankar school " }, "geometry": { "type": "Point", "coordinates": [ 73.86515, 18.459931 ] } },
{ "type": "Feature", "properties": { "ccd_name": "Lifiting of tree cutting", "com_location": "Aroma Banglwo \r\nLane No 13 Hindustan stets kalyani Nagar Pune 411006 \r\nBanglwo back site" }, "geometry": { "type": "Point", "coordinates": [ 73.9020574, 18.5482414 ] } },
{ "type": "Feature", "properties": { "ccd_name": "Branch of tree / complete tree cutting", "com_location": "1066/ba, snehakamala bilDiMga,\r\noma supara mArkeTa chauka, ma Dela ka lanI, shivAjI nagara, puNe 411016" }, "geometry": { "type": "Point", "coordinates": [ 73.8299107, 18.5289843 ] } },
{ "type": "Feature", "properties": { "ccd_name": "Others (Garden) (HO)", "com_location": "ghorapaDe udyAna,ghorapaDe udyAnAtIla mAMDavAta., Pune, Maharashtra" }, "geometry": { "type": "Point", "coordinates": [ 73.8323597, 18.4435746 ] } },
{ "type": "Feature", "properties": { "ccd_name": "Others (Garden) (HO)", "com_location": "puNyAtIla, Pune, Maharashtra" }, "geometry": { "type": "Point", "coordinates": [ 73.8786239, 18.5246091 ] } },
{ "type": "Feature", "properties": { "ccd_name": "Lifiting of tree cutting", "com_location": " 100, Dnyaneshwar HSG society sahakar nagar no. 1 Pune 411009." }, "geometry": { "type": "Point", "coordinates": [ 73.8596409, 18.6202102 ] } },
{ "type": "Feature", "properties": { "ccd_name": "Branch of tree / complete tree cutting", "com_location": "saMjaya pArka , siMboyasesa , earaporTa roDa puNe " }, "geometry": { "type": "Point", "coordinates": [ 73.7851995, 18.5801149 ] } },
{ "type": "Feature", "properties": { "ccd_name": "Lifiting of tree cutting", "com_location": "bus stop near Kailash super market chowk Viman Nagar , landmark bank of Baroda ATM, Pune, Maharashtra" }, "geometry": { "type": "Point", "coordinates": [ 73.9141273, 18.5677702 ] } },
{ "type": "Feature", "properties": { "ccd_name": "Others (Garden-Civil)", "com_location": "Chittaranjan Vatika park- Gym area, Pune, Maharashtra" }, "geometry": { "type": "Point", "coordinates": [ 73.8378708, 18.5322985 ] } },
{ "type": "Feature", "properties": { "ccd_name": "Branch of tree / complete tree cutting", "com_location": "Aristocrat E Bldg, 3rd lane Lulla Nagar Pune" }, "geometry": { "type": "Point", "coordinates": [ 73.8833325, 18.4814544 ] } },
{ "type": "Feature", "properties": { "ccd_name": "Branch of tree / complete tree cutting", "com_location": "Block no. 10 Karuna Housing Society,  near Ambedkar chowk ,Golf club road, yerwada,pune 411006." }, "geometry": { "type": "Point", "coordinates": [ 73.8798347, 18.5537326 ] } },
{ "type": "Feature", "properties": { "ccd_name": "Branch of tree / complete tree cutting", "com_location": "Next to HDFC Bank, Baner Pashan Link Road., Pune, Maharashtra" }, "geometry": { "type": "Point", "coordinates": [ 73.791062, 18.5509949 ] } },
{ "type": "Feature", "properties": { "ccd_name": "Others (Garden) (HO)", "com_location": "Varshanand Society, Anand Nagar, Pune, Maharashtra" }, "geometry": { "type": "Point", "coordinates": [ 73.8249973, 18.4759577 ] } },
{ "type": "Feature", "properties": { "ccd_name": "Branch of tree / complete tree cutting", "com_location": "haDapasara roDa rAMkA jvelarsa chA brija utaralA kI DAvyA bAjUlA amara jyotI sosAyaTIchyA javaLa DTDC , Pune, Maharashtra" }, "geometry": { "type": "Point", "coordinates": [ 73.822121, 18.6325898 ] } },
{ "type": "Feature", "properties": { "ccd_name": "Lifiting of tree cutting", "com_location": " Joshi Sweets on lane 4 off NDA Pashan Road near Maharashtra Bank. Bavdhan. , Pune, Maharashtra" }, "geometry": { "type": "Point", "coordinates": [ 73.7820606, 18.515245 ] } },
{ "type": "Feature", "properties": { "ccd_name": "Lifiting of tree cutting", "com_location": "Varad housing socity vithal vadi sihagad road near sujata mastani pune 51" }, "geometry": { "type": "Point", "coordinates": [ 73.8268583, 18.4819915 ] } },
{ "type": "Feature", "properties": { "ccd_name": "Branch of tree / complete tree cutting", "com_location": "Jagtap k k building no. 11/B/607.lokmanyanagar pune." }, "geometry": { "type": "Point", "coordinates": [ 73.8453944, 18.5058434 ] } },
{ "type": "Feature", "properties": { "ccd_name": "Others (Garden-Civil)", "com_location": "Z Corner Manjari Budruk, Pune, Maharashtra" }, "geometry": { "type": "Point", "coordinates": [ 73.9550069, 18.5258046 ] } },
{ "type": "Feature", "properties": { "ccd_name": "Lifiting of tree cutting", "com_location": "Amar Heights Cooperative Housing Society 8 Aundh road . Ward office is Aundh ward office, Pune, Maharashtra" }, "geometry": { "type": "Point", "coordinates": [ 73.8341412, 18.5626589 ] } },
{ "type": "Feature", "properties": { "ccd_name": "Branch of tree / complete tree cutting", "com_location": "Radiant sunny climes 951 Nanapeth  opp Ambedkar college pune 411002" }, "geometry": { "type": "Point", "coordinates": [ 73.8717343, 18.5143558 ] } },
{ "type": "Feature", "properties": { "ccd_name": "Permission to Trim Branches in private Society / Land", "com_location": "1110 New Shukrawar Peth Tarang Bungalow, Sathe Colony, Pune, Maharashtra" }, "geometry": { "type": "Point", "coordinates": [ 73.855506, 18.5077747 ] } },
{ "type": "Feature", "properties": { "ccd_name": "Permission to Trim Branches in private Society / Land", "com_location": "Surbhi Park Society trees,Gokhale Nagar, Pune, Maharashtra" }, "geometry": { "type": "Point", "coordinates": [ 73.8276624, 18.5284755 ] } },
{ "type": "Feature", "properties": { "ccd_name": "Branch of tree / complete tree cutting", "com_location": "Marvel Vivcity Kalyani Nagar Pune 6" }, "geometry": { "type": "Point", "coordinates": [ 73.9035568, 18.5446347 ] } },
{ "type": "Feature", "properties": { "ccd_name": "Lifiting of tree cutting", "com_location": "opp. Geeta Vihar hotel Near city post office ; 842 Budhwar Peth, Laxmi Road Pune 411002." }, "geometry": { "type": "Point", "coordinates": [ 73.8572788, 18.5157396 ] } },
{ "type": "Feature", "properties": { "ccd_name": "Branch of tree / complete tree cutting", "com_location": "vighnahartA chauka,nyU pa iMTa meDikala samora. susa roDa pAShANa puNe 411021" }, "geometry": { "type": "Point", "coordinates": [ 73.7923957, 18.5414267 ] } },
{ "type": "Feature", "properties": { "ccd_name": "Cleaning of Garden (HO)", "com_location": "BHAIRAVNATH UDYAN in MUNURWAR HOUSING SOCIETY, VADGAON SHERI., Pune, Maharashtra" }, "geometry": { "type": "Point", "coordinates": [ 73.924569, 18.5442197 ] } },
{ "type": "Feature", "properties": { "ccd_name": "Branch of tree / complete tree cutting", "com_location": "Rachana Classic, CS No:131/1+2, 6 Gulmohar Park, Lane 2, ITI Road, Aundh, Pune 4110067" }, "geometry": { "type": "Point", "coordinates": [ 73.809714, 18.5535398 ] } },
{ "type": "Feature", "properties": { "ccd_name": "Others (Garden) (HO)", "com_location": "near Mahadev Mhatraba Vidhate Chowk on Aundh Baner Link Road and from the Chowk towards Baner on the pallod Farms 2 road at Ashok Mahadev Vidhate chowk., Pune, Maharashtra" }, "geometry": { "type": "Point", "coordinates": [ 73.78874, 18.5632267 ] } },
{ "type": "Feature", "properties": { "ccd_name": "Permission to Trim Branches in private Society / Land", "com_location": "svarUpa nagarI, mArutI maMdira samora, karve rastA, kotharuDa, puNe 38" }, "geometry": { "type": "Point", "coordinates": [ 73.841191, 18.513237 ] } },
{ "type": "Feature", "properties": { "ccd_name": "Branch of tree / complete tree cutting", "com_location": "From Milind Vaidya , Rohan Leher , Baner, Baner Sus Road ,  Behind Bitwise Terra Tower\r\nWard Baner Balewadi , under Aundh PMC office, Pune, Maharashtra" }, "geometry": { "type": "Point", "coordinates": [ 73.7678268, 18.5542813 ] } },
{ "type": "Feature", "properties": { "ccd_name": "Branch of tree / complete tree cutting", "com_location": "janatA nagara yeravaDA bhAgAtIla vaMjAre vakhArI mAgila duraghaTanA, Pune, Maharashtra" }, "geometry": { "type": "Point", "coordinates": [ 73.8882149, 18.5505912 ] } },
{ "type": "Feature", "properties": { "ccd_name": "Branch of tree / complete tree cutting", "com_location": "Ashim park bibavevADI Sr no673 phuTapAthavara, Pune, Maharashtra" }, "geometry": { "type": "Point", "coordinates": [ 73.8605827, 18.4708447 ] } },
{ "type": "Feature", "properties": { "ccd_name": "Lifiting of tree cutting", "com_location": "44/27,navasahyAdrI sosAyaTI,karvainagara puNe411052 " }, "geometry": { "type": "Point", "coordinates": [ 73.8282901, 18.4941126 ] } },
{ "type": "Feature", "properties": { "ccd_name": "Permission to Trim Branches in private Society / Land", "com_location": "bibavevADI gAvaThANa khAlachI aLI shaMkara maMdirA javaLa ghara naMtara 25 ba, Pune, Maharashtra" }, "geometry": { "type": "Point", "coordinates": [ 73.8640944, 18.4690213 ] } },
{ "type": "Feature", "properties": { "ccd_name": "Cleaning of Garden (HO)", "com_location": "bibavevADI polisa sTeshanamAgIla , Pune, Maharashtra" }, "geometry": { "type": "Point", "coordinates": [ 73.8642051, 18.4673251 ] } },
{ "type": "Feature", "properties": { "ccd_name": "Branch of tree / complete tree cutting", "com_location": "1, Blue Hill Society, Yerawada, Pune, Maharashtra 411006" }, "geometry": { "type": "Point", "coordinates": [ 73.8900523, 18.5475103 ] } },
{ "type": "Feature", "properties": { "ccd_name": "Branch of tree / complete tree cutting", "com_location": "sarkasa ka lanI vaDagAva sherIsarkasa ka lanI vaDagAva sherI, Pune, Maharashtra" }, "geometry": { "type": "Point", "coordinates": [ 73.9542135, 18.5272166 ] } },
{ "type": "Feature", "properties": { "ccd_name": "Others (Garden) (HO)", "com_location": "Mandake society .lullanagar  pune  411040" }, "geometry": { "type": "Point", "coordinates": [ 73.88362, 18.4852672 ] } },
{ "type": "Feature", "properties": { "ccd_name": "Others (Garden) (HO)", "com_location": "kAtraja sarapodyAna, Pune, Maharashtra" }, "geometry": { "type": "Point", "coordinates": [ 73.865238, 18.4529322 ] } },
{ "type": "Feature", "properties": { "ccd_name": "Permission to Trim Branches in private Society / Land", "com_location": "The lauarels dp road,malewadi,hadpsar,pune 411028." }, "geometry": { "type": "Point", "coordinates": [ 73.9416834, 18.505384 ] } },
{ "type": "Feature", "properties": { "ccd_name": "Lifiting of tree cutting", "com_location": "Jyoti apartment backside,wanawadi goan,mahadevji shinde mahanagarpalika school,pune 411040." }, "geometry": { "type": "Point", "coordinates": [ 73.8990325, 18.4950219 ] } },
{ "type": "Feature", "properties": { "ccd_name": "Branch of tree / complete tree cutting", "com_location": "lunkad Highland 2 Vidya Sagar Colany market yard Near bhimal office, Pune, Maharashtra" }, "geometry": { "type": "Point", "coordinates": [ 73.8763508, 18.485134 ] } },
{ "type": "Feature", "properties": { "ccd_name": "Branch of tree / complete tree cutting", "com_location": " kotharUDa, pinAka so,, Pune, Maharashtra" }, "geometry": { "type": "Point", "coordinates": [ 73.8786239, 18.5246091 ] } },
{ "type": "Feature", "properties": { "ccd_name": "Lifiting of tree cutting", "com_location": " Main baner road Opp to kapil malhar, Pune, Maharashtra" }, "geometry": { "type": "Point", "coordinates": [ 73.7908824, 18.5591859 ] } },
{ "type": "Feature", "properties": { "ccd_name": "Others (Garden) (HO)", "com_location": "TIKONE UDYAN NEAR KUMBHARWADA 411011, Pune, Maharashtra" }, "geometry": { "type": "Point", "coordinates": [ 73.8570677, 18.5229946 ] } },
{ "type": "Feature", "properties": { "ccd_name": "Others (Garden) (HO)", "com_location": "Aundh baner link road opp to spires Near water filteration plant, Pune, Maharashtra" }, "geometry": { "type": "Point", "coordinates": [ 73.7961758, 18.5632754 ] } },
{ "type": "Feature", "properties": { "ccd_name": "Lifiting of tree cutting", "com_location": "Green ekar sahakari gruhrachana maryadit chintamani nagar opposite suvarna yug path Bibvewadi, Pune, Maharashtra" }, "geometry": { "type": "Point", "coordinates": [ 73.8661633, 18.4663131 ] } },
{ "type": "Feature", "properties": { "ccd_name": "Lifiting of tree cutting", "com_location": "Gujar,  Chavan Nagar, Chandan Nagar, Pune-14." }, "geometry": { "type": "Point", "coordinates": [ 73.9119182, 18.5595501 ] } },
{ "type": "Feature", "properties": { "ccd_name": "Branch of tree / complete tree cutting", "com_location": "oma gaNesha sahakArI gRRihanirmANa saMsthA 713 budhavAra peTha sakALa kAryAlayAjavaLa 411002 ThevA, Pune, Maharashtra" }, "geometry": { "type": "Point", "coordinates": [ 73.8574395, 18.5134366 ] } },
{ "type": "Feature", "properties": { "ccd_name": "Others (Garden) (HO)", "com_location": "Location : Opp to Eden Park CHS , Viman nagar. Road towards Maruti showroom from Ganpati Chowk - 411014., Pune, Maharashtra" }, "geometry": { "type": "Point", "coordinates": [ 73.9185915, 18.5675531 ] } },
{ "type": "Feature", "properties": { "ccd_name": "Others (Garden) (HO)", "com_location": "On the Westin side of Aga Khan bridge, Pune, Maharashtra" }, "geometry": { "type": "Point", "coordinates": [ 73.906129, 18.5394567 ] } },
{ "type": "Feature", "properties": { "ccd_name": "Cleaning of Garden (HO)", "com_location": "\"Raj Villa\", S.No 50/8,\r\nNear Ayee Appa Temple,\r\nSree Housing Society,\r\nWadgoan Sheri, Pune -411014" }, "geometry": { "type": "Point", "coordinates": [ 73.918503, 18.5491477 ] } },
{ "type": "Feature", "properties": { "ccd_name": "Branch of tree / complete tree cutting", "com_location": "near ars angan apartment , anand park, dhanori, pune" }, "geometry": { "type": "Point", "coordinates": [ 73.8873444, 18.58021 ] } },
{ "type": "Feature", "properties": { "ccd_name": "Maintenance of Garden (Horticulture Related) (HO)", "com_location": "Jeet Ground, Vanaz Company, Paud Road, Kothrud, Pune., Pune, Maharashtra," }, "geometry": { "type": "Point", "coordinates": [ 73.8051027, 18.5068258 ] } },
{ "type": "Feature", "properties": { "ccd_name": "Lifiting of tree cutting", "com_location": "Gurunanak nagar Bhawani Peth \r\nLane 1, Pune, Maharashtra" }, "geometry": { "type": "Point", "coordinates": [ 73.8646841, 18.5122283 ] } },
{ "type": "Feature", "properties": { "ccd_name": "Branch of tree / complete tree cutting", "com_location": "sarve na. 104 mArIyA udyAna,saMtanagara,sarakAra nivAsa lohagAva puNe" }, "geometry": { "type": "Point", "coordinates": [ 73.9344617, 18.5985635 ] } },
{ "type": "Feature", "properties": { "ccd_name": "Permission to Trim Branches in private Society / Land", "com_location": "shivbhgawati row house backside pashan sutarwadi road , Pune, Maharashtra" }, "geometry": { "type": "Point", "coordinates": [ 73.7889811, 18.5371719 ] } },
{ "type": "Feature", "properties": { "ccd_name": "Branch of tree / complete tree cutting", "com_location": "347  ulhasnagar, 13 Tadiwala Road,pune411001" }, "geometry": { "type": "Point", "coordinates": [ 73.873548, 18.5368902 ] } },
{ "type": "Feature", "properties": { "ccd_name": "Others (Garden) (HO)", "com_location": "Regency classic, mohannager , baner , Pune, Maharashtra" }, "geometry": { "type": "Point", "coordinates": [ 73.7692786, 18.5548126 ] } },
{ "type": "Feature", "properties": { "ccd_name": "Lifiting of tree cutting", "com_location": "House 30, Lane A22, Ganesh Nagar, Pokale Empire Lane, Pune, Maharashtra" }, "geometry": { "type": "Point", "coordinates": [ 73.8091898, 18.452625 ] } },
{ "type": "Feature", "properties": { "ccd_name": "Lifiting of tree cutting", "com_location": "5 silvara nesTa anaMta kRRipA sosAyaTI pauDa roDa kotharUDa janatA ba.Nka pauDa roDa gallI ,puNe 38" }, "geometry": { "type": "Point", "coordinates": [ 73.8786239, 18.5246091 ] } },
{ "type": "Feature", "properties": { "ccd_name": "Maintenance of Garden (Horticulture Related) (HO)", "com_location": "shahIda abdula hamIda udyAna meM , Pune, Maharashtra" }, "geometry": { "type": "Point", "coordinates": [ 73.8291047, 18.5290383 ] } },
{ "type": "Feature", "properties": { "ccd_name": "Branch of tree / complete tree cutting", "com_location": "Lake view park Society, Sutarwadi , Pashan, Pune -411021.\r\n Near Pashan Lake." }, "geometry": { "type": "Point", "coordinates": [ 73.7820627, 18.5380236 ] } },
{ "type": "Feature", "properties": { "ccd_name": "Branch of tree / complete tree cutting", "com_location": "giriraj  shankar apt, nr congress bhavan ,  562/4, shivaji nagar , Pune, Maharashtra" }, "geometry": { "type": "Point", "coordinates": [ 73.8513628, 18.5226846 ] } },
{ "type": "Feature", "properties": { "ccd_name": "Branch of tree / complete tree cutting", "com_location": "B-16, vanshaz garden, sus road, sai chowk, pashan , Pune, Maharashtra" }, "geometry": { "type": "Point", "coordinates": [ 73.785779, 18.543369 ] } },
{ "type": "Feature", "properties": { "ccd_name": "Branch of tree / complete tree cutting", "com_location": "Pawar Enclave,Opp.MegaCenter,SurveyNo86/3B/1B,NearCorporator Anandbhau Alkunte's home,Hadapsar411013, Pune, Maharashtra" }, "geometry": { "type": "Point", "coordinates": [ 73.9243902, 18.5014089 ] } },
{ "type": "Feature", "properties": { "ccd_name": "Branch of tree / complete tree cutting", "com_location": "1098/19 Laxmi Narayan Apartment, Model Colony, Near to model colony post office, Pune 411016" }, "geometry": { "type": "Point", "coordinates": [ 73.8381464, 18.5288707 ] } },
{ "type": "Feature", "properties": { "ccd_name": "Branch of tree / complete tree cutting", "com_location": "manapA shALA kra 15 mulIMchI kai bAburAva saNasa kanyAshALA maMgaLavAra peTha puNe 411011" }, "geometry": { "type": "Point", "coordinates": [ 73.932337, 18.512446 ] } },
{ "type": "Feature", "properties": { "ccd_name": "Branch of tree / complete tree cutting", "com_location": "Alandi road, near pathan saha dargah, defense co Opretive society, , Pune, Maharashtra" }, "geometry": { "type": "Point", "coordinates": [ 73.8766018, 18.5756167 ] } },
{ "type": "Feature", "properties": { "ccd_name": "Cleaning of Garden (HO)", "com_location": " Right bhusari colony pratiksha apartment lane no 5 a , Pune, Maharashtra" }, "geometry": { "type": "Point", "coordinates": [ 73.7909659, 18.5120921 ] } },
{ "type": "Feature", "properties": { "ccd_name": "Branch of tree / complete tree cutting", "com_location": "pla Ta naMbara 8 girijAshaMkara sosAyaTI shanI maMdira javaLa chavhANa nagara dhanakavaDI puNe 43" }, "geometry": { "type": "Point", "coordinates": [ 73.8546821, 18.4654546 ] } },
{ "type": "Feature", "properties": { "ccd_name": "Lifiting of tree cutting", "com_location": "siMhagaDa roDa, rohana kRRitikA te rAjArAma brija ...dubhAjakamadhIla, Pune, Maharashtra" }, "geometry": { "type": "Point", "coordinates": [ 73.8125444, 18.5086606 ] } },
{ "type": "Feature", "properties": { "ccd_name": "Lifiting of tree cutting", "com_location": "s no 15/l no 4 Jai Malhar Nagar Ambegaon Budruk Pune 411046" }, "geometry": { "type": "Point", "coordinates": [ 73.802189, 18.4566381 ] } },
{ "type": "Feature", "properties": { "ccd_name": "Cleaning of Garden (HO)", "com_location": "Comfort Zone ANi Willows Society, Balewadi , Pune, Maharashtra" }, "geometry": { "type": "Point", "coordinates": [ 73.7706807, 18.5788913 ] } },
{ "type": "Feature", "properties": { "ccd_name": "Branch of tree / complete tree cutting", "com_location": "asmitA apArTameMTa, jijAU mA.NsAheba mArga, ujavI bhusArI, borase ha spiTala mAge, pauDa roDa, kotharUDa, puNe 411038" }, "geometry": { "type": "Point", "coordinates": [ 73.7897557, 18.509391 ] } },
{ "type": "Feature", "properties": { "ccd_name": "Branch of tree / complete tree cutting", "com_location": "sarve naMbara 49 gaNaMjaya sosAyaTI kotharUDa, Pune, Maharashtra" }, "geometry": { "type": "Point", "coordinates": [ 73.9531189, 18.5646495 ] } },
{ "type": "Feature", "properties": { "ccd_name": "Lifiting of tree cutting", "com_location": "vaDagAvasherI shevaTachA basa sTa pa, Pune, Maharashtra" }, "geometry": { "type": "Point", "coordinates": [ 73.904347, 18.481276 ] } },
{ "type": "Feature", "properties": { "ccd_name": "Branch of tree / complete tree cutting", "com_location": "plot 59,gulmohar recidancy ,devarli tower behind,block A,Lulla nagar,pune 411040" }, "geometry": { "type": "Point", "coordinates": [ 73.8830982, 18.4849423 ] } },
{ "type": "Feature", "properties": { "ccd_name": "Lifiting of tree cutting", "com_location": "Lullanagar footpath, near Midas Touch, Plot no.94, Pune" }, "geometry": { "type": "Point", "coordinates": [ 73.88362, 18.4852672 ] } },
{ "type": "Feature", "properties": { "ccd_name": "Permission to Trim Branches in private Society / Land", "com_location": "B11\r\nSamrat Ashok Cooperative Housing Society\r\nLane Number 01\r\nVeerbhadra Nagar\r\nBaner Road, Pune, Maharashtra" }, "geometry": { "type": "Point", "coordinates": [ 73.7735018, 18.5620575 ] } },
{ "type": "Feature", "properties": { "ccd_name": "Branch of tree / complete tree cutting", "com_location": "Plot No.19, Gaurishanakar Society, Pune- Satara Road, Chavan Nagar, Pune- 411043" }, "geometry": { "type": "Point", "coordinates": [ 73.8579609, 18.465628 ] } },
{ "type": "Feature", "properties": { "ccd_name": "Cleaning of Garden (HO)", "com_location": "Mont  word grant co housing soc pashan near dolphin chowk pune 411021\r\n" }, "geometry": { "type": "Point", "coordinates": [ 73.7923957, 18.5414267 ] } },
{ "type": "Feature", "properties": { "ccd_name": "Branch of tree / complete tree cutting", "com_location": "-Building no:11\r\n-Veer Bharat society\r\n-Near Arun Vaidya stadium\r\n-Opp Tushar Patil's residence\r\n-266 Bhavani peth\r\nPune 411002" }, "geometry": { "type": "Point", "coordinates": [ 73.869518200000016, 18.5076001 ] } },
{ "type": "Feature", "properties": { "ccd_name": "Branch of tree / complete tree cutting", "com_location": "girIdhara nagara  & pa pyulara  nagara , puNe  58\r\nbI 19 bilDiMga madhIla eka jhADa.\r\npuNe 58" }, "geometry": { "type": "Point", "coordinates": [ 73.9301195, 18.5616602 ] } },
{ "type": "Feature", "properties": { "ccd_name": "Branch of tree / complete tree cutting", "com_location": "shinde Nagar, Line no.3, opposite to, Vaman Ganesh Mandir,     Near Marata Mandir, NDA-Pashan Road, Bavdhan, Pune -411021." }, "geometry": { "type": "Point", "coordinates": [ 73.781476, 18.5122773 ] } },
{ "type": "Feature", "properties": { "ccd_name": "Lifiting of tree cutting", "com_location": "Aashiyana complexes Samarth Nagar near navle bridge SBI bank near aashirwad hotel\r\n, Pune, Maharashtra" }, "geometry": { "type": "Point", "coordinates": [ 73.8210226, 18.4601121 ] } },
{ "type": "Feature", "properties": { "ccd_name": "Branch of tree / complete tree cutting", "com_location": "Apale puNe mahAnagarapAlikeche sahakAra nagara dhanakavaDI kShetrIya kAryAlaya yethe " }, "geometry": { "type": "Point", "coordinates": [ 73.8546821, 18.4654546 ] } },
{ "type": "Feature", "properties": { "ccd_name": "Repairing of Jogging Track in garden", "com_location": "Pashan lake and jogging track., Pune, Maharashtra" }, "geometry": { "type": "Point", "coordinates": [ 73.8276428, 18.4935607 ] } },
{ "type": "Feature", "properties": { "ccd_name": "Others (Garden) (HO)", "com_location": "Anusaya sadaba  Lonkar garden at salunkevihar road , kondhwa,  pune 48." }, "geometry": { "type": "Point", "coordinates": [ 73.8938425, 18.4822273 ] } },
{ "type": "Feature", "properties": { "ccd_name": "Branch of tree / complete tree cutting", "com_location": "in kanchan galli infront of Pushpanjali apt kanchan lane ,law college road ,erandwane pune 411004." }, "geometry": { "type": "Point", "coordinates": [ 73.8274337, 18.5151067 ] } },
{ "type": "Feature", "properties": { "ccd_name": "Others (Garden-Civil)", "com_location": "kothrud joshi garden, Pune, Maharashtra" }, "geometry": { "type": "Point", "coordinates": [ 73.8399913, 18.5101076 ] } },
{ "type": "Feature", "properties": { "ccd_name": "Lifiting of tree cutting", "com_location": "vAraje basa sTa pa rAmachaMdra maMgala kAryAlaya shejArI, Pune, Maharashtra" }, "geometry": { "type": "Point", "coordinates": [ 73.796834, 18.4864727 ] } },
{ "type": "Feature", "properties": { "ccd_name": "Lifiting of tree cutting", "com_location": "Balewadi phata road going towards Jupiter hospital, Pune, Maharashtra" }, "geometry": { "type": "Point", "coordinates": [ 73.7838215, 18.5645048 ] } },
{ "type": "Feature", "properties": { "ccd_name": "Planting of trees besides divider/foothpath (HO)", "com_location": "Jayakar Path, Opposite Ganpati Mandir, In front of fish market and mm restaurant, Pune, Maharashtra" }, "geometry": { "type": "Point", "coordinates": [ 73.8366289, 18.5618048 ] } },
{ "type": "Feature", "properties": { "ccd_name": "Branch of tree / complete tree cutting", "com_location": "loka jananI arbana ba.Nka eriyA, rajanI ka rnara phesa 2 bilDiMga mAge, mAmA gote nivAsa shejArI, bAlAjInagara, dhanakavaDI puNe 43" }, "geometry": { "type": "Point", "coordinates": [ 73.8583723, 18.4658878 ] } },
{ "type": "Feature", "properties": { "ccd_name": "Branch of tree / complete tree cutting", "com_location": "37 Shivaji housing society SB road. Behind JW Marriott opposite post office, Pune, Maharashtra" }, "geometry": { "type": "Point", "coordinates": [ 73.8299795, 18.530144 ] } },
{ "type": "Feature", "properties": { "ccd_name": "Others (Garden) (HO)", "com_location": "bhrhman chowk to parihar chowk aundh, Pune, Maharashtra" }, "geometry": { "type": "Point", "coordinates": [ 73.8106464, 18.5665512 ] } },
{ "type": "Feature", "properties": { "ccd_name": "Others (Garden) (HO)", "com_location": "from Nisarg Heights to Raviraj CRU at New Era SoC, near Gangadham - Lullanagar road, Pune 411037" }, "geometry": { "type": "Point", "coordinates": [ 73.8755778, 18.482242 ] } },
{ "type": "Feature", "properties": { "ccd_name": "Branch of tree / complete tree cutting", "com_location": "Dangat Rd,Sadashiv Dangat Nagar,Vishnupuram Colony,Vadgaon Budruk,Pune,Maharashtra 411041,India" }, "geometry": { "type": "Point", "coordinates": [ 73.8269472, 18.4601565 ] } },
{ "type": "Feature", "properties": { "ccd_name": "Branch of tree / complete tree cutting", "com_location": "Shankar Nagar, Parvati Paytha, Pune, Maharashtra 411009" }, "geometry": { "type": "Point", "coordinates": [ 73.8510954, 18.481471 ] } },
{ "type": "Feature", "properties": { "ccd_name": "Maintenance of Garden (Horticulture Related) (HO)", "com_location": "svAmI vivekAnaMda roDa bibavevADI, Pune, Maharashtra" }, "geometry": { "type": "Point", "coordinates": [ 73.863654, 18.471214 ] } },
{ "type": "Feature", "properties": { "ccd_name": "Lifiting of tree cutting", "com_location": "Plot no 39 A Anurekha soc ,Karve nagar , Pune, Maharashtra" }, "geometry": { "type": "Point", "coordinates": [ 73.827149, 18.4940439 ] } },
{ "type": "Feature", "properties": { "ccd_name": "Branch of tree / complete tree cutting", "com_location": "prabhAga kramAMka 24 rAmaTekaDI sayyadanagara yAmadhye sayyadanagara gallI naMbara 1A gAyakavADa sosAyaTI javaLa , Pune, Maharashtra" }, "geometry": { "type": "Point", "coordinates": [ 73.9531189, 18.5646495 ] } },
{ "type": "Feature", "properties": { "ccd_name": "Branch of tree / complete tree cutting", "com_location": "pAShANa susa roDa  datta maMdira anuhAra sarve naMbara 116/8/16  puNe 21" }, "geometry": { "type": "Point", "coordinates": [ 73.8786239, 18.5246091 ] } },
{ "type": "Feature", "properties": { "ccd_name": "Others (Garden) (HO)", "com_location": "kamla nehru park madhe 411004 , Pune, Maharashtra" }, "geometry": { "type": "Point", "coordinates": [ 73.8344134, 18.5170408 ] } },
{ "type": "Feature", "properties": { "ccd_name": "Lifiting of tree cutting", "com_location": " outside kapal  Malhar Baner  since last two weeks, Pune, Maharashtra" }, "geometry": { "type": "Point", "coordinates": [ 73.9411815, 18.4780322 ] } },
{ "type": "Feature", "properties": { "ccd_name": "Branch of tree / complete tree cutting", "com_location": "Sr 48/4, lane no2, ganeshnagar,wadgaonsheri., Pune, Maharashtra" }, "geometry": { "type": "Point", "coordinates": [ 73.9269376, 18.5571901 ] } },
{ "type": "Feature", "properties": { "ccd_name": "Lifiting of tree cutting", "com_location": "prabhAga kramAMka 29 dattavADI polisa chokI  shejArI, dattavADI mhAtre brIja javaLa, prashAMta nagara Dilaksa loDrI lena  navI  peTha, rAmabAga ka lanI madhye, Pune, Maharashtra" }, "geometry": { "type": "Point", "coordinates": [ 73.8384476, 18.4961383 ] } },
{ "type": "Feature", "properties": { "ccd_name": "Lifiting of tree cutting", "com_location": " vi.ma.shiMde, 624/1bI/1, manAlI baMgalA, bakuLa nagara, bibavevADI, puNe" }, "geometry": { "type": "Point", "coordinates": [ 73.8640944, 18.4690213 ] } },
{ "type": "Feature", "properties": { "ccd_name": "Others (Garden) (HO)", "com_location": "S. V. Road near Shahu Bank., Pune, Maharashtra" }, "geometry": { "type": "Point", "coordinates": [ 73.9467412, 18.4948971 ] } },
{ "type": "Feature", "properties": { "ccd_name": "Others (Garden) (HO)", "com_location": "shivarakara gArDana, shivarakara roDa, vAnavaDI, Pune, Maharashtra" }, "geometry": { "type": "Point", "coordinates": [ 73.8999862, 18.492827 ] } },
{ "type": "Feature", "properties": { "ccd_name": "Branch of tree / complete tree cutting", "com_location": " between Durvankur and Panchang building, plot 15, Ashoknagar, , Pune, Maharashtra" }, "geometry": { "type": "Point", "coordinates": [ 73.8375189, 18.5428709 ] } },
{ "type": "Feature", "properties": { "ccd_name": "Branch of tree / complete tree cutting", "com_location": "vaDagAvasherI shevaTachA basa sTa pa javaLIla, Pune, Maharashtra" }, "geometry": { "type": "Point", "coordinates": [ 73.904347, 18.481276 ] } },
{ "type": "Feature", "properties": { "ccd_name": "Others (Garden) (HO)", "com_location": "Shivalaya Society\r\nSus road, Pune, Maharashtra" }, "geometry": { "type": "Point", "coordinates": [ 73.7842351, 18.5440679 ] } },
{ "type": "Feature", "properties": { "ccd_name": "Planting of trees besides divider/foothpath (HO)", "com_location": "Kumbhar wada, Pune" }, "geometry": { "type": "Point", "coordinates": [ 73.8587673, 18.5243716 ] } },
{ "type": "Feature", "properties": { "ccd_name": "Permission to Trim Branches in private Society / Land", "com_location": " 6 phATaka bAga sosAyaTI, navI peTha, puNe 30" }, "geometry": { "type": "Point", "coordinates": [ 73.8378329, 18.5053869 ] } },
{ "type": "Feature", "properties": { "ccd_name": "Branch of tree / complete tree cutting", "com_location": "My Sainik Nagar, Prateek Nagar's Shri Ram Mandir Road, Yerawada Pune 6" }, "geometry": { "type": "Point", "coordinates": [ 73.8837354, 18.5703123 ] } },
{ "type": "Feature", "properties": { "ccd_name": "Branch of tree / complete tree cutting", "com_location": "Sainath housing society, Pune Mumbai road, Opposite Pdcc Bank, bopodi." }, "geometry": { "type": "Point", "coordinates": [ 73.8387544, 18.5691328 ] } },
{ "type": "Feature", "properties": { "ccd_name": "Permission to Trim Branches in private Society / Land", "com_location": "Atharva Garden, Behind Rakshak Nagar Phase 2, Down Town Road, Kharadi, Pune, Maharashtra" }, "geometry": { "type": "Point", "coordinates": [ 73.9404657, 18.5586177 ] } },
{ "type": "Feature", "properties": { "ccd_name": "Branch of tree / complete tree cutting", "com_location": "603/A, Sadashiv Peth,  Kanchan building, Kunte Chowk,\r\nLaxmi Road,\r\nPune 411030\r\nLandmark: Next to Commonwealth building." }, "geometry": { "type": "Point", "coordinates": [ 73.8523497, 18.5144852 ] } },
{ "type": "Feature", "properties": { "ccd_name": "Branch of tree / complete tree cutting", "com_location": "S. No. 60/62/6, Zehfko Royal Condominium, Near Ashoka Summit Society, Sainagar, Kondhwa, Pune - 411048" }, "geometry": { "type": "Point", "coordinates": [ 73.884396100000018, 18.4693895 ] } },
{ "type": "Feature", "properties": { "ccd_name": "Lifiting of tree cutting", "com_location": "sAI IshAnya sosAyaTI javaLIla mahAvitaraNachA lAla ba ksa , kuNAla  spariyA sosAyaTI roDa bAlevADI puNe 411045" }, "geometry": { "type": "Point", "coordinates": [ 73.7823188, 18.5841908 ] } },
{ "type": "Feature", "properties": { "ccd_name": "Branch of tree / complete tree cutting", "com_location": "sarve naMbara 38 /1A, pla Ta naMbara 4, samatA hausiMga sosAyaTI ,bhUmakara bilDiMga javaLa, chaMdana nagara kharADI roDa ,puNe 14," }, "geometry": { "type": "Point", "coordinates": [ 73.9313153, 18.5613456 ] } },
{ "type": "Feature", "properties": { "ccd_name": "Branch of tree / complete tree cutting", "com_location": "Lane no. 8, GulamAli nagar, Mohammed wadi road, Hadapsar, Pune, Maharashtra" }, "geometry": { "type": "Point", "coordinates": [ 73.9301858, 18.4818016 ] } },
{ "type": "Feature", "properties": { "ccd_name": "Permission to Trim Branches in private Society / Land", "com_location": "Prateek Society / Suyog Society in Sneh Paradise area.... Plus near Shreeram Mandir... totally bad, Pune, Maharashtra" }, "geometry": { "type": "Point", "coordinates": [ 73.8162656, 18.5148375 ] } },
{ "type": "Feature", "properties": { "ccd_name": "Branch of tree / complete tree cutting", "com_location": "Sb road, DAyamaMDa pha.cbrikeTara samorIla Pantalun samora, Pune, Maharashtra" }, "geometry": { "type": "Point", "coordinates": [ 73.8299152, 18.5304378 ] } },
{ "type": "Feature", "properties": { "ccd_name": "Lifiting of tree cutting", "com_location": "Saket society siddharth towers lane kothrud , Pune, Maharashtra" }, "geometry": { "type": "Point", "coordinates": [ 73.822077, 18.500737 ] } },
{ "type": "Feature", "properties": { "ccd_name": "Others (Garden) (HO)", "com_location": "phurasuMgI talAThI kAryAlaya samora , Pune, Maharashtra" }, "geometry": { "type": "Point", "coordinates": [ 73.7819051, 18.5156035 ] } },
{ "type": "Feature", "properties": { "ccd_name": "Branch of tree / complete tree cutting", "com_location": "Plot No. J-1, Trupti Bunglow, Hanuman Nagar. S B Road Pune. Pune 411016" }, "geometry": { "type": "Point", "coordinates": [ 73.8297396, 18.5252494 ] } },
{ "type": "Feature", "properties": { "ccd_name": "Branch of tree / complete tree cutting", "com_location": "44/100 navasahayAdarI sosAyaTI, kAMchana patha puNe 411052" }, "geometry": { "type": "Point", "coordinates": [ 73.8149657, 18.4469279 ] } },
{ "type": "Feature", "properties": { "ccd_name": "Others (Garden) (HO)", "com_location": "koregAva pArka madhIla lena na. 6 varIla vAgaskara udyAnAchyA praveshadvAra , Pune, Maharashtra" }, "geometry": { "type": "Point", "coordinates": [ 73.8786239, 18.5246091 ] } },
{ "type": "Feature", "properties": { "ccd_name": "Branch of tree / complete tree cutting", "com_location": "indira nagar lower bibwewadi bank of maharashtra , Pune, Maharashtra" }, "geometry": { "type": "Point", "coordinates": [ 73.8631965, 18.4685783 ] } },
{ "type": "Feature", "properties": { "ccd_name": "Branch of tree / complete tree cutting", "com_location": "sarva no 20/3/1 kharADI vruMdAvana sosAyaTI, Pune, Maharashtra" }, "geometry": { "type": "Point", "coordinates": [ 73.939723, 18.567513 ] } },
{ "type": "Feature", "properties": { "ccd_name": "Others (Garden) (HO)", "com_location": "81/5 dattanagara , shivAMjalI mitra maMDaLa, borATe chALa  kacharA Depo samora, Pune, Maharashtra" }, "geometry": { "type": "Point", "coordinates": [ 73.9335173, 18.554257 ] } },
{ "type": "Feature", "properties": { "ccd_name": "Cleaning of Garden (HO)", "com_location": "haDapasara puNe 28 yethIla lohiyA gArDana  madhye" }, "geometry": { "type": "Point", "coordinates": [ 73.9398818, 18.5009288 ] } },
{ "type": "Feature", "properties": { "ccd_name": "Lifiting of tree cutting", "com_location": "va rDa kramAMka 35 shiMde hAyaskUla te araNyeshvara rastA yethe vALIMbe DoLyAchA davAkhAnyAchyA bAhera , Pune, Maharashtra" }, "geometry": { "type": "Point", "coordinates": [ 73.8209192, 18.4720837 ] } },
{ "type": "Feature", "properties": { "ccd_name": "Others (Garden) (HO)", "com_location": "puNe-sAtArA roDa kAtraja pAsUna te paMchamI ha Tela paryaMta " }, "geometry": { "type": "Point", "coordinates": [ 73.8592715, 18.4451659 ] } },
{ "type": "Feature", "properties": { "ccd_name": "Lifiting of tree cutting", "com_location": " 470 shaniwar peth dakshinmukhi  maruti \r\n, Pune, Maharashtra" }, "geometry": { "type": "Point", "coordinates": [ 73.8519337, 18.5195427 ] } },
{ "type": "Feature", "properties": { "ccd_name": "Branch of tree / complete tree cutting", "com_location": "bhArata kuMja vasAhata naM 1, gallI naM 1  ,  gaNeshanagara eraMDavaNe ,       RP vaidya javaLa puNe 38" }, "geometry": { "type": "Point", "coordinates": [ 73.8265371, 18.50043 ] } },
{ "type": "Feature", "properties": { "ccd_name": "Branch of tree / complete tree cutting", "com_location": "Ramesh Shankar  salunkhe  aadesh heights Digvijay colony lane no 1 flat no 301 Santosh Nagar near Nagraj mandir Katraj Pune 46" }, "geometry": { "type": "Point", "coordinates": [ 73.856767, 18.4443574 ] } },
{ "type": "Feature", "properties": { "ccd_name": "Branch of tree / complete tree cutting", "com_location": "Mayur apartment sadashiv peth 1862 gopal high school lane telecom society office, Pune, Maharashtra" }, "geometry": { "type": "Point", "coordinates": [ 73.8403945, 18.5053438 ] } },
{ "type": "Feature", "properties": { "ccd_name": "Lifiting of tree cutting", "com_location": "Opposite Media Corner Apt., Near Shiv Parvati Mangal Karayalaya, Nr. Dhayari Phata, off Nahre Road, Pune, Maharashtra" }, "geometry": { "type": "Point", "coordinates": [ 73.8153333, 18.458721 ] } },
{ "type": "Feature", "properties": { "ccd_name": "Branch of tree / complete tree cutting", "com_location": "audyogika prashikShaNa saMsthA shivAjI roDavara shAhU yethIla shALechyA AvArAmadhye, Pune, Maharashtra" }, "geometry": { "type": "Point", "coordinates": [ 73.8584464, 18.4698714 ] } },
{ "type": "Feature", "properties": { "ccd_name": "Others (Garden) (HO)", "com_location": "shivarakara gArDana, shivarakara roDa, vAnavaDI, Pune, Maharashtra" }, "geometry": { "type": "Point", "coordinates": [ 73.8999862, 18.492827 ] } },
{ "type": "Feature", "properties": { "ccd_name": "Others (Garden) (HO)", "com_location": "j~nAnajyotI sAvitrImAI phule udyAna., Pune, Maharashtra" }, "geometry": { "type": "Point", "coordinates": [ 73.8786239, 18.5246091 ] } },
{ "type": "Feature", "properties": { "ccd_name": "Branch of tree / complete tree cutting", "com_location": " ravI darshana ka mplesa haDapasara , Pune, Maharashtra" }, "geometry": { "type": "Point", "coordinates": [ 73.9447075, 18.5004907 ] } },
{ "type": "Feature", "properties": { "ccd_name": "Branch of tree / complete tree cutting", "com_location": " Atura pArka kA- pareTivha hAusiMga sosAyaTI\r\nSangamvadi\r\nPune, Maharashtra 411001 " }, "geometry": { "type": "Point", "coordinates": [ 73.9531189, 18.5646495 ] } },
{ "type": "Feature", "properties": { "ccd_name": "Lifiting of tree cutting", "com_location": "opp swanand Hospital near deep Bunglow chowk. , Pune, Maharashtra" }, "geometry": { "type": "Point", "coordinates": [ 73.8340255, 18.5297208 ] } },
{ "type": "Feature", "properties": { "ccd_name": "Lifiting of tree cutting", "com_location": "opposite to Talera,\"Varadhan\" Kalyaninagar, Pune, Maharashtra" }, "geometry": { "type": "Point", "coordinates": [ 73.903951, 18.5462313 ] } },
{ "type": "Feature", "properties": { "ccd_name": "Others (Garden) (HO)", "com_location": "ghorapaDe udyAna,prabhAga 18,, Pune, Maharashtra" }, "geometry": { "type": "Point", "coordinates": [ 73.9338651, 18.5595997 ] } },
{ "type": "Feature", "properties": { "ccd_name": "Branch of tree / complete tree cutting", "com_location": "Sinhagad road santosh bekri lane in front of shahsitra vihar pune mahangarp.\r\n" }, "geometry": { "type": "Point", "coordinates": [ 73.8188201, 18.4678997 ] } },
{ "type": "Feature", "properties": { "ccd_name": "Branch of tree / complete tree cutting", "com_location": "Shri Ganesh Vihar Soci. Samor kalepadal Road Sasanenagar Hadapsar Pune 28." }, "geometry": { "type": "Point", "coordinates": [ 73.9327425, 18.4910596 ] } },
{ "type": "Feature", "properties": { "ccd_name": "Branch of tree / complete tree cutting", "com_location": "Vithal rao Shivarkar marg. Abutting SRPF ground. Wanworie, Pune, Maharashtra" }, "geometry": { "type": "Point", "coordinates": [ 73.9000155, 18.4888797 ] } },
{ "type": "Feature", "properties": { "ccd_name": "Others (Garden) (HO)", "com_location": "Bund Garden Pune." }, "geometry": { "type": "Point", "coordinates": [ 73.8816001, 18.5420928 ] } },
{ "type": "Feature", "properties": { "ccd_name": "Others (Garden) (HO)", "com_location": " chittaraMjana vATikA, Pune, Maharashtra" }, "geometry": { "type": "Point", "coordinates": [ 73.8378708, 18.5322985 ] } },
{ "type": "Feature", "properties": { "ccd_name": "Others (Garden) (HO)", "com_location": "next to Dominoes pizza on main Baner, Pune, Maharashtra" }, "geometry": { "type": "Point", "coordinates": [ 73.794698, 18.5565426 ] } },
{ "type": "Feature", "properties": { "ccd_name": "Others (Garden) (HO)", "com_location": "Parihar chowk, to Bremen chowk,\r\nParihar chowk to DAV school, Pune, Maharashtra" }, "geometry": { "type": "Point", "coordinates": [ 73.8095575, 18.5458817 ] } },
{ "type": "Feature", "properties": { "ccd_name": "Others (Garden) (HO)", "com_location": "mahesh society bibwewadi pune" }, "geometry": { "type": "Point", "coordinates": [ 73.8650686, 18.4690357 ] } },
{ "type": "Feature", "properties": { "ccd_name": "Lifiting of tree cutting", "com_location": "pauDa rAstA,shikShaka nagara, gallI naM 7, sohama baMgalyAchyA samora puNe 411038 " }, "geometry": { "type": "Point", "coordinates": [ 73.8076796, 18.5037651 ] } },
{ "type": "Feature", "properties": { "ccd_name": "Permission to Trim Branches in private Society / Land", "com_location": "pattA - pI ema sI ka lanI naM . 10 bhavAnI peTha ghara naM . 2-ba  puNe 42." }, "geometry": { "type": "Point", "coordinates": [ 73.8644422, 18.5114756 ] } },
{ "type": "Feature", "properties": { "ccd_name": "Lifiting of tree cutting", "com_location": "haDapasara gAva.., Pune, Maharashtra" }, "geometry": { "type": "Point", "coordinates": [ 73.9323249, 18.4996851 ] } },
{ "type": "Feature", "properties": { "ccd_name": "Lifiting of tree cutting", "com_location": "Kalyani nagar,Opp kalyani veg, kalyani Bahar in front of Fortleza  Society., Pune, Maharashtra" }, "geometry": { "type": "Point", "coordinates": [ 73.9049003, 18.5446728 ] } },
{ "type": "Feature", "properties": { "ccd_name": "Branch of tree / complete tree cutting", "com_location": "Runwal prestige Valencia on Nagar road in Yerwada., Pune, Maharashtra" }, "geometry": { "type": "Point", "coordinates": [ 73.89227, 18.5491754 ] } },
{ "type": "Feature", "properties": { "ccd_name": "Lifiting of tree cutting", "com_location": "Front of 32 no pmc school hadapsar gaon, commpunnd wall side of shivraj complex, Pune, Maharashtra" }, "geometry": { "type": "Point", "coordinates": [ 73.9308468, 18.5005675 ] } },
{ "type": "Feature", "properties": { "ccd_name": "Permission to Trim Branches in private Society / Land", "com_location": "sadara prabhAga  kra. 39 madhIla shrInagara tApakIra plA Ta AmadAra A phisa mAge dhanakavaDI madhye, Pune, Maharashtra" }, "geometry": { "type": "Point", "coordinates": [ 73.8546821, 18.4654546 ] } },
{ "type": "Feature", "properties": { "ccd_name": "Branch of tree / complete tree cutting", "com_location": "Shevta apartment Todkar resdincy .bibavevADI chitAmaNInagara samora, Pune, Maharashtra" }, "geometry": { "type": "Point", "coordinates": [ 73.864634, 18.4633919 ] } },
{ "type": "Feature", "properties": { "ccd_name": "Repairing of playing equipments in garden", "com_location": "sa na 98 ujavI bhusArI kA.clanI buleTa shorUma chyA pAThImAge kotharuDa, Pune, Maharashtra" }, "geometry": { "type": "Point", "coordinates": [ 73.7948462, 18.5089646 ] } },
{ "type": "Feature", "properties": { "ccd_name": "Lifiting of tree cutting", "com_location": "prabhAga 38 rAjasa so lena 5, Pune, Maharashtra" }, "geometry": { "type": "Point", "coordinates": [ 73.913340100000013, 18.5025877 ] } },
{ "type": "Feature", "properties": { "ccd_name": "Lifiting of tree cutting", "com_location": "246 gaMja peTha ApalA mArutI maMdirA shejArI puNe -42\t" }, "geometry": { "type": "Point", "coordinates": [ 73.8786239, 18.5246091 ] } },
{ "type": "Feature", "properties": { "ccd_name": "Branch of tree / complete tree cutting", "com_location": "Bhagawan Mahavir Swami Garden, 666, Chaitraban, Bibwewadi, Pune 411037" }, "geometry": { "type": "Point", "coordinates": [ 73.8639546, 18.4625697 ] } },
{ "type": "Feature", "properties": { "ccd_name": "Planting of trees besides divider/foothpath (HO)", "com_location": " in front of CTR co. Nagar road Pune 14." }, "geometry": { "type": "Point", "coordinates": [ 73.9101713, 18.5592037 ] } },
{ "type": "Feature", "properties": { "ccd_name": "Branch of tree / complete tree cutting", "com_location": "VimanNagar, road between bank of maharashtra to eden Garden society corner\r\n, Pune, Maharashtra" }, "geometry": { "type": "Point", "coordinates": [ 73.914442800000018, 18.560271 ] } },
{ "type": "Feature", "properties": { "ccd_name": "Branch of tree / complete tree cutting", "com_location": "E1 ganga orchid building Opp power one building Near passport office Mundhwa, Pune, Maharashtra" }, "geometry": { "type": "Point", "coordinates": [ 73.9128349, 18.5314869 ] } },
{ "type": "Feature", "properties": { "ccd_name": "Branch of tree / complete tree cutting", "com_location": "D/5,Mohiniraj, Aniket Society No.1, Bibwevadi Road, Pune-411037" }, "geometry": { "type": "Point", "coordinates": [ 73.8602178, 18.4829272 ] } },
{ "type": "Feature", "properties": { "ccd_name": "Others (Garden) (HO)", "com_location": "gpo post office , samaj kalyn office  bsnl garden area , Pune, Maharashtra" }, "geometry": { "type": "Point", "coordinates": [ 73.8744802, 18.5223196 ] } },
{ "type": "Feature", "properties": { "ccd_name": "Others (Garden-Civil)", "com_location": "morayA udyAna \r\nTiMgarenagara lena naMbara 10 ka , Pune, Maharashtra" }, "geometry": { "type": "Point", "coordinates": [ 73.847404, 18.521761 ] } },
{ "type": "Feature", "properties": { "ccd_name": "Branch of tree / complete tree cutting", "com_location": "bAlabhAratI te bmcc , Pune, Maharashtra" }, "geometry": { "type": "Point", "coordinates": [ 73.8286936, 18.521105 ] } },
{ "type": "Feature", "properties": { "ccd_name": "Lifiting of tree cutting", "com_location": "12/1 A Elephinstone Road, Khadki, Pune. 411003\r\nOpp. Kiloskar oil engine main gate." }, "geometry": { "type": "Point", "coordinates": [ 73.8399873, 18.5707416 ] } },
{ "type": "Feature", "properties": { "ccd_name": "Permission to Trim Branches in private Society / Land", "com_location": "snehA pa.crADAIja I viMga gRRiha rachanA saMsthA maryAdita vAraje mALavADI, ena DI e roDa, vAraje mALavADI polIsa sTeshana mAge,puNe-411058." }, "geometry": { "type": "Point", "coordinates": [ 73.796834, 18.4864727 ] } },
{ "type": "Feature", "properties": { "ccd_name": "Others (Garden) (HO)", "com_location": "lane between swannad hospital and bhaide bunglow  nr deep bunglow chowk kalu tamanna kusalkar road o, Pune, Maharashtra" }, "geometry": { "type": "Point", "coordinates": [ 73.8463144, 18.470507 ] } },
{ "type": "Feature", "properties": { "ccd_name": "Branch of tree / complete tree cutting", "com_location": "survey number 34 vidya dhan housing society rajeshiree shahu school samoor dhankawdi pune 34" }, "geometry": { "type": "Point", "coordinates": [ 73.8546821, 18.4654546 ] } }
]
}
