{
"type": "FeatureCollection",
"name": "2022_Water_Supply",
"crs": { "type": "name", "properties": { "name": "urn:ogc:def:crs:OGC:1.3:CRS84" } },
"features": [
{ "type": "Feature", "properties": { "ccd_name": "NO water Supply", "com_location": " Santnagar, Lohegaon, Pune 411047 area f" }, "geometry": { "type": "Point", "coordinates": [ 73.9345125, 18.5985629 ] } },
{ "type": "Feature", "properties": { "ccd_name": "Others (Water Supply)", "com_location": "D-1/24 Shantirakshak Co-Operative Housing Society, Shastrinagar, Yerawada, Pune 411 006" }, "geometry": { "type": "Point", "coordinates": [ 73.8960061, 18.5572715 ] } },
{ "type": "Feature", "properties": { "ccd_name": "Water Flowing / wastage", "com_location": "Ramtekadi industrial area Hadapsar lane no 5, Pune, Maharashtra" }, "geometry": { "type": "Point", "coordinates": [ 73.9161092, 18.496996 ] } },
{ "type": "Feature", "properties": { "ccd_name": "Others (Water Supply)", "com_location": "838 budhavAra peTha DhamaDhere boLa, Pune, Maharashtra" }, "geometry": { "type": "Point", "coordinates": [ 73.8575832, 18.5149625 ] } },
{ "type": "Feature", "properties": { "ccd_name": "Others (Water Supply)", "com_location": "bhAgyodaya ka lanI, jAI maMgala kAryAlayA javaLa, ghAvaTe nagara, muMDavA- mAMjarI roDa, mAMjarI budruka, havelI, puNe. " }, "geometry": { "type": "Point", "coordinates": [ 73.8786239, 18.5246091 ] } },
{ "type": "Feature", "properties": { "ccd_name": "NO water Supply", "com_location": "siMhagaDa ka leja ka.cmpasa, AMbegAva budruka, pa.crADAisa ha sTela javaLa, varpe nivAsa, puNe - 411046. " }, "geometry": { "type": "Point", "coordinates": [ 73.8350978, 18.4636463 ] } },
{ "type": "Feature", "properties": { "ccd_name": "Others (Water Supply)", "com_location": " Ghar no 312, 1st floor, Kashinath patil nagar dhankawadi pune 46." }, "geometry": { "type": "Point", "coordinates": [ 73.860261, 18.466761 ] } },
{ "type": "Feature", "properties": { "ccd_name": "Providing / repairing of storm water chamber and cover", "com_location": "Kharadi, Eon IT Park, PMC STP plant ROAD Footpath \r\n, Pune, Maharashtra" }, "geometry": { "type": "Point", "coordinates": [ 73.9507582, 18.5518266 ] } },
{ "type": "Feature", "properties": { "ccd_name": "Pipeline/Valve Leakage of PMC line", "com_location": "Jakatnaka aundh Nirmal sakul 411007, Pune, Maharashtra" }, "geometry": { "type": "Point", "coordinates": [ 73.79743, 18.538134 ] } },
{ "type": "Feature", "properties": { "ccd_name": "Providing / repairing of storm water chamber and cover", "com_location": "junA muDhavA roDa aisa bi baka samora, Pune, Maharashtra" }, "geometry": { "type": "Point", "coordinates": [ 73.9140811, 18.5311287 ] } },
{ "type": "Feature", "properties": { "ccd_name": "NO water Supply", "com_location": "Erandawana Sahakar Vasahat Karve Road Pune - 4" }, "geometry": { "type": "Point", "coordinates": [ 73.817824, 18.502286 ] } },
{ "type": "Feature", "properties": { "ccd_name": "Others (Water Supply)", "com_location": "PMC Shooting Range,Canal Road,Vaidwadi, Hadapsar Pune 13," }, "geometry": { "type": "Point", "coordinates": [ 73.9346733, 18.5009043 ] } },
{ "type": "Feature", "properties": { "ccd_name": "Providing / repairing of storm water chamber and cover", "com_location": "Kharadi, Bypass  road, opposite Bank of Baroda, Near petrol pump, Pune, Maharashtra" }, "geometry": { "type": "Point", "coordinates": [ 73.9328965, 18.5324891 ] } },
{ "type": "Feature", "properties": { "ccd_name": "Contamination / Turbid Water Problem", "com_location": "serve no 9, tukaram nagar, lane no 1, kharadi , Pune, Maharashtra" }, "geometry": { "type": "Point", "coordinates": [ 73.9352221, 18.549721 ] } },
{ "type": "Feature", "properties": { "ccd_name": "Pipeline/Valve Leakage of PMC line", "com_location": "1131 Shukrawar Peth, Sathe Colony, Pune 411002" }, "geometry": { "type": "Point", "coordinates": [ 73.8617267, 18.5160758 ] } },
{ "type": "Feature", "properties": { "ccd_name": "NO water Supply", "com_location": "sr no 94 mahadevnagar bhairat colony manjari budruk pune 412307\t" }, "geometry": { "type": "Point", "coordinates": [ 73.9550242, 18.5055547 ] } },
{ "type": "Feature", "properties": { "ccd_name": "Others (Water Supply)", "com_location": "894 shukrawar peth sahu chauk ganpati mandir pune " }, "geometry": { "type": "Point", "coordinates": [ 73.857967, 18.5092406 ] } },
{ "type": "Feature", "properties": { "ccd_name": "No water supply in public toilet(s)", "com_location": "223 gurUvAra peTha taLaI sArvajanika shauchAlaya 8 , Pune, Maharashtra" }, "geometry": { "type": "Point", "coordinates": [ 73.8712164, 18.5294909 ] } },
{ "type": "Feature", "properties": { "ccd_name": "Others (Water Supply)", "com_location": "shewalewadi , marathi shalechy pathimage pune 412307" }, "geometry": { "type": "Point", "coordinates": [ 73.9587384, 18.5222017 ] } },
{ "type": "Feature", "properties": { "ccd_name": "Unauthorised / Uncovered water storage tanks", "com_location": "Dev Exotica , Near Durgamata Temple, Kharadi Pune" }, "geometry": { "type": "Point", "coordinates": [ 73.9365332, 18.5582162 ] } },
{ "type": "Feature", "properties": { "ccd_name": "Others (Water Supply)", "com_location": "Flat Nambar 7.Aurovile apartment.Near Rohan Seher.Pancard Club Road.Murkute Gardan lane.Dhankude Vasti.Baner.Pune.411045.    " }, "geometry": { "type": "Point", "coordinates": [ 73.7739819, 18.5538015 ] } },
{ "type": "Feature", "properties": { "ccd_name": "NO water Supply", "com_location": "jAMbhuLa vADI eriyA,lipAne vastI,, Pune, Maharashtra" }, "geometry": { "type": "Point", "coordinates": [ 73.846724, 18.438545 ] } },
{ "type": "Feature", "properties": { "ccd_name": "Pipeline/Valve Leakage of PMC line", "com_location": "Abhinav college samor reliance fresh mart sus road pashan, Pune, Maharashtra" }, "geometry": { "type": "Point", "coordinates": [ 73.7807995, 18.5447004 ] } },
{ "type": "Feature", "properties": { "ccd_name": "Unauthorised tapping of water connection/Water Theft", "com_location": "Sr no.2/1B rAmachaMdra nagara HP gass godown samora,taLajAI paThAra roDa,Nr Ramchandra  Royal soc.dhanakavaDI puNe -43" }, "geometry": { "type": "Point", "coordinates": [ 73.8478414, 18.4686342 ] } },
{ "type": "Feature", "properties": { "ccd_name": "Others (Water Supply)", "com_location": "fergussen clg deep bungla samor\r\n, Pune, Maharashtra" }, "geometry": { "type": "Point", "coordinates": [ 73.835237, 18.5298735 ] } },
{ "type": "Feature", "properties": { "ccd_name": "Stopping leakage of drainage water in Nalla / River", "com_location": "Sarthak Terrace, opp. Gandhi Lawns, next to Alekar Market, Pune, Maharashtra" }, "geometry": { "type": "Point", "coordinates": [ 73.8243081, 18.5007791 ] } },
{ "type": "Feature", "properties": { "ccd_name": "Others (Water Supply)", "com_location": "siMbAyosisa vimAnanagara nyU ka.cmpasa sarve  naMbara 227,pla Ta  naMbara 11, siMbAyosisa  roDa, vimAnanagara, puNe 14 " }, "geometry": { "type": "Point", "coordinates": [ 73.9119182, 18.5595501 ] } },
{ "type": "Feature", "properties": { "ccd_name": "Others (Water Supply)", "com_location": "Its gangadham shatrunjay road next to omkar park opp.badhe steel point sant gajanan society lane no.2.kondhwa bk pune 48" }, "geometry": { "type": "Point", "coordinates": [ 73.874985, 18.4788691 ] } },
{ "type": "Feature", "properties": { "ccd_name": "Providing / repairing of storm water chamber and cover", "com_location": "sarvhe naMbara 11/1 nAMdeDa gAva roDa jagatApa pATIla lena , Pune, Maharashtra" }, "geometry": { "type": "Point", "coordinates": [ 73.8786239, 18.5246091 ] } },
{ "type": "Feature", "properties": { "ccd_name": "Clearing Water Logging on Road", "com_location": "mahesha sosAyaTI chauka bibavevADI ArAdhanA svITa samora puNe 37" }, "geometry": { "type": "Point", "coordinates": [ 73.8640944, 18.4690213 ] } },
{ "type": "Feature", "properties": { "ccd_name": "NO water Supply", "com_location": "B2 B11 Gururaj Housing Society no 3 aundh road opposite LIC office behind HDFC bank pune" }, "geometry": { "type": "Point", "coordinates": [ 73.8373571, 18.5628768 ] } },
{ "type": "Feature", "properties": { "ccd_name": "Providing / repairing of storm water chamber and cover", "com_location": "Location is: Ramwadi Chowk, Opp. Novotel Hotel, Near Al-Hifazat Restaurant, Nagar Road, Pune." }, "geometry": { "type": "Point", "coordinates": [ 73.9113819, 18.5582504 ] } },
{ "type": "Feature", "properties": { "ccd_name": "NO water Supply", "com_location": "2 JAI MANGAL LANE NO 3 BHUSARI COLONY (R) KOTHRUD PUNE" }, "geometry": { "type": "Point", "coordinates": [ 73.7931898, 18.510385 ] } },
{ "type": "Feature", "properties": { "ccd_name": "Providing / repairing of storm water chamber and cover", "com_location": "Alive Building, Samarth Lane, opposite SKP Campus, Balewadi, Pune" }, "geometry": { "type": "Point", "coordinates": [ 73.7734397, 18.5735967 ] } },
{ "type": "Feature", "properties": { "ccd_name": "NO water Supply", "com_location": " OZONE  Building Sant Nagar Lohegaon pune 47" }, "geometry": { "type": "Point", "coordinates": [ 73.9372971, 18.5947006 ] } },
{ "type": "Feature", "properties": { "ccd_name": "Others (Water Supply)", "com_location": ". \tsarve na 34/2 kharA.DI roDa june sAI maMdirAjavaLa chaMdananagara puNe\t" }, "geometry": { "type": "Point", "coordinates": [ 73.9393954, 18.5650109 ] } },
{ "type": "Feature", "properties": { "ccd_name": "NO water Supply", "com_location": "Ekdant classic phase 1,vighnaharta nagar,sr no 15,ambegaon pathar,pune 411046." }, "geometry": { "type": "Point", "coordinates": [ 73.86873, 18.445318 ] } },
{ "type": "Feature", "properties": { "ccd_name": "Water Flowing / wastage", "com_location": "17, Seemasagar Society, Sukhsagar Nagar, Pune - 46" }, "geometry": { "type": "Point", "coordinates": [ 73.8701119, 18.4565105 ] } },
{ "type": "Feature", "properties": { "ccd_name": "Stopping leakage of drainage water in Nalla / River", "com_location": "On Bhandarkar Road, Opp Shri Apartment  in ICICI Bank Lane near Raviraj Hotel, Pune, Maharashtra" }, "geometry": { "type": "Point", "coordinates": [ 73.8362548, 18.517931 ] } },
{ "type": "Feature", "properties": { "ccd_name": "Providing / repairing of storm water chamber and cover", "com_location": "kusAbA bhosale patha bhosale nagara, reMja hila roDa shivAjI nagara puNe 411007 \r\nbaiMka  pha ba.DaudA ashoka nagara shAkhA ke sAmane" }, "geometry": { "type": "Point", "coordinates": [ 73.8356575, 18.5442047 ] } },
{ "type": "Feature", "properties": { "ccd_name": "Solar, Vermiculture, Rainwater harvesting discount", "com_location": "resident of S.NO.14+16, PLOT NO 96, 6TH FLOOR FLAT NO.602, PANCHWATI BEHIND SHINDE PETROL PUMP, BAVDHAN KHURD, PUNE 411021" }, "geometry": { "type": "Point", "coordinates": [ 73.7823665, 18.5112897 ] } },
{ "type": "Feature", "properties": { "ccd_name": "Cleaning of strom water chamber and nalla", "com_location": "Near maruti temple,raykar mala,pune 411041." }, "geometry": { "type": "Point", "coordinates": [ 73.8097182, 18.4317308 ] } },
{ "type": "Feature", "properties": { "ccd_name": "Clearing Water Logging on Road", "com_location": "Khetmalas hosp lane no 6 near chatrapati school kondwa sai nagar\r\n, Pune, Maharashtra" }, "geometry": { "type": "Point", "coordinates": [ 73.8765484, 18.4556462 ] } },
{ "type": "Feature", "properties": { "ccd_name": "Contamination / Turbid Water Problem", "com_location": "serve no 10 sambhaji nagar  sj bank mage kharadi bypass road kharadi pune 14 " }, "geometry": { "type": "Point", "coordinates": [ 73.9388144, 18.5612152 ] } },
{ "type": "Feature", "properties": { "ccd_name": "Providing / repairing of storm water chamber and cover", "com_location": "411045, Swati Park, Veerbhadra Nagar, Baner, Pune, Maharashtra 411045" }, "geometry": { "type": "Point", "coordinates": [ 73.7761001, 18.5627469 ] } },
{ "type": "Feature", "properties": { "ccd_name": "Providing / repairing of storm water chamber and cover", "com_location": "DI pI rastA, mALavADI, ha.NDaba la sTeDiyama chauka, phUTapAtha, jyeShTha nAgarIka kaTTA samora, Pune, Maharashtra" }, "geometry": { "type": "Point", "coordinates": [ 73.9389213, 18.5053012 ] } },
{ "type": "Feature", "properties": { "ccd_name": "Low water pressure to Individual", "com_location": "ODELA, NEAR LOHIYA JAIN SQUIRE, Pune, Maharashtra" }, "geometry": { "type": "Point", "coordinates": [ 73.7747348, 18.5114115 ] } },
{ "type": "Feature", "properties": { "ccd_name": "Cleaning of strom water chamber and nalla", "com_location": "svAmI vivekAnaMda sosAyaTI, saMta nagara puNe 411009" }, "geometry": { "type": "Point", "coordinates": [ 73.9531189, 18.5646495 ] } },
{ "type": "Feature", "properties": { "ccd_name": "No water as per time table", "com_location": "210 Amar Srushti Co-op Housing Society Hadapsar Vitthalnagar , Pune, Maharashtra" }, "geometry": { "type": "Point", "coordinates": [ 73.8002042, 18.5033942 ] } },
{ "type": "Feature", "properties": { "ccd_name": "No water as per time table", "com_location": "E 104  no water from last 2 months  ,very  confused about sevrce after being regular tax payers, Pune, Maharashtra" }, "geometry": { "type": "Point", "coordinates": [ 73.8786239, 18.5246091 ] } },
{ "type": "Feature", "properties": { "ccd_name": "Providing / repairing of storm water chamber and cover", "com_location": "sahyAdrI ha spiTala enTrI geTachyA bAjUlA roDavara yeravaDA, Pune, Maharashtra" }, "geometry": { "type": "Point", "coordinates": [ 73.8970055, 18.5541881 ] } },
{ "type": "Feature", "properties": { "ccd_name": "Others (Water Supply)", "com_location": "in BSNL officer colony janwadi by neighbour., Pune, Maharashtra" }, "geometry": { "type": "Point", "coordinates": [ 73.729049, 18.5944256 ] } },
{ "type": "Feature", "properties": { "ccd_name": "Removal / Installation of new water meters", "com_location": "S.NO.100/5, 100/12A/13/14, 100/17A/18, 100/19/1, 2ND FLOOR, FLAT NO. 201, ARYAN GREEN PARK, NEAR GORAKSHNATH\nMANDIR, RAYKARMALA, DHAYARI GAON, PUNE-411041" }, "geometry": { "type": "Point", "coordinates": [ 73.8064802, 18.4363709 ] } },
{ "type": "Feature", "properties": { "ccd_name": "Others (Water Supply)", "com_location": "Orange County Phase 2, Baner-Pashan link road Pashan 411021.  , Pune, Maharashtra" }, "geometry": { "type": "Point", "coordinates": [ 73.7902348, 18.5456316 ] } },
{ "type": "Feature", "properties": { "ccd_name": "NO water Supply", "com_location": "kotharUDa - bAvadhana\r\ntukAI hAITsa, karAMjavaNe bilDiMga bAvadhana gAvaThANa, Pune, Maharashtra" }, "geometry": { "type": "Point", "coordinates": [ 73.8076543, 18.5073514 ] } },
{ "type": "Feature", "properties": { "ccd_name": "NO water Supply", "com_location": "sant nagar aditya mega city lohegaon pune " }, "geometry": { "type": "Point", "coordinates": [ 73.9370154, 18.5972273 ] } },
{ "type": "Feature", "properties": { "ccd_name": "Providing / repairing of storm water chamber and cover", "com_location": "green park hotel baner, Pune, Maharashtra" }, "geometry": { "type": "Point", "coordinates": [ 73.8040787, 18.5520924 ] } },
{ "type": "Feature", "properties": { "ccd_name": "Others (Water Supply)", "com_location": "AMbegAva paThAra ,sarvhe na. 31/1, Pune, Maharashtra" }, "geometry": { "type": "Point", "coordinates": [ 73.9258785, 18.5039906 ] } },
{ "type": "Feature", "properties": { "ccd_name": "Pipeline/Valve Leakage of PMC line", "com_location": "serve no 150, a/1/1/2 plot no 3 near lohiya jain it park chandani cjhowk kothrud prathmesh elite society\r\n, Pune, Maharashtra" }, "geometry": { "type": "Point", "coordinates": [ 73.7874227, 18.5081617 ] } },
{ "type": "Feature", "properties": { "ccd_name": "Low water pressure to Individual", "com_location": "1475 Sadashiv peth,TiLaka roDa sadA.peTha pune" }, "geometry": { "type": "Point", "coordinates": [ 73.850234, 18.507799 ] } },
{ "type": "Feature", "properties": { "ccd_name": "Pipeline/Valve Leakage of PMC line", "com_location": "Magarpatta, Hadapsar, Pune, Maharashtra 411028" }, "geometry": { "type": "Point", "coordinates": [ 73.9271644, 18.5158057 ] } },
{ "type": "Feature", "properties": { "ccd_name": "Contamination / Turbid Water Problem", "com_location": "Complain by : Hitesh Pardeshi, Barsana Aangan, Sr. No. 50, Katraj-Kondhwa Pune" }, "geometry": { "type": "Point", "coordinates": [ 73.8813244, 18.4474334 ] } },
{ "type": "Feature", "properties": { "ccd_name": "NO water Supply", "com_location": "CTS no 1399 SADBHAVNA Apartment pune vidyarthi gruh road sadashiv peth pune 411030" }, "geometry": { "type": "Point", "coordinates": [ 73.8524875, 18.5094476 ] } },
{ "type": "Feature", "properties": { "ccd_name": "NO water Supply", "com_location": "Sr No-9/1/2, House No 2584/02, Kedar Building, Sinhgad Law Collage, Ambegoan Budruk, Pune City" }, "geometry": { "type": "Point", "coordinates": [ 73.8362269, 18.463828 ] } },
{ "type": "Feature", "properties": { "ccd_name": "Others (Water Supply)", "com_location": "Flat No. 5, 2nd Flr , Aakash Tara Apt , Mauli Nagar Katraj Kondwa Road, Katraj, Pune-411046" }, "geometry": { "type": "Point", "coordinates": [ 73.8680296, 18.4470818 ] } },
{ "type": "Feature", "properties": { "ccd_name": "Pipeline/Valve Leakage of PMC line", "com_location": "haDapasara relve sTeshana kodre vADI muMDhavA, Pune, Maharashtra" }, "geometry": { "type": "Point", "coordinates": [ 73.9102857, 18.5049557 ] } },
{ "type": "Feature", "properties": { "ccd_name": "Low water pressure to Individual", "com_location": "Venkatesh Graffiti, Keshav Nagar, Mundhwa, Pune, Maharashtra" }, "geometry": { "type": "Point", "coordinates": [ 73.9479082, 18.5302463 ] } },
{ "type": "Feature", "properties": { "ccd_name": "Providing / repairing of storm water chamber and cover", "com_location": "Below Waje Overbridge , Pune, Maharashtra" }, "geometry": { "type": "Point", "coordinates": [ 73.8786239, 18.5246091 ] } },
{ "type": "Feature", "properties": { "ccd_name": "Clearing Water Logging on Road", "com_location": "loTasa bilDiMga samora junA muMDavA roDa raghuvIra nagara vaDagAva sherI puNe " }, "geometry": { "type": "Point", "coordinates": [ 73.9140811, 18.5311287 ] } },
{ "type": "Feature", "properties": { "ccd_name": "Providing / repairing of storm water chamber and cover", "com_location": "shaMkarasheTha rastyAvarIla apolo TAyara javaLa \r\n\t\t\t\t, Pune, Maharashtra" }, "geometry": { "type": "Point", "coordinates": [ 73.8786239, 18.5246091 ] } },
{ "type": "Feature", "properties": { "ccd_name": "NO water Supply", "com_location": " koMDhavA budruka Da  AMbeDakara nagara , Pune, Maharashtra" }, "geometry": { "type": "Point", "coordinates": [ 73.8893331, 18.4559914 ] } },
{ "type": "Feature", "properties": { "ccd_name": "Cleaning of strom water chamber and nalla", "com_location": "From.....\r\n\r\nAnjali Kulkarni\r\nBldg B 4, Flat no 303\r\nLake Town Co op Hsg Soc\r\nKatraj...., Pune, Maharashtra" }, "geometry": { "type": "Point", "coordinates": [ 73.8314073, 18.502951 ] } },
{ "type": "Feature", "properties": { "ccd_name": "Cleaning of strom water chamber and nalla", "com_location": "uruLI devAchI, Pune, Maharashtra" }, "geometry": { "type": "Point", "coordinates": [ 73.9562768, 18.4563561 ] } },
{ "type": "Feature", "properties": { "ccd_name": "NO water Supply", "com_location": "katraj santosh nagar , sharda balbhavan , sharda colony galli no 3, pune " }, "geometry": { "type": "Point", "coordinates": [ 73.8580788, 18.4392432 ] } },
{ "type": "Feature", "properties": { "ccd_name": "No water as per time table", "com_location": "Telko ka lanI, jAMbhuLavADI roDa, AMbegAva budruka,  puNe - 46." }, "geometry": { "type": "Point", "coordinates": [ 73.8468226, 18.4424495 ] } },
{ "type": "Feature", "properties": { "ccd_name": "Providing / repairing of storm water chamber and cover", "com_location": "at bungalow next to J m 4 hotel in\r\nNanasaheb deshpande lane off j m road behind Adidas show room, Pune, Maharashtra" }, "geometry": { "type": "Point", "coordinates": [ 73.84638, 18.5221 ] } },
{ "type": "Feature", "properties": { "ccd_name": "Providing / repairing of storm water chamber and cover", "com_location": "mit shala, paud road 410038, Pune, Maharashtra" }, "geometry": { "type": "Point", "coordinates": [ 73.7060383, 18.5054044 ] } },
{ "type": "Feature", "properties": { "ccd_name": "Providing / repairing of storm water chamber and cover", "com_location": "mAjI sainika nagara , yeravaDA puNe -411006" }, "geometry": { "type": "Point", "coordinates": [ 73.8823351, 18.5702448 ] } },
{ "type": "Feature", "properties": { "ccd_name": "Others (Water Supply)", "com_location": "Sakhar Nagar, Sutarwadi, Pashan, Pune, Maharashtra 411021" }, "geometry": { "type": "Point", "coordinates": [ 73.7834823, 18.5409948 ] } },
{ "type": "Feature", "properties": { "ccd_name": "Others (Water Supply)", "com_location": "Feel bliss bavdhan., Pune, Maharashtra" }, "geometry": { "type": "Point", "coordinates": [ 73.7745848, 18.499333 ] } },
{ "type": "Feature", "properties": { "ccd_name": "NO water Supply", "com_location": "Dhayari nalanda school shiv ratan apartment pune" }, "geometry": { "type": "Point", "coordinates": [ 73.8148883, 18.4421673 ] } },
{ "type": "Feature", "properties": { "ccd_name": "NO water Supply", "com_location": "bharati vidyapeeth area , Pune, Maharashtra" }, "geometry": { "type": "Point", "coordinates": [ 73.843219600000012, 18.5117869 ] } },
{ "type": "Feature", "properties": { "ccd_name": "Pipeline/Valve Leakage of PMC line", "com_location": "sAIprasAda apArTameMTa madhIla sabhAsada \r\npattAH sarvhe naM. 78/12 te 17, plA Ta kra. 97, vedabhavana sarvhisa roDa, lena naM. 5, DAvI bhusArI kA lanI, kotharuDa, puNe" }, "geometry": { "type": "Point", "coordinates": [ 73.7904396, 18.5082124 ] } },
{ "type": "Feature", "properties": { "ccd_name": "Water Flowing / wastage", "com_location": " parvatI pAyathA puNe 411009" }, "geometry": { "type": "Point", "coordinates": [ 73.849636, 18.485861 ] } },
{ "type": "Feature", "properties": { "ccd_name": "Providing / repairing of storm water chamber and cover", "com_location": "bhairav nagar , galli no 7, dhanori road, vishrantwadi, near chaitanya gagangiri mangal karyalay  , Pune, Maharashtra" }, "geometry": { "type": "Point", "coordinates": [ 73.8796133, 18.5753529 ] } },
{ "type": "Feature", "properties": { "ccd_name": "NO water Supply", "com_location": "Pride aashiyana Porwal road Lohegaon Pune 411047" }, "geometry": { "type": "Point", "coordinates": [ 73.9088229, 18.606598 ] } },
{ "type": "Feature", "properties": { "ccd_name": "Pipeline/Valve Leakage of PMC line", "com_location": "Near Pune Merchant Bank, Vinit Society " }, "geometry": { "type": "Point", "coordinates": [ 73.8178289, 18.5010683 ] } },
{ "type": "Feature", "properties": { "ccd_name": "Cleaning of strom water chamber and nalla", "com_location": "survey number 46/1 biyani lane chandan nagar pune 411014" }, "geometry": { "type": "Point", "coordinates": [ 73.9325552, 18.5635511 ] } },
{ "type": "Feature", "properties": { "ccd_name": "No water as per time table", "com_location": "SAHADEO IRIS Building \r\nNear Park Ridge, Behind Someshwar Temple, Pashan, Pune - 400 021\r\n" }, "geometry": { "type": "Point", "coordinates": [ 73.796197, 18.5460646 ] } },
{ "type": "Feature", "properties": { "ccd_name": "Others (Water Supply)", "com_location": "263, navI khaDakI, yeravaDA, puNe -6\r\nAchArya atre shALe samorachI gallI naMbara -4\r\nkALabhairavanAtha chauka sAmora." }, "geometry": { "type": "Point", "coordinates": [ 73.8859077, 18.5497216 ] } },
{ "type": "Feature", "properties": { "ccd_name": "Pipeline/Valve Leakage of PMC line", "com_location": "Dr Ambedkar Path, Ganesh Nagar, Yerawada, Pune, Maharashtra 411006" }, "geometry": { "type": "Point", "coordinates": [ 73.8841069, 18.5533396 ] } },
{ "type": "Feature", "properties": { "ccd_name": "NO water Supply", "com_location": "I am staying  in Baner, next to Nana nani park. Baner road. Behind Bank of baroda,  , Pune, Maharashtra" }, "geometry": { "type": "Point", "coordinates": [ 73.7990016, 18.5542456 ] } },
{ "type": "Feature", "properties": { "ccd_name": "Others (Water Supply)", "com_location": "816 ravivAra peTha, sataraMjIvAlA chauka.  , Pune, Maharashtra" }, "geometry": { "type": "Point", "coordinates": [ 73.8786239, 18.5246091 ] } },
{ "type": "Feature", "properties": { "ccd_name": "NO water Supply", "com_location": "phurasuMgI,bhekarAI nagara , Pune, Maharashtra" }, "geometry": { "type": "Point", "coordinates": [ 73.9521468, 18.4819581 ] } },
{ "type": "Feature", "properties": { "ccd_name": "NO water Supply", "com_location": "Venkatesh Graffiti Cooperative Housing society\nManjari Road Keshav Nagar Mundhawa, Pune, Maharashtra" }, "geometry": { "type": "Point", "coordinates": [ 73.948834, 18.5316273 ] } },
{ "type": "Feature", "properties": { "ccd_name": "NO water Supply", "com_location": "Morning Dew,DSK vishwa road, Dhyari, Pune, Maharashtra" }, "geometry": { "type": "Point", "coordinates": [ 73.804356, 18.4470468 ] } },
{ "type": "Feature", "properties": { "ccd_name": "NO water Supply", "com_location": "We receive water supply alternate day or no water in Pashan - Sus road area., Pune, Maharashtra" }, "geometry": { "type": "Point", "coordinates": [ 73.7777885, 18.5454191 ] } },
{ "type": "Feature", "properties": { "ccd_name": "NO water Supply", "com_location": "Kunal height society, back side of Power House fursungi, Pune, Maharashtra" }, "geometry": { "type": "Point", "coordinates": [ 73.7909785, 18.5720318 ] } },
{ "type": "Feature", "properties": { "ccd_name": "Others (Water Supply)", "com_location": "wanwadi kedari nagar lane no. 6 empire landmark , Pune, Maharashtra" }, "geometry": { "type": "Point", "coordinates": [ 73.9011552, 18.4818718 ] } },
{ "type": "Feature", "properties": { "ccd_name": "Clearing Water Logging on Road", "com_location": " Equilife homes, Mahalunge, Behind Balewadi stadium,Pune - 411045" }, "geometry": { "type": "Point", "coordinates": [ 73.7610241, 18.5747407 ] } },
{ "type": "Feature", "properties": { "ccd_name": "Others (Water Supply)", "com_location": "porwall road swpn sankul apartment lohegaon , Pune, Maharashtra" }, "geometry": { "type": "Point", "coordinates": [ 73.9129054, 18.6050576 ] } },
{ "type": "Feature", "properties": { "ccd_name": "Pipeline/Valve Leakage of PMC line", "com_location": "suyog society,model colony,dhotre path,front of antara society,pune 411016." }, "geometry": { "type": "Point", "coordinates": [ 73.837003, 18.534145 ] } },
{ "type": "Feature", "properties": { "ccd_name": "Clearing Water Logging on Road", "com_location": "narRhe, puNe yethe shrI kaMTrola chauka te vhijana skUla va JSPM ka leja skUla" }, "geometry": { "type": "Point", "coordinates": [ 73.7477493, 18.6199956 ] } },
{ "type": "Feature", "properties": { "ccd_name": "Clearing Water Logging on Road", "com_location": "khaDI mashina chaukI samora TiLekaranagara chauka , Pune, Maharashtra" }, "geometry": { "type": "Point", "coordinates": [ 73.8786239, 18.5246091 ] } },
{ "type": "Feature", "properties": { "ccd_name": "Clearing Water Logging on Road", "com_location": "sarvhe na. 20/3/1 vRRiMdAvana sosAyaTI, rAghobA pATIla nagara, sArathI shALe mAge kharADI. , Pune, Maharashtra" }, "geometry": { "type": "Point", "coordinates": [ 73.9531189, 18.5646495 ] } },
{ "type": "Feature", "properties": { "ccd_name": "Providing / repairing of storm water chamber and cover", "com_location": "At the end of lane no 10 dahanukar colony , near Kasturi building a chamber , Pune, Maharashtra" }, "geometry": { "type": "Point", "coordinates": [ 73.811828, 18.493182 ] } },
{ "type": "Feature", "properties": { "ccd_name": "Contamination / Turbid Water Problem", "com_location": "Raj tower 2nd floor flat no 4 Saibaba Nagar sector no 62 , Pune, Maharashtra" }, "geometry": { "type": "Point", "coordinates": [ 73.8810699, 18.468639 ] } },
{ "type": "Feature", "properties": { "ccd_name": "Others (Water Supply)", "com_location": " s.no.64 Handiwadi road indira nagar Hadapsar pune411028" }, "geometry": { "type": "Point", "coordinates": [ 73.9323899, 18.470614 ] } },
{ "type": "Feature", "properties": { "ccd_name": "Water Flowing / wastage", "com_location": "Aashirwad Park Society, Mohammedwadi Road., Pune, Maharashtra" }, "geometry": { "type": "Point", "coordinates": [ 73.9181626, 18.4759554 ] } },
{ "type": "Feature", "properties": { "ccd_name": "NO water Supply", "com_location": "Venkatesh Graffiti Elite, Keshav Nagar, mundhwa-411036., Pune, Maharashtra" }, "geometry": { "type": "Point", "coordinates": [ 73.9442563, 18.5278434 ] } },
{ "type": "Feature", "properties": { "ccd_name": "NO water Supply", "com_location": "muMDhavA , Pune, Maharashtra" }, "geometry": { "type": "Point", "coordinates": [ 73.933003, 18.5330323 ] } },
{ "type": "Feature", "properties": { "ccd_name": "Pipeline/Valve Leakage of PMC line", "com_location": "Dimeka hAusa\r\nvidhI mahAvidyAlaya mArga\r\nbhAMDArakara insiTyUTa samora\r\njarmana bekarI javaLa\r\npuNe" }, "geometry": { "type": "Point", "coordinates": [ 73.8786239, 18.5246091 ] } },
{ "type": "Feature", "properties": { "ccd_name": "Providing / repairing of storm water chamber and cover", "com_location": "Sai nagari kalyani nagar, Pune, Maharashtra" }, "geometry": { "type": "Point", "coordinates": [ 73.8982286, 18.5484924 ] } },
{ "type": "Feature", "properties": { "ccd_name": "Others (Water Supply)", "com_location": "pattA  gulaTekaDI nurAnI majjIta chyA samora , Pune, Maharashtra" }, "geometry": { "type": "Point", "coordinates": [ 73.8060387, 18.5606467 ] } },
{ "type": "Feature", "properties": { "ccd_name": "Pipeline/Valve Leakage of PMC line", "com_location": "ekalavya ka leja chauka , Pune, Maharashtra" }, "geometry": { "type": "Point", "coordinates": [ 73.8352924, 18.5140054 ] } },
{ "type": "Feature", "properties": { "ccd_name": "Clearing Water Logging on Road", "com_location": "FXW8+V79 Manjri Bk, Pune, Maharashtra" }, "geometry": { "type": "Point", "coordinates": [ 73.9657344, 18.4971625 ] } },
{ "type": "Feature", "properties": { "ccd_name": "NO water Supply", "com_location": "Nimhan mala sr no 5/94/2 pashan pune 21" }, "geometry": { "type": "Point", "coordinates": [ 73.796313, 18.542273 ] } },
{ "type": "Feature", "properties": { "ccd_name": "NO water Supply", "com_location": "Plot no 2 ,vasundhara bungalow ,shiv prasad society , ganesh mala ,sinhgad road ,pune 30" }, "geometry": { "type": "Point", "coordinates": [ 73.8452763, 18.5012093 ] } },
{ "type": "Feature", "properties": { "ccd_name": "Others (Water Supply)", "com_location": "council hall bund garden road near INOX cinema , Pune, Maharashtra" }, "geometry": { "type": "Point", "coordinates": [ 73.8793655, 18.5266223 ] } },
{ "type": "Feature", "properties": { "ccd_name": "NO water Supply", "com_location": "golDa siTI pAMDhavadaMDa roDa phurasuMgI, Pune, Maharashtra" }, "geometry": { "type": "Point", "coordinates": [ 73.8786239, 18.5246091 ] } },
{ "type": "Feature", "properties": { "ccd_name": "Unauthorised tapping of water connection/Water Theft", "com_location": "Row House No 73 Ravi Park Handewadi Road Hadapsar Pune 411028 " }, "geometry": { "type": "Point", "coordinates": [ 73.9350539, 18.4850001 ] } },
{ "type": "Feature", "properties": { "ccd_name": "Providing / repairing of storm water chamber and cover", "com_location": "mohammada vADI roDa kRRiShNA nagara niyara bhagavA chauka mArutI maMdira gallI naMbara 4 puNe  28" }, "geometry": { "type": "Point", "coordinates": [ 73.9398818, 18.5009288 ] } },
{ "type": "Feature", "properties": { "ccd_name": "NO water Supply", "com_location": "serve no 206 ,gosavi vasti ,sade satra nalli ,near gav devi mundir ,pune 411028" }, "geometry": { "type": "Point", "coordinates": [ 73.9466937, 18.5083267 ] } },
{ "type": "Feature", "properties": { "ccd_name": "Water meter not working", "com_location": "hingane home colony karve nagar , behind ashirwad clinic , near swami samarth mandir , pune 411052" }, "geometry": { "type": "Point", "coordinates": [ 73.8109923, 18.4903773 ] } },
{ "type": "Feature", "properties": { "ccd_name": "Others (Water Supply)", "com_location": "sa.na AMbeDakara nagara gallI kra 11madhIla.  , Pune, Maharashtra" }, "geometry": { "type": "Point", "coordinates": [ 73.8661646, 18.4838622 ] } },
{ "type": "Feature", "properties": { "ccd_name": "Providing / repairing of storm water chamber and cover", "com_location": "savitribai phule road mase aali bogam height samor mahatma phule peth, Pune, Maharashtra" }, "geometry": { "type": "Point", "coordinates": [ 73.8634214, 18.5057317 ] } },
{ "type": "Feature", "properties": { "ccd_name": "No water as per time table", "com_location": "Jay Vardhaman Society, Bibwewadi Road., Pune, Maharashtra" }, "geometry": { "type": "Point", "coordinates": [ 73.8606884, 18.4820766 ] } },
{ "type": "Feature", "properties": { "ccd_name": "Providing / repairing of storm water chamber and cover", "com_location": "DAvI bhusArI ka.cAlanI kotharuDa Depo \r\ngaNesha kRRipA bilDiMga samora , Pune, Maharashtra" }, "geometry": { "type": "Point", "coordinates": [ 73.7904396, 18.5082124 ] } },
{ "type": "Feature", "properties": { "ccd_name": "Pipeline/Valve Leakage of PMC line", "com_location": "12347 apte road pune 411004" }, "geometry": { "type": "Point", "coordinates": [ 73.8438641, 18.5209844 ] } },
{ "type": "Feature", "properties": { "ccd_name": "NO water Supply", "com_location": "Yesh aprtment . serve no 43 , oposite kakade terrace , NDA road malwadi ,pune" }, "geometry": { "type": "Point", "coordinates": [ 73.8293959, 18.5081391 ] } },
{ "type": "Feature", "properties": { "ccd_name": "Clearing Water Logging on Road", "com_location": "gaNarAja  chauka  kala vaDha khese pArka  roDa, Pune, Maharashtra" }, "geometry": { "type": "Point", "coordinates": [ 73.9114673, 18.589242 ] } },
{ "type": "Feature", "properties": { "ccd_name": "Contamination / Turbid Water Problem", "com_location": "tukAI darshana phurasuMgI puNe" }, "geometry": { "type": "Point", "coordinates": [ 73.9499426, 18.4882495 ] } },
{ "type": "Feature", "properties": { "ccd_name": "No water as per time table", "com_location": "Shubham society, Wadgaon Sheri, Pune." }, "geometry": { "type": "Point", "coordinates": [ 73.919416, 18.55468 ] } },
{ "type": "Feature", "properties": { "ccd_name": "Clearing Water Logging on Road", "com_location": " Kalwad-Khese Park , Pune, Maharashtra" }, "geometry": { "type": "Point", "coordinates": [ 73.9070511, 18.5932504 ] } },
{ "type": "Feature", "properties": { "ccd_name": "Pipeline/Valve Leakage of PMC line", "com_location": "DHANORI MADHAV NAGAR LANE NO 4 left side, PUNE 411015.\r\n" }, "geometry": { "type": "Point", "coordinates": [ 73.9051185, 18.5988833 ] } },
{ "type": "Feature", "properties": { "ccd_name": "Others (Water Supply)", "com_location": "rAmabANa sosAyaTI TelIphona e samora auMdha puNe7" }, "geometry": { "type": "Point", "coordinates": [ 73.8031335, 18.5601649 ] } },
{ "type": "Feature", "properties": { "ccd_name": "Cleaning of strom water chamber and nalla", "com_location": "pla Ta na.13 shrI morayA kRRipA sosAyaTI yAche lagata che, pratij~nA kAryAlaya samora, karve nagara puNe 411 052" }, "geometry": { "type": "Point", "coordinates": [ 73.821729, 18.4914883 ] } },
{ "type": "Feature", "properties": { "ccd_name": "Pipeline/Valve Leakage of PMC line", "com_location": "lane no 5 Mohammadwadi road sasane vasti pune 411060" }, "geometry": { "type": "Point", "coordinates": [ 73.9256488, 18.4784624 ] } },
{ "type": "Feature", "properties": { "ccd_name": "Pipeline/Valve Leakage of PMC line", "com_location": "Arjun Niwas building near medical mission sisters bibvewadi gavthon pune 411037 Shri prasad sumrti building" }, "geometry": { "type": "Point", "coordinates": [ 73.8641661, 18.4748403 ] } },
{ "type": "Feature", "properties": { "ccd_name": "Providing / repairing of storm water chamber and cover", "com_location": "Vadgaon Sheri, Ganeshnagar, opposite Kran Rader gate, old Mundhwa road, Pune, Maharashtra" }, "geometry": { "type": "Point", "coordinates": [ 73.9289206, 18.551361 ] } },
{ "type": "Feature", "properties": { "ccd_name": "Pipeline/Valve Leakage of PMC line", "com_location": "Satyam industries, Erandwane, pune 411004" }, "geometry": { "type": "Point", "coordinates": [ 73.8314091, 18.5086429 ] } },
{ "type": "Feature", "properties": { "ccd_name": "Motor / Pump on water line of pmc", "com_location": "sai sidhhi chauk amegaon pathar laner no 1 pune 411046" }, "geometry": { "type": "Point", "coordinates": [ 73.8426415, 18.4587777 ] } },
{ "type": "Feature", "properties": { "ccd_name": "Pipeline/Valve Leakage of PMC line", "com_location": "subhAShanagara mukhya rastyAvara atre ha spiTala samora miracle shorUma pAshI, Pune, Maharashtra" }, "geometry": { "type": "Point", "coordinates": [ 73.7954925, 18.4849719 ] } },
{ "type": "Feature", "properties": { "ccd_name": "NO water Supply", "com_location": "Sr no 25 Nanded phata Sinhagad road bank of maharashtra 411041, Pune, Maharashtra" }, "geometry": { "type": "Point", "coordinates": [ 73.8033682, 18.4571738 ] } },
{ "type": "Feature", "properties": { "ccd_name": "Low water pressure to Individual", "com_location": "Kumar Elixir Main Baner  Road Pune 411045. Ahead of Green Park hotel. Next to Aman Honda Showroom. " }, "geometry": { "type": "Point", "coordinates": [ 73.8040787, 18.5520924 ] } },
{ "type": "Feature", "properties": { "ccd_name": "Public Toilets water motor not working", "com_location": "mahAtmA phule vasAhata 13 tADIvAlA roDa puNe 1 " }, "geometry": { "type": "Point", "coordinates": [ 73.873548, 18.5368902 ] } },
{ "type": "Feature", "properties": { "ccd_name": "NO water Supply", "com_location": " Orange County Phase 2, Baner-Pashan link road Pashan 411021.  , Pune, Maharashtra" }, "geometry": { "type": "Point", "coordinates": [ 73.7902348, 18.5456316 ] } },
{ "type": "Feature", "properties": { "ccd_name": "NO water Supply", "com_location": "senapati bapat road vetal baba chowk, chitra apartment om medical vr 411016, Pune, Maharashtra" }, "geometry": { "type": "Point", "coordinates": [ 73.8339561, 18.5327995 ] } },
{ "type": "Feature", "properties": { "ccd_name": "Providing / repairing of storm water chamber and cover", "com_location": "viNakara sabhAgRRiha vanavaMshIvastI rastA padmAvatI mAtA jaya mAtA maMdira rastA, Pune, Maharashtra" }, "geometry": { "type": "Point", "coordinates": [ 73.8534551, 18.4743018 ] } },
{ "type": "Feature", "properties": { "ccd_name": "Others (Water Supply)", "com_location": "Raj Vijay Society, Behind the Pearl Society Balewadi Pune" }, "geometry": { "type": "Point", "coordinates": [ 73.7779156, 18.5771479 ] } },
{ "type": "Feature", "properties": { "ccd_name": "Others (Water Supply)", "com_location": "Amar srushti hadapsar, Pune, Maharashtra" }, "geometry": { "type": "Point", "coordinates": [ 73.95686, 18.5022081 ] } },
{ "type": "Feature", "properties": { "ccd_name": "NO water Supply", "com_location": "nakShatra baMgalA, yogI pArka, bANera, puNe - 411045" }, "geometry": { "type": "Point", "coordinates": [ 73.7769432, 18.5642382 ] } },
{ "type": "Feature", "properties": { "ccd_name": "Others (Water Supply)", "com_location": "saarthi skybay society mahalunge\r\nBehind balewadi stadium\r\n, Pune, Maharashtra" }, "geometry": { "type": "Point", "coordinates": [ 73.7610241, 18.5747407 ] } },
{ "type": "Feature", "properties": { "ccd_name": "No water supply in public toilet(s)", "com_location": "kAMtIjyotI sAvitrIbAI phule oTA mArkeTa dattanagara AMbegAva bu   sa.naM.43 , Pune, Maharashtra" }, "geometry": { "type": "Point", "coordinates": [ 73.8786239, 18.5246091 ] } },
{ "type": "Feature", "properties": { "ccd_name": "Providing / repairing of storm water chamber and cover", "com_location": "DSK ranwara lane at Bavdhan 411021., Pune, Maharashtra" }, "geometry": { "type": "Point", "coordinates": [ 73.7739464, 18.5209853 ] } },
{ "type": "Feature", "properties": { "ccd_name": "Providing / repairing of storm water chamber and cover", "com_location": "ThikANa : sAne gurujI ha spiTala samorachA rastA, mALavADI , haDapasara, Pune, Maharashtra" }, "geometry": { "type": "Point", "coordinates": [ 73.9389213, 18.5053012 ] } },
{ "type": "Feature", "properties": { "ccd_name": "Providing / repairing of storm water chamber and cover", "com_location": "karvenagara,kAkaDe palesa mAghe bAla tAnAjI  mitra maMDaLa javaLa mAvaLe ALI kaDe jANArA rastA , Pune, Maharashtra" }, "geometry": { "type": "Point", "coordinates": [ 73.8786239, 18.5246091 ] } },
{ "type": "Feature", "properties": { "ccd_name": "No water supply in public toilet(s)", "com_location": "bharati hospital javl katraj , Pune, Maharashtra" }, "geometry": { "type": "Point", "coordinates": [ 73.857241, 18.459349 ] } },
{ "type": "Feature", "properties": { "ccd_name": "NO water Supply", "com_location": "Shivalaya society,pashan sus road,sai chowk,pune 411021." }, "geometry": { "type": "Point", "coordinates": [ 73.7842351, 18.5440679 ] } },
{ "type": "Feature", "properties": { "ccd_name": "Contamination / Turbid Water Problem", "com_location": "Survey no 73/7 uddyog nagar handewadi road lane no 10 house no 4 hadapsar , Pune, Maharashtra" }, "geometry": { "type": "Point", "coordinates": [ 73.9307122, 18.4815773 ] } },
{ "type": "Feature", "properties": { "ccd_name": "Others (Water Supply)", "com_location": " in ghavhane playground Shivneri nagar Kondhwa khurd Pune 48" }, "geometry": { "type": "Point", "coordinates": [ 73.8893174, 18.478314 ] } },
{ "type": "Feature", "properties": { "ccd_name": "Contamination / Turbid Water Problem", "com_location": "Sr no 4,kakde vasti,lane 7,upper,pune 411048.\t" }, "geometry": { "type": "Point", "coordinates": [ 73.8817149, 18.463996 ] } },
{ "type": "Feature", "properties": { "ccd_name": "Cleaning of strom water chamber and nalla", "com_location": "khulewadi  air force school chandannagar pune 411014" }, "geometry": { "type": "Point", "coordinates": [ 73.9319407, 18.5698832 ] } },
{ "type": "Feature", "properties": { "ccd_name": "Water Flowing / wastage", "com_location": "gamesha nagara, jarAMDe nagara, mohamadavADI roDa, haDapasara, puNe " }, "geometry": { "type": "Point", "coordinates": [ 73.8786239, 18.5246091 ] } },
{ "type": "Feature", "properties": { "ccd_name": "Others (Water Supply)", "com_location": "Sr no 140 khule vitbhatti fursungi hadapsar sant bhagwan baba lane no 1 and 2., Pune, Maharashtra" }, "geometry": { "type": "Point", "coordinates": [ 73.9784573, 18.4726725 ] } },
{ "type": "Feature", "properties": { "ccd_name": "Clearing Water Logging on Road", "com_location": "kumAra sAketa sosAyaTI geTa karvenagara  viThThala maMdira  roDa., Pune, Maharashtra" }, "geometry": { "type": "Point", "coordinates": [ 73.9531189, 18.5646495 ] } },
{ "type": "Feature", "properties": { "ccd_name": "Clearing Water Logging on Road", "com_location": "sarvha naMbara 48/1 a, pla Ta naMbara 2, I 503 rohana madhubana 2, bAvadhana, Pune, Maharashtra" }, "geometry": { "type": "Point", "coordinates": [ 73.7709014, 18.5056713 ] } },
{ "type": "Feature", "properties": { "ccd_name": "Unauthorised tapping of water connection/Water Theft", "com_location": "1549, shuka vAra peTha, boharI ALI, bhagavAna AdinAtha chauka, puNe 411002 " }, "geometry": { "type": "Point", "coordinates": [ 73.8594391, 18.5144242 ] } },
{ "type": "Feature", "properties": { "ccd_name": "Clearing Water Logging on Road", "com_location": "From Milind Vaidya , A 202 , Rohan Leher phase 1, Baner Sus road , near Bitwise Terra Tower , Baner , Pune 411045 , PMC Aundh ward" }, "geometry": { "type": "Point", "coordinates": [ 73.7682725, 18.5552102 ] } },
{ "type": "Feature", "properties": { "ccd_name": "Providing / repairing of storm water chamber and cover", "com_location": "gallI naM. 3/a, sayyada nagara, mahaMmada vADI roDa, haDapasara , Pune, Maharashtra" }, "geometry": { "type": "Point", "coordinates": [ 73.8786239, 18.5246091 ] } },
{ "type": "Feature", "properties": { "ccd_name": "Others (Water Supply)", "com_location": "na.cshanala pArka bilDIMgae i 4 mANika bAga puNe 41051" }, "geometry": { "type": "Point", "coordinates": [ 73.8786239, 18.5246091 ] } },
{ "type": "Feature", "properties": { "ccd_name": "NO water Supply", "com_location": "sr no 15 jamdade building opp indian oil petrol pump next to manjari phata hadapsar pune 411028" }, "geometry": { "type": "Point", "coordinates": [ 73.95075, 18.499242 ] } },
{ "type": "Feature", "properties": { "ccd_name": "Pipeline/Valve Leakage of PMC line", "com_location": "roDa naMbara 11 ha Tela navashrI shejArI TiMgare nagara, Pune, Maharashtra" }, "geometry": { "type": "Point", "coordinates": [ 73.8941467, 18.574732 ] } },
{ "type": "Feature", "properties": { "ccd_name": "NO water Supply", "com_location": "Sr number 121/122 kiskinda nagar achanak mitra mandal shejari rambaug colony kothrud pune 411038" }, "geometry": { "type": "Point", "coordinates": [ 73.8169099, 18.5162864 ] } },
{ "type": "Feature", "properties": { "ccd_name": "Others (Water Supply)", "com_location": "ganesh mala shinhgad road,shivprasada society,flat no 4,pune 411031." }, "geometry": { "type": "Point", "coordinates": [ 73.8384803, 18.4961586 ] } },
{ "type": "Feature", "properties": { "ccd_name": "Pipeline/Valve Leakage of PMC line", "com_location": "front of Indian oil petrol pump,heaven park,pune 411028." }, "geometry": { "type": "Point", "coordinates": [ 73.9418603, 18.496913 ] } },
{ "type": "Feature", "properties": { "ccd_name": "NO water Supply", "com_location": "sarvhe naMbara 175, navayuga ka lanI, PMPML DepochyA mAge,  bhekarAI nagara, phurasuMgI, puNe 412308." }, "geometry": { "type": "Point", "coordinates": [ 73.9526143, 18.4840277 ] } },
{ "type": "Feature", "properties": { "ccd_name": "NO water Supply", "com_location": "276  ,uppr otha vibhag ,chal kramain a28 ,kholi 5a,near vit ,bibwewadi ,pune" }, "geometry": { "type": "Point", "coordinates": [ 73.8682037, 18.4636219 ] } },
{ "type": "Feature", "properties": { "ccd_name": "NO water Supply", "com_location": "An Indian Resident-\r\nB-103\r\nBon Vivant\r\nKeshav Nagar\r\nPune -411036" }, "geometry": { "type": "Point", "coordinates": [ 73.9505407, 18.5339815 ] } },
{ "type": "Feature", "properties": { "ccd_name": "Clearing Water Logging on Road", "com_location": "sarvha naMbara 48/1 a, pla Ta naMbara 2, I 802 rohana madhubana 2, bAvadhana , Pune, Maharashtra" }, "geometry": { "type": "Point", "coordinates": [ 73.7709014, 18.5056713 ] } },
{ "type": "Feature", "properties": { "ccd_name": "NO water Supply", "com_location": "North main road, opp lane no 6, Pune, Maharashtra" }, "geometry": { "type": "Point", "coordinates": [ 73.8981293, 18.5394534 ] } },
{ "type": "Feature", "properties": { "ccd_name": "NO water Supply", "com_location": "Kondhwa bk Raghuram bungalow kartiki kunj soc back side, sant gajanan nagar pune 48" }, "geometry": { "type": "Point", "coordinates": [ 73.877968, 18.4579905 ] } },
{ "type": "Feature", "properties": { "ccd_name": "Pipeline/Valve Leakage of PMC line", "com_location": "pla Ta naMbara 1 gaNesha maLA  shiva prasAda ko hAUsiMga sosAyaTI AshA ha Tela chauka siMhagaDa rastA puNe 41103" }, "geometry": { "type": "Point", "coordinates": [ 73.83570610000001, 18.4958553 ] } },
{ "type": "Feature", "properties": { "ccd_name": "Providing / repairing of storm water chamber and cover", "com_location": "located in front of the Laxmi Keshav Building in Chinmaya Ganpati Chowk, Sadashiv Peth, Pune." }, "geometry": { "type": "Point", "coordinates": [ 73.8521954, 18.5111949 ] } },
{ "type": "Feature", "properties": { "ccd_name": "Providing / repairing of storm water chamber and cover", "com_location": "Kalyaninagar, Galande Road, opposite sai Park Co op society gate\r\n, Pune, Maharashtra" }, "geometry": { "type": "Point", "coordinates": [ 73.9022683, 18.5274186 ] } },
{ "type": "Feature", "properties": { "ccd_name": "Clearing Water Logging on Road", "com_location": "Undri chowk to wadachi wadi road rama heritage building samor pune 411060" }, "geometry": { "type": "Point", "coordinates": [ 73.9181323, 18.4439094 ] } },
{ "type": "Feature", "properties": { "ccd_name": "NO water Supply", "com_location": "pAMDavadaMDa phurasuMgI , Pune, Maharashtra" }, "geometry": { "type": "Point", "coordinates": [ 73.8786239, 18.5246091 ] } },
{ "type": "Feature", "properties": { "ccd_name": "NO water Supply", "com_location": "Hingane home colony, Karve nagar., Pune, Maharashtra" }, "geometry": { "type": "Point", "coordinates": [ 73.8102927, 18.489072 ] } },
{ "type": "Feature", "properties": { "ccd_name": "Water Flowing / wastage", "com_location": "vRRiMdAvana ha Tela shejArI  aNNAsAheba magara mahAvidyAlayAsamora mAMjarI roDa  mahAdeva nagara haDapasara puNe 411028" }, "geometry": { "type": "Point", "coordinates": [ 73.9427906, 18.4870377 ] } },
{ "type": "Feature", "properties": { "ccd_name": "Others (Water Supply)", "com_location": "haDapasara sAsavaDa roDavara bhekarAInagara chaukAta polIsa chaukI samo, Pune, Maharashtra" }, "geometry": { "type": "Point", "coordinates": [ 73.8786239, 18.5246091 ] } },
{ "type": "Feature", "properties": { "ccd_name": "Clearing Water Logging on Road", "com_location": "TUCKER AWHO enclave hadpsar colony pune 412308" }, "geometry": { "type": "Point", "coordinates": [ 73.9532489, 18.4946577 ] } },
{ "type": "Feature", "properties": { "ccd_name": "Providing / repairing of storm water chamber and cover", "com_location": "Katraj kondhawa road gokulnagar pmt stop samor.. SBI bank., Pune, Maharashtra" }, "geometry": { "type": "Point", "coordinates": [ 73.8738348, 18.4495599 ] } },
{ "type": "Feature", "properties": { "ccd_name": "Water Flowing / wastage", "com_location": "digamber prasad society near bankar school, bankar building,  4rd floor buildng2 sukhsagar 1 , Pune, Maharashtra" }, "geometry": { "type": "Point", "coordinates": [ 73.86631340000001, 18.4581096 ] } },
{ "type": "Feature", "properties": { "ccd_name": "Pipeline/Valve Leakage of PMC line", "com_location": "Pashan tekdi. Pipeline near lokseva school towards mountain., Pune, Maharashtra" }, "geometry": { "type": "Point", "coordinates": [ 73.7749244, 18.5475179 ] } },
{ "type": "Feature", "properties": { "ccd_name": "Providing / repairing of storm water chamber and cover", "com_location": "Urban Balance society, Sade satra nali, opposite Kumar Picasso, Pune 411028" }, "geometry": { "type": "Point", "coordinates": [ 73.9412896, 18.5116644 ] } },
{ "type": "Feature", "properties": { "ccd_name": "NO water Supply", "com_location": "laxmi bungalow Aniket society no.1, plot no.c-1, Bibewewadi road, pune-37." }, "geometry": { "type": "Point", "coordinates": [ 73.85945, 18.480298 ] } },
{ "type": "Feature", "properties": { "ccd_name": "Pipeline/Valve Leakage of PMC line", "com_location": "roDa naMbara 7 kaLasa bopakhela gaNeshanagara, Pune, Maharashtra" }, "geometry": { "type": "Point", "coordinates": [ 73.8786239, 18.5246091 ] } },
{ "type": "Feature", "properties": { "ccd_name": "Others (Water Supply)", "com_location": "KONDHWA KHURD METHA NAGAR BHAGYODAY NAGAR LANE NO 1, SATYANAND HOSPITAL SAMOR PUNE 411048" }, "geometry": { "type": "Point", "coordinates": [ 73.8887449, 18.4708289 ] } },
{ "type": "Feature", "properties": { "ccd_name": "No water as per time table", "com_location": " Ywalewadi, Dhandekar nagar, Lane no 03, Pune, Maharashtra" }, "geometry": { "type": "Point", "coordinates": [ 73.9553639, 18.5757361 ] } },
{ "type": "Feature", "properties": { "ccd_name": "NO water Supply", "com_location": "Sr no 248/3/2,3/3 Vidhate vasti Near D.A.V. Public School ambedkar chowk Baner Pune 411045" }, "geometry": { "type": "Point", "coordinates": [ 73.8017884, 18.5605016 ] } },
{ "type": "Feature", "properties": { "ccd_name": "NO water Supply", "com_location": "Cressida Apartments \r\nCTS No 84/1/1 , Prabhat Road,\r\nErandwana, Pune - 411004\r\nLandmark : Next to Prabhat Road Police Chowky \r\nOpposite Hotel Royalty" }, "geometry": { "type": "Point", "coordinates": [ 73.8334338, 18.5145943 ] } },
{ "type": "Feature", "properties": { "ccd_name": "Unauthorised tapping of water connection/Water Theft", "com_location": "shrI nitIna bharatasiMga rAjaputa yAMnI sarve kra 18 hissAkra 2 bI/32 sukhAsAgara nagara khaMDobA maMdirA javaLa mAUlI , Pune, Maharashtra" }, "geometry": { "type": "Point", "coordinates": [ 73.8786239, 18.5246091 ] } },
{ "type": "Feature", "properties": { "ccd_name": "Others (Water Supply)", "com_location": "Senapati Bapat Road Jakartanagar, Pune, Maharashtra" }, "geometry": { "type": "Point", "coordinates": [ 73.8299152, 18.5304378 ] } },
{ "type": "Feature", "properties": { "ccd_name": "Others (Water Supply)", "com_location": "at KeshavNagar from Mundhwa signal to Z corner, Pune, Maharashtra" }, "geometry": { "type": "Point", "coordinates": [ 73.9550069, 18.5258046 ] } },
{ "type": "Feature", "properties": { "ccd_name": "Pipeline/Valve Leakage of PMC line", "com_location": "ujavI bhusArI ka lanI TIvhIesa shorUma shejArI, Pune, Maharashtra" }, "geometry": { "type": "Point", "coordinates": [ 73.7948462, 18.5089646 ] } },
{ "type": "Feature", "properties": { "ccd_name": "Others (Water Supply)", "com_location": "Sr. No -5, pawar vasti, keshvanagar, Mundhwa pune-36 janseva bank.\r\n" }, "geometry": { "type": "Point", "coordinates": [ 73.9402714, 18.5345937 ] } },
{ "type": "Feature", "properties": { "ccd_name": "NO water Supply", "com_location": "valenccia society at baner pashan link road, Pune, Maharashtra" }, "geometry": { "type": "Point", "coordinates": [ 73.7940392, 18.548685 ] } },
{ "type": "Feature", "properties": { "ccd_name": "Cleaning of strom water chamber and nalla", "com_location": "Khandobacha mal, Devachi uruli  4 , Pune, Maharashtra" }, "geometry": { "type": "Point", "coordinates": [ 73.9564221, 18.4562468 ] } },
{ "type": "Feature", "properties": { "ccd_name": "Water Flowing / wastage", "com_location": "Yerwada shmasahn bhumi ,pune" }, "geometry": { "type": "Point", "coordinates": [ 73.866188, 18.554321 ] } },
{ "type": "Feature", "properties": { "ccd_name": "Providing / repairing of storm water chamber and cover", "com_location": "siTI la nsa samora koMDhavA khurda puNe." }, "geometry": { "type": "Point", "coordinates": [ 73.8891124, 18.4687644 ] } },
{ "type": "Feature", "properties": { "ccd_name": "Providing / repairing of storm water chamber and cover", "com_location": "Ward No. 35 Padmavati Dake Bus Stop Road Near Balasaheb Dheme's Bungalow, Pune, Maharashtra" }, "geometry": { "type": "Point", "coordinates": [ 73.8786239, 18.5246091 ] } },
{ "type": "Feature", "properties": { "ccd_name": "NO water Supply", "com_location": "Sr.No 59 Sainagar Shankar Mandir Lane. Shatrunjay Nagar, Sai Nagar, Kondhwa Budruk Pune c" }, "geometry": { "type": "Point", "coordinates": [ 73.8756841, 18.4556728 ] } },
{ "type": "Feature", "properties": { "ccd_name": "Clearing Water Logging on Road", "com_location": "sahajAnaMda sosAyaTI lena kramAMka 3 pla Ta kramAMka 36, mahAtmA sosAyaTI javaLa, sahajAnaMda sabhAgRRiha kotharUDa., Pune, Maharashtra" }, "geometry": { "type": "Point", "coordinates": [ 73.8786239, 18.5246091 ] } },
{ "type": "Feature", "properties": { "ccd_name": "Providing / repairing of storm water chamber and cover", "com_location": "Balaji chok pashan , Pune, Maharashtra" }, "geometry": { "type": "Point", "coordinates": [ 73.7648982, 18.5492124 ] } },
{ "type": "Feature", "properties": { "ccd_name": "Clearing Water Logging on Road", "com_location": "on Katraj Ambegaon Road,pune." }, "geometry": { "type": "Point", "coordinates": [ 73.8457951, 18.4491284 ] } },
{ "type": "Feature", "properties": { "ccd_name": "Others (Water Supply)", "com_location": "Sr.108.109 anadnagar ramtakdi hadapsar pune" }, "geometry": { "type": "Point", "coordinates": [ 73.9161418, 18.5040461 ] } },
{ "type": "Feature", "properties": { "ccd_name": "Pipeline/Valve Leakage of PMC line", "com_location": "108 Prathamesh Park, Lane1.  The leakage is at 107 Prathamesh Park., Pune, Maharashtra" }, "geometry": { "type": "Point", "coordinates": [ 73.7834008, 18.5675457 ] } },
{ "type": "Feature", "properties": { "ccd_name": "Low water pressure to Individual", "com_location": "MEGHMALHAR, BEHIND RMD COLLEGE , WARJE ,PUNE 58 " }, "geometry": { "type": "Point", "coordinates": [ 73.7909918, 18.4860689 ] } },
{ "type": "Feature", "properties": { "ccd_name": "Pipeline/Valve Leakage of PMC line", "com_location": "Pashan-Sus Road, Behind Lokseva school, Aundh PMC zonal office., Pune, Maharashtra" }, "geometry": { "type": "Point", "coordinates": [ 73.7839255, 18.5463662 ] } },
{ "type": "Feature", "properties": { "ccd_name": "Providing / repairing of storm water chamber and cover", "com_location": "Lane no. 3, Near to Sweet Treat, Road towards to Goel Ganga Aria Society. Dhanori Pune 411015" }, "geometry": { "type": "Point", "coordinates": [ 73.8942984, 18.5921284 ] } },
{ "type": "Feature", "properties": { "ccd_name": "Low water pressure to Individual", "com_location": "Plot no27, Lane no4 Rajas society Katraj Pune. " }, "geometry": { "type": "Point", "coordinates": [ 73.8636132, 18.451592 ] } },
{ "type": "Feature", "properties": { "ccd_name": "Clearing Water Logging on Road", "com_location": "mantri hospital erandwane gaothan, Pune, Maharashtra" }, "geometry": { "type": "Point", "coordinates": [ 73.8341308, 18.5051892 ] } },
{ "type": "Feature", "properties": { "ccd_name": "Unauthorised / Uncovered water storage tanks", "com_location": "39,Shbharambha , Sr No 112/1/1/2, Bhagwati Nagar , Baner Pune 41105" }, "geometry": { "type": "Point", "coordinates": [ 73.7905228, 18.5374028 ] } },
{ "type": "Feature", "properties": { "ccd_name": "NO water Supply", "com_location": "Sun Horizon, Laxman Nagar, Near NIA,Baner 411045, Pune, Maharashtra" }, "geometry": { "type": "Point", "coordinates": [ 73.7692013, 18.5716702 ] } },
{ "type": "Feature", "properties": { "ccd_name": "Others (Water Supply)", "com_location": "Location: Agriculture college signal., Pune, Maharashtra" }, "geometry": { "type": "Point", "coordinates": [ 73.8441118, 18.5366626 ] } },
{ "type": "Feature", "properties": { "ccd_name": "Others (Water Supply)", "com_location": "makaraMda sosAyaTI, 13 mayura ka lanI, kotharUDa, Pune, Maharashtra" }, "geometry": { "type": "Point", "coordinates": [ 73.9531189, 18.5646495 ] } },
{ "type": "Feature", "properties": { "ccd_name": "Providing / repairing of storm water chamber and cover", "com_location": "ichChAtRRiptI hausiMga sosAyaTI pla Ta naMbara 32 sarve naMbara 48/1 gaNesha nagara vaDagAva sherI puNe 14 " }, "geometry": { "type": "Point", "coordinates": [ 73.8257325, 18.4940191 ] } },
{ "type": "Feature", "properties": { "ccd_name": "Providing / repairing of storm water chamber and cover", "com_location": "Ganraj Chowk, Baner Opposite Amar Business Park, Pune, Maharashtra" }, "geometry": { "type": "Point", "coordinates": [ 73.7768511, 18.5642452 ] } },
{ "type": "Feature", "properties": { "ccd_name": "Clearing Water Logging on Road", "com_location": "Munjabawasti road, near Dhaneshwar school, Dhanori, Pune 15" }, "geometry": { "type": "Point", "coordinates": [ 73.893048, 18.590966 ] } },
{ "type": "Feature", "properties": { "ccd_name": "NO water Supply", "com_location": " in Kalwad, Lohegaon, Pune, Maharashtra" }, "geometry": { "type": "Point", "coordinates": [ 73.9060775, 18.59205 ] } },
{ "type": "Feature", "properties": { "ccd_name": "Providing / repairing of storm water chamber and cover", "com_location": "Ganesh kind Road cosmos bank & Maa Amrutanandmayi ashram, Pune, Maharashtra" }, "geometry": { "type": "Point", "coordinates": [ 73.8786239, 18.5246091 ] } },
{ "type": "Feature", "properties": { "ccd_name": "Others (Water Supply)", "com_location": "Krishna nagar road, Mohmadwadi, Pune, Maharashtra" }, "geometry": { "type": "Point", "coordinates": [ 73.9163246, 18.4751462 ] } },
{ "type": "Feature", "properties": { "ccd_name": "NO water Supply", "com_location": "vAraje bhAga, nAdabramha sosAyaTI, prabhAga kra.31 va 32chA , Pune, Maharashtra" }, "geometry": { "type": "Point", "coordinates": [ 73.9166943, 18.562254 ] } },
{ "type": "Feature", "properties": { "ccd_name": "Providing / repairing of storm water chamber and cover", "com_location": "Cosmos bank, gandhi bhavan branch, Sahaj ananda Society, Kothrud, Pune, Maharashtra" }, "geometry": { "type": "Point", "coordinates": [ 73.8723456, 18.4985279 ] } },
{ "type": "Feature", "properties": { "ccd_name": "Clearing Water Logging on Road", "com_location": "in front of Bankar sports complex and Chain Singh Vihar,Jai Jawan AWHO colony., Pune, Maharashtra" }, "geometry": { "type": "Point", "coordinates": [ 73.838345500000017, 18.5447771 ] } },
{ "type": "Feature", "properties": { "ccd_name": "Providing / repairing of storm water chamber and cover", "com_location": "579 ghorapaDe peTha khaDaka mALa ALI, Pune, Maharashtra" }, "geometry": { "type": "Point", "coordinates": [ 73.8786239, 18.5246091 ] } },
{ "type": "Feature", "properties": { "ccd_name": "Others (Water Supply)", "com_location": "tirupati chauk talajai pathar dhankwadi , Pune, Maharashtra" }, "geometry": { "type": "Point", "coordinates": [ 73.8503603, 18.469888 ] } },
{ "type": "Feature", "properties": { "ccd_name": "Others (Water Supply)", "com_location": "habaTAUna kaMTrIvUDsa sosAyaTI, TiLekara nagara, yevalevADI , Pune, Maharashtra" }, "geometry": { "type": "Point", "coordinates": [ 73.9531189, 18.5646495 ] } },
{ "type": "Feature", "properties": { "ccd_name": "Others (Water Supply)", "com_location": "121 ghorapaDe peTha sulabha shauchAlaya , Pune, Maharashtra" }, "geometry": { "type": "Point", "coordinates": [ 73.8634477, 18.5018129 ] } },
{ "type": "Feature", "properties": { "ccd_name": "Others (Water Supply)", "com_location": "A206 Goodwill Metrolpolis west,Porwal road ,Lohagaon pune" }, "geometry": { "type": "Point", "coordinates": [ 73.9097138, 18.6048108 ] } },
{ "type": "Feature", "properties": { "ccd_name": "Providing / repairing of storm water chamber and cover", "com_location": "S. No. 22/1 mahAvIra nagara, sUrya mukhI datta maMdirA, javaLa, kamalA siTI shejArI,  vishva jima javaLa , kAtraja , Pune, Maharashtra" }, "geometry": { "type": "Point", "coordinates": [ 73.8397651, 18.5566167 ] } },
{ "type": "Feature", "properties": { "ccd_name": "Pipeline/Valve Leakage of PMC line", "com_location": " at Agarwal Ganpati Mandir, Vishrantwadi main chowk, Pune, Maharashtra" }, "geometry": { "type": "Point", "coordinates": [ 73.8535649, 18.443699 ] } },
{ "type": "Feature", "properties": { "ccd_name": "Others (Water Supply)", "com_location": "jhakAsa chauka , ChatrapatI saMbhAjI roDa ,sarve naM 5/a  keshavanagara, Pune, Maharashtra" }, "geometry": { "type": "Point", "coordinates": [ 73.9668777, 18.4476783 ] } },
{ "type": "Feature", "properties": { "ccd_name": "Contamination / Turbid Water Problem", "com_location": "Omkar society, hingane mala, sasane Nagar road, hadapsar, Pune" }, "geometry": { "type": "Point", "coordinates": [ 73.9319407, 18.4956936 ] } },
{ "type": "Feature", "properties": { "ccd_name": "Clearing Water Logging on Road", "com_location": "sAgara meDikala mANika bAga samora sihaMgaDa roDa.. koTaka mahiMdrA ba.Nka, Pune, Maharashtra" }, "geometry": { "type": "Point", "coordinates": [ 73.8786239, 18.5246091 ] } },
{ "type": "Feature", "properties": { "ccd_name": "Others (Water Supply)", "com_location": "sankalp residency, lane no 13., Pune, Maharashtra" }, "geometry": { "type": "Point", "coordinates": [ 73.8663457, 18.4535483 ] } },
{ "type": "Feature", "properties": { "ccd_name": "Contamination / Turbid Water Problem", "com_location": "sanjay park, a k villa, lane no 4D,airport road pune " }, "geometry": { "type": "Point", "coordinates": [ 73.907902, 18.564605 ] } },
{ "type": "Feature", "properties": { "ccd_name": "Others (Water Supply)", "com_location": "Survey no 118/1,\r\nNear cipla foundation main gate, Warje, Pune, 411058" }, "geometry": { "type": "Point", "coordinates": [ 73.7984533, 18.4871156 ] } },
{ "type": "Feature", "properties": { "ccd_name": "Providing / repairing of storm water chamber and cover", "com_location": "Left bhusari colony poad road, Pune, Maharashtra" }, "geometry": { "type": "Point", "coordinates": [ 73.79401, 18.5079756 ] } },
{ "type": "Feature", "properties": { "ccd_name": "NO water Supply", "com_location": " 11B krishi Society Gokhalenagar Pune 16. " }, "geometry": { "type": "Point", "coordinates": [ 73.8251789, 18.5239636 ] } },
{ "type": "Feature", "properties": { "ccd_name": "NO water Supply", "com_location": "Munjabawasti Dhanori pune 411015" }, "geometry": { "type": "Point", "coordinates": [ 73.8962994, 18.5865887 ] } },
{ "type": "Feature", "properties": { "ccd_name": "Low water pressure to Individual", "com_location": "Kumar Shantiniketan phase 1 Pashan Sus Road , Pune, Maharashtra" }, "geometry": { "type": "Point", "coordinates": [ 73.7923637, 18.544403 ] } },
{ "type": "Feature", "properties": { "ccd_name": "Water Flowing / wastage", "com_location": "Uttam nagar shivane, NDA road . Behind RR wines near Cocacola godown. Pune - 411023" }, "geometry": { "type": "Point", "coordinates": [ 73.7736584, 18.4632096 ] } },
{ "type": "Feature", "properties": { "ccd_name": "Providing / repairing of storm water chamber and cover", "com_location": "prabhAga kramAMka 9 yeravaDA rAjIva gAMdhI rugNAlaya madhye mena geTa javaLa , Pune, Maharashtra" }, "geometry": { "type": "Point", "coordinates": [ 73.892928, 18.554034 ] } },
{ "type": "Feature", "properties": { "ccd_name": "Others (Water Supply)", "com_location": "today no water distribution from PMC to gultekdi area maharshinagar pune tax payers r getting like this service" }, "geometry": { "type": "Point", "coordinates": [ 73.8635703, 18.4964859 ] } },
{ "type": "Feature", "properties": { "ccd_name": "Cleaning of strom water chamber and nalla", "com_location": "girijAshaMkara sosAyaTI chavhANa nagara dhanakavaDI puNe" }, "geometry": { "type": "Point", "coordinates": [ 73.8546821, 18.4654546 ] } },
{ "type": "Feature", "properties": { "ccd_name": "NO water Supply", "com_location": "Swapnapurty Society, MHADA Suraksha nagar, Hadapsar -411013, Pune, Maharashtra" }, "geometry": { "type": "Point", "coordinates": [ 73.9278993, 18.4964236 ] } },
{ "type": "Feature", "properties": { "ccd_name": "Providing / repairing of storm water chamber and cover", "com_location": "near kothrud stand , opposite konkan express , dhanurkar ground road , kothrud , pune 411038" }, "geometry": { "type": "Point", "coordinates": [ 73.8139536, 18.4982166 ] } },
{ "type": "Feature", "properties": { "ccd_name": "NO water Supply", "com_location": " sarve naMbara44  dattanagara AMbegAva budruka puNe 46" }, "geometry": { "type": "Point", "coordinates": [ 73.8503736, 18.451565 ] } },
{ "type": "Feature", "properties": { "ccd_name": "Pipeline/Valve Leakage of PMC line", "com_location": "Sunrise apt 2122 vijay nagar colony, vijay nagar colony garden sadashiv peth pune\t" }, "geometry": { "type": "Point", "coordinates": [ 73.8516238, 18.5046239 ] } },
{ "type": "Feature", "properties": { "ccd_name": "Unauthorised / Uncovered water storage tanks", "com_location": "97, Ganesh peth, near duliya maruti mandir pune -2" }, "geometry": { "type": "Point", "coordinates": [ 73.8678766, 18.5140531 ] } },
{ "type": "Feature", "properties": { "ccd_name": "Others (Water Supply)", "com_location": "SRA 132 shiMde vastI javaLa haDapasara, Pune, Maharashtra" }, "geometry": { "type": "Point", "coordinates": [ 73.914672, 18.516882 ] } },
{ "type": "Feature", "properties": { "ccd_name": "Providing / repairing of storm water chamber and cover", "com_location": "Kalyaninagar, opposite Silver Oak society gate, Bishops school road\r\n, Pune, Maharashtra" }, "geometry": { "type": "Point", "coordinates": [ 73.8659181, 18.4476953 ] } },
{ "type": "Feature", "properties": { "ccd_name": "Providing / repairing of storm water chamber and cover", "com_location": "Joggers Park in Kalyaninagar. North Avenue. \r\nGalande Udyan,PUNE." }, "geometry": { "type": "Point", "coordinates": [ 73.9024604, 18.5496917 ] } },
{ "type": "Feature", "properties": { "ccd_name": "Clearing Water Logging on Road", "com_location": "sarve naMbara 277 lohagAva dhAnorI roDa sAThe vastI ina phraMTa  pha spleMDara skveara vidyAlaya puNe 411047" }, "geometry": { "type": "Point", "coordinates": [ 73.9210755, 18.5974788 ] } },
{ "type": "Feature", "properties": { "ccd_name": "Others (Water Supply)", "com_location": "Health camp purgrasth vasahat Pandav nagar , Pune, Maharashtra" }, "geometry": { "type": "Point", "coordinates": [ 73.8356575, 18.5262039 ] } },
{ "type": "Feature", "properties": { "ccd_name": "NO water Supply", "com_location": "uralI devAchI nArAlIchA vADA mALa ALI,Pune." }, "geometry": { "type": "Point", "coordinates": [ 73.9563832, 18.4563105 ] } },
{ "type": "Feature", "properties": { "ccd_name": "NO water Supply", "com_location": "ujavI bhusArI ka lanI pauDa roDa kotharUDa, Pune, Maharashtra" }, "geometry": { "type": "Point", "coordinates": [ 73.7948462, 18.5089646 ] } },
{ "type": "Feature", "properties": { "ccd_name": "No water as per time table", "com_location": "Apex House, Sawant Vihar Road, Opp Holkar Garden, Morebaug, Katraj, Pune 411046" }, "geometry": { "type": "Point", "coordinates": [ 73.8571026, 18.4517488 ] } },
{ "type": "Feature", "properties": { "ccd_name": "Others (Water Supply)", "com_location": "sr.no. 27/2 shree ram mandir amegaon budruk pathar , Pune, Maharashtra" }, "geometry": { "type": "Point", "coordinates": [ 73.8203717, 18.451822 ] } },
{ "type": "Feature", "properties": { "ccd_name": "Providing / repairing of storm water chamber and cover", "com_location": "Sr no 203 Ganesh Nagar Sade Satra nali hadapsar Pune 411028" }, "geometry": { "type": "Point", "coordinates": [ 73.9490357, 18.5123561 ] } },
{ "type": "Feature", "properties": { "ccd_name": "Low water pressure to Individual", "com_location": "917/9, Starvilla, Ganeshwadi,Deccan Gymkhana, Pune 411004" }, "geometry": { "type": "Point", "coordinates": [ 73.8411712, 18.519125 ] } },
{ "type": "Feature", "properties": { "ccd_name": "NO water Supply", "com_location": "samarth compleax dp road aundh serve no 249/1,nurkute vasti opp krishsudama park, Pune, Maharashtra" }, "geometry": { "type": "Point", "coordinates": [ 73.8007862, 18.5602093 ] } },
{ "type": "Feature", "properties": { "ccd_name": "Others (Water Supply)", "com_location": " Harmony building 689/4/13 Padam hsg soc Bibwewadi road Pune 41103" }, "geometry": { "type": "Point", "coordinates": [ 73.8602178, 18.4829272 ] } },
{ "type": "Feature", "properties": { "ccd_name": "Others (Water Supply)", "com_location": "Nancy Brahma Residency at NDA Road Opposite Bavdhan Police Chowky. , Pune, Maharashtra" }, "geometry": { "type": "Point", "coordinates": [ 73.7804204, 18.522182 ] } },
{ "type": "Feature", "properties": { "ccd_name": "Clearing Water Logging on Road", "com_location": "Near WTC, Opposite Forest County,, Pune, Maharashtra" }, "geometry": { "type": "Point", "coordinates": [ 73.9499407, 18.5590531 ] } },
{ "type": "Feature", "properties": { "ccd_name": "Providing / repairing of storm water chamber and cover", "com_location": "GV56+9X6, Mahatma Phule Rasta, Near Pushpam Jewellars, Ganj Peth, Pune, Maharashtra 411042" }, "geometry": { "type": "Point", "coordinates": [ 73.8732199, 18.5089927 ] } },
{ "type": "Feature", "properties": { "ccd_name": "NO water Supply", "com_location": "302 shrI veMkaTesha villA pla Ta naMbara 5 sarve naMbara 128 vardhanI sosAyaTI geTa naMbara 2  pAShANa susa roDa 411021, Pune, Maharashtra" }, "geometry": { "type": "Point", "coordinates": [ 73.7835465, 18.5445122 ] } },
{ "type": "Feature", "properties": { "ccd_name": "NO water Supply", "com_location": "Orange County phase 2, Baner pashan link road, pashan, Pune 411021" }, "geometry": { "type": "Point", "coordinates": [ 73.7902348, 18.5456316 ] } },
{ "type": "Feature", "properties": { "ccd_name": "Others (Water Supply)", "com_location": "Near Ganga Osian Pakr Katraj, Pune, Maharashtra" }, "geometry": { "type": "Point", "coordinates": [ 73.8653836, 18.4539608 ] } },
{ "type": "Feature", "properties": { "ccd_name": "No water supply in public toilet(s)", "com_location": "Ganesh Nagar,erandwane pune_4 \r\nKothrud ward nom.16." }, "geometry": { "type": "Point", "coordinates": [ 73.8314303, 18.5040554 ] } },
{ "type": "Feature", "properties": { "ccd_name": "Providing / repairing of storm water chamber and cover", "com_location": "AnaMdapurama nibm roDa, Pune, Maharashtra" }, "geometry": { "type": "Point", "coordinates": [ 73.900301, 18.478851 ] } },
{ "type": "Feature", "properties": { "ccd_name": "Cleaning of strom water chamber and nalla", "com_location": "479/40 chittaraMjana vATikA bAjUlA ma Delaka lanI harekRRiShNa maMdira roDa shivAjI nagara puNe 16" }, "geometry": { "type": "Point", "coordinates": [ 73.8378708, 18.5322985 ] } },
{ "type": "Feature", "properties": { "ccd_name": "Clearing Water Logging on Road", "com_location": "hArDIkara ha spiTala , Pune, Maharashtra" }, "geometry": { "type": "Point", "coordinates": [ 73.8675144, 18.5224978 ] } },
{ "type": "Feature", "properties": { "ccd_name": "Contamination / Turbid Water Problem", "com_location": "serve no 88/1/5, old mhada scheme near swapnpurti housing society surksha nagar road vaidwadi hadapsar 411013 , Pune, Maharashtra" }, "geometry": { "type": "Point", "coordinates": [ 73.9259933, 18.4982164 ] } },
{ "type": "Feature", "properties": { "ccd_name": "Pipeline/Valve Leakage of PMC line", "com_location": "Dnyandeep Society \r\nBehind Noble hospital\r\nSr.no151/11, Next to Aditi Emerald building, Magarpatta, Pune -13." }, "geometry": { "type": "Point", "coordinates": [ 73.9313667, 18.514077 ] } },
{ "type": "Feature", "properties": { "ccd_name": "Providing / repairing of storm water chamber and cover", "com_location": "sevasadan highschool next to Dinanath Mangeshkar hospital., Pune, Maharashtra" }, "geometry": { "type": "Point", "coordinates": [ 73.8327008, 18.5018491 ] } },
{ "type": "Feature", "properties": { "ccd_name": "NO water Supply", "com_location": "1793 sadashiv peth, Deshmukhwadi, HIRKANI building,PUNE." }, "geometry": { "type": "Point", "coordinates": [ 73.8509619, 18.510437 ] } },
{ "type": "Feature", "properties": { "ccd_name": "Providing / repairing of storm water chamber and cover", "com_location": "Location: Dhyari Narhe road,Benkar wasti turn(road comes under Mukhya khate-pmc road), Pune, Maharashtra" }, "geometry": { "type": "Point", "coordinates": [ 73.8216698, 18.4459988 ] } },
{ "type": "Feature", "properties": { "ccd_name": "No water as per time table", "com_location": "C22 Supriya sankul Baner Pune 411045" }, "geometry": { "type": "Point", "coordinates": [ 73.7699808, 18.5643708 ] } },
{ "type": "Feature", "properties": { "ccd_name": "Providing / repairing of storm water chamber and cover", "com_location": "Vadgaon Sheri, opposite Shivraj School, Pune, Maharashtra" }, "geometry": { "type": "Point", "coordinates": [ 73.9240146, 18.5575547 ] } },
{ "type": "Feature", "properties": { "ccd_name": "Others (Water Supply)", "com_location": "53, Yogi Residency, Sai Ganesh park society, Khandve Nagar Road, Lohegaon, Beh. Urja CNG pump,Nagar Road.\r\nLandmark-Beh. Avanti  motors., Pune, Maharashtra" }, "geometry": { "type": "Point", "coordinates": [ 73.9542955, 18.5730573 ] } },
{ "type": "Feature", "properties": { "ccd_name": "NO water Supply", "com_location": "sr.no.5/a sambhaji chowk near datta mandir keshavangar mundhawa pune 411036" }, "geometry": { "type": "Point", "coordinates": [ 73.9425951, 18.536592 ] } },
{ "type": "Feature", "properties": { "ccd_name": "Providing / repairing of storm water chamber and cover", "com_location": "haDapasara kaDuna kALepaDaLa shrI rAma chaukAkaDe yeNAryA Under Pass maghIla , Pune, Maharashtra" }, "geometry": { "type": "Point", "coordinates": [ 73.941631500000014, 18.4808873 ] } },
{ "type": "Feature", "properties": { "ccd_name": "Pipeline/Valve Leakage of PMC line", "com_location": "Gokul Nagar, Shatrunjay Nagar, Kondhwa Budruk, Pune, Maharashtra 411048" }, "geometry": { "type": "Point", "coordinates": [ 73.8749514, 18.4512829 ] } },
{ "type": "Feature", "properties": { "ccd_name": "Others (Water Supply)", "com_location": "Survey Number 202/1 & 202/2 Uttam Towers, Opp Aga Khan Palace, Nagar Road, Pune 411006." }, "geometry": { "type": "Point", "coordinates": [ 73.8996526, 18.553613 ] } },
{ "type": "Feature", "properties": { "ccd_name": "Others (Water Supply)", "com_location": "dattawadi ghar no 816 mhasoba chauk raksha lekha society , Pune, Maharashtra" }, "geometry": { "type": "Point", "coordinates": [ 73.839172, 18.501319 ] } },
{ "type": "Feature", "properties": { "ccd_name": "Pipeline/Valve Leakage of PMC line", "com_location": "Parvati Road, close to the main gate of Sindh Hindu Society, Pune, Maharashtra" }, "geometry": { "type": "Point", "coordinates": [ 73.8868952, 18.4870572 ] } },
{ "type": "Feature", "properties": { "ccd_name": "Others (Water Supply)", "com_location": "'Prabhuleela' Survey No 45.\r\nNext to Gate No 3 of F Residencies., Pune, Maharashtra" }, "geometry": { "type": "Point", "coordinates": [ 73.7746933, 18.578287 ] } },
{ "type": "Feature", "properties": { "ccd_name": "NO water Supply", "com_location": "G wing, Hubtown Countrywoods,\r\nKatraj Kondhwa Road,\r\nTilekarnagar, Pune 411048" }, "geometry": { "type": "Point", "coordinates": [ 73.8849622, 18.4438075 ] } },
{ "type": "Feature", "properties": { "ccd_name": "Contamination / Turbid Water Problem", "com_location": "Kondhava, Yewalewadi , Pune, Maharashtra" }, "geometry": { "type": "Point", "coordinates": [ 73.8963496, 18.4363212 ] } },
{ "type": "Feature", "properties": { "ccd_name": "Others (Water Supply)", "com_location": "NadbramhaSociety Warje, Pune, Maharashtra" }, "geometry": { "type": "Point", "coordinates": [ 73.803859, 18.4840112 ] } },
{ "type": "Feature", "properties": { "ccd_name": "Stopping leakage of drainage water in Nalla / River", "com_location": "Shri Laxminarayan Towers, Behind Neelayam Talkies., Pune, Maharashtra" }, "geometry": { "type": "Point", "coordinates": [ 73.8487982, 18.5024201 ] } },
{ "type": "Feature", "properties": { "ccd_name": "Providing / repairing of storm water chamber and cover", "com_location": "Vrundavan soc jadhav nagar bhag 2 near vrundavan appartment Mangadewadi katraj Pune " }, "geometry": { "type": "Point", "coordinates": [ 73.8610191, 18.4308601 ] } },
{ "type": "Feature", "properties": { "ccd_name": "Water Flowing / wastage", "com_location": "gultekadi 427, Pune, Maharashtra" }, "geometry": { "type": "Point", "coordinates": [ 73.8634383, 18.4964919 ] } },
{ "type": "Feature", "properties": { "ccd_name": "Others (Water Supply)", "com_location": " sa. naM. 87/12, mahaMmada vADI roDa, sasANe vastI ,harIhareshvara nagara, lena naMbara 4, haDapasara, puNe\r\n" }, "geometry": { "type": "Point", "coordinates": [ 73.9294493, 18.4834933 ] } },
{ "type": "Feature", "properties": { "ccd_name": "Pipeline/Valve Leakage of PMC line", "com_location": "kasturba gandhi vasahat,ganesh khind road,pune 411007" }, "geometry": { "type": "Point", "coordinates": [ 73.818753, 18.554983 ] } },
{ "type": "Feature", "properties": { "ccd_name": "Providing / repairing of storm water chamber and cover", "com_location": "mahesha sosAyaTI yethIla puShpama ga.csa ejansI goDAUna pAsUna vishvakarmA vidyAlayAkaDe , Pune, Maharashtra" }, "geometry": { "type": "Point", "coordinates": [ 73.8689782, 18.4642894 ] } },
{ "type": "Feature", "properties": { "ccd_name": "NO water Supply", "com_location": "pnt colony, gultekdi area , Pune, Maharashtra" }, "geometry": { "type": "Point", "coordinates": [ 73.8720449, 18.4958941 ] } },
{ "type": "Feature", "properties": { "ccd_name": "NO water Supply", "com_location": "Lane No 10, Saibaba nagar, Kondhwa , Pune, Maharashtra" }, "geometry": { "type": "Point", "coordinates": [ 73.8834668, 18.4702914 ] } },
{ "type": "Feature", "properties": { "ccd_name": "NO water Supply", "com_location": "jAliMdara rAjU loMDhe\npI ema si ka lanI 6/126\npAMDava nagara shivAjI nagara javaLa chI khUNa pAMDava nagara polIsa sTeshana, Pune, Maharashtra" }, "geometry": { "type": "Point", "coordinates": [ 73.8498588, 18.530263 ] } },
{ "type": "Feature", "properties": { "ccd_name": "Providing / repairing of storm water chamber and cover", "com_location": "karve rastA, bhoMDe ka lanI grAuMDa, Pune, Maharashtra" }, "geometry": { "type": "Point", "coordinates": [ 73.841191, 18.513237 ] } },
{ "type": "Feature", "properties": { "ccd_name": "NO water Supply", "com_location": " in Ganesh nagar, Bharat Forge Shirke Road mundhwa,pune." }, "geometry": { "type": "Point", "coordinates": [ 73.9205354, 18.5205877 ] } },
{ "type": "Feature", "properties": { "ccd_name": "NO water Supply", "com_location": "opp  chand masjid kondhwa bk 411042 \r\ncontact number 7972109561, Pune, Maharashtra" }, "geometry": { "type": "Point", "coordinates": [ 73.8855957, 18.461203 ] } },
{ "type": "Feature", "properties": { "ccd_name": "Others (Water Supply)", "com_location": "gokhalenagara, Pune, Maharashtra" }, "geometry": { "type": "Point", "coordinates": [ 73.82708550000001, 18.5291524 ] } },
{ "type": "Feature", "properties": { "ccd_name": "NO water Supply", "com_location": "navI peTha 197 keshava smRRitI bI viMga, laDakata  phisa lena javaLa shiva mArTa javaLa, Pune, Maharashtra" }, "geometry": { "type": "Point", "coordinates": [ 73.822121, 18.6325898 ] } },
{ "type": "Feature", "properties": { "ccd_name": "Stopping leakage of drainage water in Nalla / River", "com_location": "Vrindavan Residency S. No. 7 2/20, Someshwar Wadi Rd, Ward No. 8, Someshwarwadi, Pashan Pune, Maharashtra 411008 India" }, "geometry": { "type": "Point", "coordinates": [ 73.8012568, 18.5446607 ] } },
{ "type": "Feature", "properties": { "ccd_name": "NO water Supply", "com_location": "swananad buildinging plot no 10 karvenagar, Pune, Maharashtra" }, "geometry": { "type": "Point", "coordinates": [ 73.8167129, 18.485904 ] } },
{ "type": "Feature", "properties": { "ccd_name": "Pipeline/Valve Leakage of PMC line", "com_location": "golpha klaba chauka, baMgalA naMbara 12, Pune, Maharashtra" }, "geometry": { "type": "Point", "coordinates": [ 73.8877408, 18.4344644 ] } },
{ "type": "Feature", "properties": { "ccd_name": "Others (Water Supply)", "com_location": "gokuLanagara kAtraja koMDhavA roDa parisarAmadhye gokuLanagara PMT basa sTa pa shejArI, Pune, Maharashtra" }, "geometry": { "type": "Point", "coordinates": [ 73.865238, 18.4529322 ] } },
{ "type": "Feature", "properties": { "ccd_name": "Clearing Water Logging on Road", "com_location": "Warje Bridge Warje Bridge near Gongwan in Kalka, Pune, Maharashtra" }, "geometry": { "type": "Point", "coordinates": [ 73.8045375, 18.4799521 ] } },
{ "type": "Feature", "properties": { "ccd_name": "Pipeline/Valve Leakage of PMC line", "com_location": "Sukhsagar Nagar galli no 10 and 11 madhil rod   date Chowk pune 46 katraj " }, "geometry": { "type": "Point", "coordinates": [ 73.865695, 18.4427252 ] } },
{ "type": "Feature", "properties": { "ccd_name": "Providing / repairing of storm water chamber and cover", "com_location": "Kharadi, Old Mundhwa road,  Dwarka chouk, opposite chandukaka Jewelleries, Ku Ku Du Chicken shop corner , Pune, Maharashtra" }, "geometry": { "type": "Point", "coordinates": [ 73.9476257, 18.5539311 ] } },
{ "type": "Feature", "properties": { "ccd_name": "Pipeline/Valve Leakage of PMC line", "com_location": "shivshankar girija housing   society. Chandan Garden\r\nNIBM Rd, Pune" }, "geometry": { "type": "Point", "coordinates": [ 73.9023512, 18.4723994 ] } },
{ "type": "Feature", "properties": { "ccd_name": "Others (Water Supply)", "com_location": "Telko ka lanI, jAMbhuLavADI roDa, AMbegAva budruka,  puNe - 46." }, "geometry": { "type": "Point", "coordinates": [ 73.8468226, 18.4424495 ] } },
{ "type": "Feature", "properties": { "ccd_name": "Pipeline/Valve Leakage of PMC line", "com_location": " Dnyandeep Society Behind Noble hospital Sr.no151/11, Next to Aditi Emerald building, Magarpatta, Pune -13. " }, "geometry": { "type": "Point", "coordinates": [ 73.9313667, 18.514077 ] } },
{ "type": "Feature", "properties": { "ccd_name": "Clearing Water Logging on Road", "com_location": "sUryamukhI gaNesha maMdira javaLa bAlevADI sTeDiyama chyA mAgIla  bAjUsa pa.cvheliyana resiDensI mahALuMge.  , Pune, Maharashtra" }, "geometry": { "type": "Point", "coordinates": [ 73.7566918, 18.573426 ] } },
{ "type": "Feature", "properties": { "ccd_name": "NO water Supply", "com_location": "Sadashiv Peth Near Pearugate police chowki, Pune, Maharashtra" }, "geometry": { "type": "Point", "coordinates": [ 73.8487835, 18.5114632 ] } },
{ "type": "Feature", "properties": { "ccd_name": "Clearing Water Logging on Road", "com_location": "Forest County Kharadi, Pune, Maharashtra" }, "geometry": { "type": "Point", "coordinates": [ 73.9499407, 18.5590531 ] } },
{ "type": "Feature", "properties": { "ccd_name": "Pipeline/Valve Leakage of PMC line", "com_location": "aNNAbhAU sAThe sabhAgRRiha sAtArA, Pune, Maharashtra" }, "geometry": { "type": "Point", "coordinates": [ 73.8786239, 18.5246091 ] } },
{ "type": "Feature", "properties": { "ccd_name": "Unauthorised tapping of water connection/Water Theft", "com_location": "290 Guruprasad Complex, Rasta Peth, Pune - 411011. " }, "geometry": { "type": "Point", "coordinates": [ 73.8681554, 18.5186865 ] } },
{ "type": "Feature", "properties": { "ccd_name": "NO water Supply", "com_location": "Shanti Nagar Society, Kondhwa Budruk, VIT Hostel Road, Pune - 411048" }, "geometry": { "type": "Point", "coordinates": [ 73.8800537, 18.4592831 ] } },
{ "type": "Feature", "properties": { "ccd_name": "Others (Water Supply)", "com_location": "Dattnagar old police station mauli colony lane number 4 pune" }, "geometry": { "type": "Point", "coordinates": [ 73.8483676, 18.4474077 ] } },
{ "type": "Feature", "properties": { "ccd_name": "Clearing Water Logging on Road", "com_location": "sana reDieTa hausiMsosA khaDI mashIna chauka yevalevADI roDa aMga rAjadhAbA najIkakoDavA budra pUNe" }, "geometry": { "type": "Point", "coordinates": [ 73.8963496, 18.4363212 ] } },
{ "type": "Feature", "properties": { "ccd_name": "Pipeline/Valve Leakage of PMC line", "com_location": "giridhar bhavan chowk,jawaharlal nehru road,below dr babasaheb ambedkar uddanpul pune, 411037.\r\n\r\n" }, "geometry": { "type": "Point", "coordinates": [ 73.868862, 18.4925315 ] } },
{ "type": "Feature", "properties": { "ccd_name": "Providing / repairing of storm water chamber and cover", "com_location": "janatA vasAhata lena kramAMka 7 , Pune, Maharashtra" }, "geometry": { "type": "Point", "coordinates": [ 73.868856, 18.517403 ] } },
{ "type": "Feature", "properties": { "ccd_name": "Providing / repairing of storm water chamber and cover", "com_location": "Shree Ganpati Saw Mills\nPlot No 100, New Timber Market, Next to Entree Showroom, Bhavani Peth. , Pune, Maharashtra" }, "geometry": { "type": "Point", "coordinates": [ 73.8668315, 18.5080487 ] } },
{ "type": "Feature", "properties": { "ccd_name": "Providing / repairing of storm water chamber and cover", "com_location": "Khilare Patil Rd, Vakil Nagar, Erandwane, Pune, Maharashtra 411004" }, "geometry": { "type": "Point", "coordinates": [ 73.833354, 18.5051176 ] } },
{ "type": "Feature", "properties": { "ccd_name": "Others (Water Supply)", "com_location": "hiMgaNe maLA, sarve naMbara 89, sasAnenagara, Pune, Maharashtra" }, "geometry": { "type": "Point", "coordinates": [ 73.8786239, 18.5246091 ] } },
{ "type": "Feature", "properties": { "ccd_name": "Pipeline/Valve Leakage of PMC line", "com_location": "Dinesh Sonar,\n\"Shrihari Gokul\"\nSarve No. 37/16A/1/16/2/8, Lane No.9, Hariom Colony, Kale Borate Nagar, Tukai Darshan, Hadpsar, Pune.\nM# 9890972070\n" }, "geometry": { "type": "Point", "coordinates": [ 73.9433235, 18.4835216 ] } },
{ "type": "Feature", "properties": { "ccd_name": "Others (Water Supply)", "com_location": " mahAdevanagara, mAMjarI budruka, Pune, Maharashtra" }, "geometry": { "type": "Point", "coordinates": [ 73.9853801, 18.5234503 ] } },
{ "type": "Feature", "properties": { "ccd_name": "Pipeline/Valve Leakage of PMC line", "com_location": "Pashan Sus Road, Lokseva School Main Gate, Pune, Maharashtra" }, "geometry": { "type": "Point", "coordinates": [ 73.7839255, 18.5463662 ] } },
{ "type": "Feature", "properties": { "ccd_name": "NO water Supply", "com_location": "TAPOVAN, Yashwant Park , Survey No 281, Sathe Vasti, Lohegaon, Pune, Maharashtra" }, "geometry": { "type": "Point", "coordinates": [ 73.9141213, 18.6014737 ] } },
{ "type": "Feature", "properties": { "ccd_name": "Others (Water Supply)", "com_location": "119 nana peth ganga chamber building flat no 10 agarwal plywood samor\r\n, Pune, Maharashtra" }, "geometry": { "type": "Point", "coordinates": [ 73.8658327, 18.5139101 ] } },
{ "type": "Feature", "properties": { "ccd_name": "Solar, Vermiculture, Rainwater harvesting discount", "com_location": "Samarath Krishna Society, Survey no 66/5 Katraj kondhwa road Pune 411048" }, "geometry": { "type": "Point", "coordinates": [ 73.873858, 18.4480809 ] } },
{ "type": "Feature", "properties": { "ccd_name": "NO water Supply", "com_location": "Tukaram Nagar, Kharadi, Pune, Maharashtra" }, "geometry": { "type": "Point", "coordinates": [ 73.9315733, 18.5493214 ] } },
{ "type": "Feature", "properties": { "ccd_name": "Pipeline/Valve Leakage of PMC line", "com_location": "gokuLanagara kAtraja koMDhavA roDa, Pune, Maharashtra" }, "geometry": { "type": "Point", "coordinates": [ 73.865238, 18.4529322 ] } },
{ "type": "Feature", "properties": { "ccd_name": "Pipeline/Valve Leakage of PMC line", "com_location": "pAShANa sarkala loMDhe vastI.\t, Pune, Maharashtra" }, "geometry": { "type": "Point", "coordinates": [ 73.7923957, 18.5414267 ] } },
{ "type": "Feature", "properties": { "ccd_name": "Pipeline/Valve Leakage of PMC line", "com_location": "Address: Pinak Colony, near Kumar Saket building,karve Nagar\t, Pune, Maharashtra" }, "geometry": { "type": "Point", "coordinates": [ 73.7885323, 18.5088778 ] } },
{ "type": "Feature", "properties": { "ccd_name": "NO water Supply", "com_location": "9 Suyojana society Koregaon Park Pin code 411001, Pune, Maharashtra" }, "geometry": { "type": "Point", "coordinates": [ 73.8963683, 18.5378198 ] } },
{ "type": "Feature", "properties": { "ccd_name": "Providing / repairing of storm water chamber and cover", "com_location": "shivashaktI taruNa maMDaLa chyA samora, shivashaktI chauka, sarve naMbara 13, ka lanI naMbara 2, sAtavavADI, haDapasara , Pune, Maharashtra" }, "geometry": { "type": "Point", "coordinates": [ 73.9448898, 18.4968449 ] } },
{ "type": "Feature", "properties": { "ccd_name": "Low water pressure to Individual", "com_location": "trupti, plot no-44, gali no-07, sahwas society, karve nagar, pune-411052" }, "geometry": { "type": "Point", "coordinates": [ 73.82028, 18.495141 ] } },
{ "type": "Feature", "properties": { "ccd_name": "NO water Supply", "com_location": "kondhava salunkhe vihar road NIBM Rd, Pune, Maharashtra" }, "geometry": { "type": "Point", "coordinates": [ 73.900183, 18.4702556 ] } },
{ "type": "Feature", "properties": { "ccd_name": "NO water Supply", "com_location": "chiMtAmaNI nagara lena no 05 . hAMDevADI roDa relve geTa . neara gaNapatI maMdira . haDapasara puNe 411028 sarvha no 309 .  " }, "geometry": { "type": "Point", "coordinates": [ 73.9341451, 18.4858018 ] } },
{ "type": "Feature", "properties": { "ccd_name": "NO water Supply", "com_location": " sahakAranagara kramAMka 2, Pune, Maharashtra" }, "geometry": { "type": "Point", "coordinates": [ 73.8483387, 18.4886105 ] } },
{ "type": "Feature", "properties": { "ccd_name": "Others (Water Supply)", "com_location": "1339 shivajinagar pmc building samor  pune 411005" }, "geometry": { "type": "Point", "coordinates": [ 73.853071, 18.5238084 ] } },
{ "type": "Feature", "properties": { "ccd_name": "Contamination / Turbid Water Problem", "com_location": "ha.cpI ka lanI gosAvI vastI kotharUDa, Pune, Maharashtra" }, "geometry": { "type": "Point", "coordinates": [ 73.9470036, 18.5096028 ] } },
{ "type": "Feature", "properties": { "ccd_name": "Clearing Water Logging on Road", "com_location": "shevALe vADI, Pune, Maharashtra" }, "geometry": { "type": "Point", "coordinates": [ 73.8786239, 18.5246091 ] } },
{ "type": "Feature", "properties": { "ccd_name": "NO water Supply", "com_location": "Survey No. 20/1/21 Behind Shri Kripa Society Near Old Orbis School Keshav Nagar Pune 36" }, "geometry": { "type": "Point", "coordinates": [ 73.9502088, 18.5324561 ] } },
{ "type": "Feature", "properties": { "ccd_name": "NO water Supply", "com_location": "411014 entire Viman Nagar, Pune, Maharashtra" }, "geometry": { "type": "Point", "coordinates": [ 73.91596340000001, 18.5626777 ] } },
{ "type": "Feature", "properties": { "ccd_name": "Unauthorised / Uncovered water storage tanks", "com_location": "Address: Open plot near Dynamic Grandeur building, Wadachiwadi road, Undri Pune 411060" }, "geometry": { "type": "Point", "coordinates": [ 73.9160499, 18.4436388 ] } },
{ "type": "Feature", "properties": { "ccd_name": "Water Flowing / wastage", "com_location": "Lane No. 5, NDA - Pashan Road, Bavdhan, Pune, Maharashtra" }, "geometry": { "type": "Point", "coordinates": [ 73.7848528, 18.5153542 ] } },
{ "type": "Feature", "properties": { "ccd_name": "Providing / repairing of storm water chamber and cover", "com_location": "mAladhakkA signala Da  AMbeDakara roDa ithUna junA bAjAra, Pune, Maharashtra" }, "geometry": { "type": "Point", "coordinates": [ 73.8624212, 18.5282747 ] } },
{ "type": "Feature", "properties": { "ccd_name": "Others (Water Supply)", "com_location": "sr no 20/2 ghar no 498 sundar nagar  lane no 10 mangadewadi  katraj , Pune, Maharashtra" }, "geometry": { "type": "Point", "coordinates": [ 73.860574, 18.4318781 ] } },
{ "type": "Feature", "properties": { "ccd_name": "NO water Supply", "com_location": "Chandani Chowk Bavdhan, Pune, Maharashtra" }, "geometry": { "type": "Point", "coordinates": [ 73.7794093, 18.506527 ] } },
{ "type": "Feature", "properties": { "ccd_name": "Providing / repairing of storm water chamber and cover", "com_location": "Near passport office car parking near sadanand Nursery  , Pune, Maharashtra" }, "geometry": { "type": "Point", "coordinates": [ 73.9150676, 18.5312522 ] } },
{ "type": "Feature", "properties": { "ccd_name": "Others (Water Supply)", "com_location": "karvenagara,,, Pune, Maharashtra" }, "geometry": { "type": "Point", "coordinates": [ 73.821729, 18.4914883 ] } },
{ "type": "Feature", "properties": { "ccd_name": "Providing / repairing of storm water chamber and cover", "com_location": "sarve naMbara- 32/2/1/11-12, rAje chauka, rAjarShI shAhU hAya skUla shejArI,lena naMbara 6 bharatI vidyApITha chyA mAge, puNe - 411046 " }, "geometry": { "type": "Point", "coordinates": [ 73.8535693, 18.4523542 ] } },
{ "type": "Feature", "properties": { "ccd_name": "Providing / repairing of storm water chamber and cover", "com_location": "this is at the junction of lane 20 and lane 3 Dahanukar colony, Kothrud, Pune - 38. (Near police chowky) " }, "geometry": { "type": "Point", "coordinates": [ 73.811458, 18.495202 ] } },
{ "type": "Feature", "properties": { "ccd_name": "Water Flowing / wastage", "com_location": "niyara miTaka na bilDiMga, phraMTa  pha yunika aka.cDamI, apojiTa  pha saMchetI ha spiTala, saMchetI ha spiTala TU DisTrikTa korTa roDa, shivAjInagara, puNe" }, "geometry": { "type": "Point", "coordinates": [ 73.8529767, 18.5299759 ] } },
{ "type": "Feature", "properties": { "ccd_name": "Providing / repairing of storm water chamber and cover", "com_location": "gaNesha peTha pAMgULa ALI , Pune, Maharashtra" }, "geometry": { "type": "Point", "coordinates": [ 73.8786239, 18.5246091 ] } },
{ "type": "Feature", "properties": { "ccd_name": "No water as per time table", "com_location": "Chandrangan society, opp chundai mata mandir, ambegoan khurd, Pune, Maharashtra" }, "geometry": { "type": "Point", "coordinates": [ 73.8398665, 18.4421235 ] } },
{ "type": "Feature", "properties": { "ccd_name": "Pipeline/Valve Leakage of PMC line", "com_location": "Lokmanay bank, shanti niketan soc magarpatta road, Pune, Maharashtra" }, "geometry": { "type": "Point", "coordinates": [ 73.9280258, 18.5069007 ] } },
{ "type": "Feature", "properties": { "ccd_name": "Clearing Water Logging on Road", "com_location": "pinnac colony, karvenagar, Pune, Maharashtra" }, "geometry": { "type": "Point", "coordinates": [ 73.8240163, 18.4888186 ] } },
{ "type": "Feature", "properties": { "ccd_name": "NO water Supply", "com_location": "mohana nagara sosAyaTI bANera  biTavAIja bilDiMga puNe 45" }, "geometry": { "type": "Point", "coordinates": [ 73.9531189, 18.5646495 ] } },
{ "type": "Feature", "properties": { "ccd_name": "Others (Water Supply)", "com_location": "survey no 165 , janata vasahat , malwadi hadapsar ,near yash hospital , pune 28" }, "geometry": { "type": "Point", "coordinates": [ 73.9380895, 18.5102388 ] } },
{ "type": "Feature", "properties": { "ccd_name": "NO water Supply", "com_location": "gujar vasti, hanuman mandir mage, lane no 6 , utkarsh society katraj , Pune, Maharashtra" }, "geometry": { "type": "Point", "coordinates": [ 73.866809, 18.4446781 ] } },
{ "type": "Feature", "properties": { "ccd_name": "Others (Water Supply)", "com_location": "Nilaya Society Lane No 18 Near Mauli Garden Mangal Karalaya Katraj, Pune, Maharashtra" }, "geometry": { "type": "Point", "coordinates": [ 73.8680931, 18.4504029 ] } },
{ "type": "Feature", "properties": { "ccd_name": "NO water Supply", "com_location": "Kiran Shubharambh, Near Balewadi Phata, Behind Ganesh Datta Mandir, Baner, Pune -411045" }, "geometry": { "type": "Point", "coordinates": [ 73.7819203, 18.5653509 ] } },
{ "type": "Feature", "properties": { "ccd_name": "NO water Supply", "com_location": "1406, rf wing, venktesh grafity keshav nagar mundhwa, Pune, Maharashtra" }, "geometry": { "type": "Point", "coordinates": [ 73.9440608, 18.5272126 ] } },
{ "type": "Feature", "properties": { "ccd_name": "Others (Water Supply)", "com_location": "PS angan cooperative housing society magarpatta road hadapsar pune 411013" }, "geometry": { "type": "Point", "coordinates": [ 73.928559, 18.50785 ] } },
{ "type": "Feature", "properties": { "ccd_name": "Pipeline/Valve Leakage of PMC line", "com_location": "in front of citron showroom (achlare olympia building) pashan side highway baner, Pune, Maharashtra" }, "geometry": { "type": "Point", "coordinates": [ 73.7708115, 18.5535872 ] } },
{ "type": "Feature", "properties": { "ccd_name": "Others (Water Supply)", "com_location": "renuka mata mandir road,keshavnagar,mundhwa pune 411036\t" }, "geometry": { "type": "Point", "coordinates": [ 73.9455133, 18.5323802 ] } },
{ "type": "Feature", "properties": { "ccd_name": "Pipeline/Valve Leakage of PMC line", "com_location": "Khond Arcade.Jaihind collection .State Bank of India.Parihar Chouk.Aundh pune.7." }, "geometry": { "type": "Point", "coordinates": [ 73.8106464, 18.5665512 ] } },
{ "type": "Feature", "properties": { "ccd_name": "Low water pressure to Individual", "com_location": "789 Bhandarkar Road (End of Prabhat Road Lane 7, Near Bank of Baroda)\r\nDeccan Gymkhana \r\nPune 411004" }, "geometry": { "type": "Point", "coordinates": [ 73.836263, 18.5180765 ] } },
{ "type": "Feature", "properties": { "ccd_name": "Others (Water Supply)", "com_location": "Sunder niwas karve putala chowk hotel shital shejari kothrud pune 38." }, "geometry": { "type": "Point", "coordinates": [ 73.8166801, 18.5104618 ] } },
{ "type": "Feature", "properties": { "ccd_name": "Others (Water Supply)", "com_location": "sahajanad society bhag 2 gandhi bhavan mage kotheud\t, Pune, Maharashtra" }, "geometry": { "type": "Point", "coordinates": [ 73.8048082, 18.5012572 ] } },
{ "type": "Feature", "properties": { "ccd_name": "Providing / repairing of storm water chamber and cover", "com_location": "Dhanvantari colony, wadgaonsgeri , Pune, Maharashtra" }, "geometry": { "type": "Point", "coordinates": [ 73.9264296, 18.5452729 ] } },