{
"type": "FeatureCollection",
"name": "2022_Solid_Waste_Management",
"crs": { "type": "name", "properties": { "name": "urn:ogc:def:crs:OGC:1.3:CRS84" } },
"features": [
{ "type": "Feature", "properties": { "ccd_name": "Others (SWM )", "com_location": "somavAra peTha saMta gADage mahArAja dharmashALA shejArI, Pune, Maharashtra" }, "geometry": { "type": "Point", "coordinates": [ 73.8786239, 18.5246091 ] } },
{ "type": "Feature", "properties": { "ccd_name": "Others (SWM )", "com_location": "Padmavati to Taljai Road, Pune, Maharashtra" }, "geometry": { "type": "Point", "coordinates": [ 73.8447438, 18.4766796 ] } },
{ "type": "Feature", "properties": { "ccd_name": "Mosquito nuisance/Fogging", "com_location": "Rajas Society, House Number 175, Lane 10. , Pune, Maharashtra" }, "geometry": { "type": "Point", "coordinates": [ 73.8665954, 18.45329 ] } },
{ "type": "Feature", "properties": { "ccd_name": "Others (SWM )", "com_location": "kAtrajachyA talAvAchI, Pune, Maharashtra" }, "geometry": { "type": "Point", "coordinates": [ 73.8786239, 18.5246091 ] } },
{ "type": "Feature", "properties": { "ccd_name": "Others (SWM )", "com_location": "sthaLa jAdhava nagara vaDagAMva budruka Sinhgad road , Pune, Maharashtra" }, "geometry": { "type": "Point", "coordinates": [ 73.8033639, 18.4571619 ] } },
{ "type": "Feature", "properties": { "ccd_name": "Mosquito nuisance/Fogging", "com_location": "Tinseltown Road, Near LMD Chowk, Bavdhan , Pune, Maharashtra" }, "geometry": { "type": "Point", "coordinates": [ 73.7773968, 18.5145022 ] } },
{ "type": "Feature", "properties": { "ccd_name": "Others (SWM )", "com_location": "Tambdi Jogeshwari Temple Lane, Near Appa Balwant Chowk, Pune 411002." }, "geometry": { "type": "Point", "coordinates": [ 73.8549416, 18.5167441 ] } },
{ "type": "Feature", "properties": { "ccd_name": "Others (SWM )", "com_location": "kutumb ph 2 sr.no. 16 jijamata kaman ambegaon pathar pune 46" }, "geometry": { "type": "Point", "coordinates": [ 73.7291049, 18.5943146 ] } },
{ "type": "Feature", "properties": { "ccd_name": "Mosquito nuisance/Fogging", "com_location": "Laxmi Vishnupuram Society, Shivane, Deshmukhwadi, near Swad hotel. 411023., Pune, Maharashtra" }, "geometry": { "type": "Point", "coordinates": [ 73.7795638, 18.4657566 ] } },
{ "type": "Feature", "properties": { "ccd_name": "Others (SWM )", "com_location": " near Terrazza Society off New DP Road, Vidhate Park, Aundh , Pune, Maharashtra" }, "geometry": { "type": "Point", "coordinates": [ 73.7995227, 18.5613793 ] } },
{ "type": "Feature", "properties": { "ccd_name": "Huge littering in open plot / Garbage Dump", "com_location": "Sr no 13 lane no 5 satavwadi Hadapsar, Pune, Maharashtra" }, "geometry": { "type": "Point", "coordinates": [ 73.945416, 18.498873 ] } },
{ "type": "Feature", "properties": { "ccd_name": "Mosquito nuisance/Fogging", "com_location": "Pavsha ganpati mandir, Ganpati matha warje malwadi pune." }, "geometry": { "type": "Point", "coordinates": [ 73.7960297, 18.4753303 ] } },
{ "type": "Feature", "properties": { "ccd_name": "Garbage not lifted from co-authorised collection point / House gully", "com_location": "Umang Homes and Primo Apartments, IVY Estate  prabhag karmank 4 Nagar Road Wagholi Pune   " }, "geometry": { "type": "Point", "coordinates": [ 73.985884, 18.5811069 ] } },
{ "type": "Feature", "properties": { "ccd_name": "Others (SWM )", "com_location": "Anant chintan bunglow.    ...pol 16 Soumitra society pune 38" }, "geometry": { "type": "Point", "coordinates": [ 73.8786239, 18.5246091 ] } },
{ "type": "Feature", "properties": { "ccd_name": "Mosquito nuisance/Fogging", "com_location": "6D surashrI apArTameMTa\r\nsarvhe  naMbara 127 (pArTa)chaitanya nagarI puDhe ANi sTarliMga homsa shejArI\r\nvAraje, puNe 411058" }, "geometry": { "type": "Point", "coordinates": [ 73.8077192, 18.4834485 ] } },
{ "type": "Feature", "properties": { "ccd_name": "Others (SWM )", "com_location": "Open ground opposite flower valley, Wanowrie 411940., Pune, Maharashtra" }, "geometry": { "type": "Point", "coordinates": [ 73.899972, 18.4895413 ] } },
{ "type": "Feature", "properties": { "ccd_name": "Mosquito nuisance/Fogging", "com_location": "35 Ashok Nagar near bank of Baroda, Range hills road Pune 411007. " }, "geometry": { "type": "Point", "coordinates": [ 73.8370312, 18.5428554 ] } },
{ "type": "Feature", "properties": { "ccd_name": "Others (SWM )", "com_location": "dAvalabhakata bilDara shejArI gallIta\r\nghorapaDe peTha411042, Pune, Maharashtra" }, "geometry": { "type": "Point", "coordinates": [ 73.8662917, 18.5019469 ] } },
{ "type": "Feature", "properties": { "ccd_name": "Others (SWM )", "com_location": "timber market plot no 30/4,near timber bhavan 411042 bhavani peth , Pune, Maharashtra" }, "geometry": { "type": "Point", "coordinates": [ 73.8683074, 18.5084233 ] } },
{ "type": "Feature", "properties": { "ccd_name": "Others (SWM )", "com_location": " sutardara road, opposite shefalika heights, kothrud, Pune, Maharashtra" }, "geometry": { "type": "Point", "coordinates": [ 73.8077025, 18.5133405 ] } },
{ "type": "Feature", "properties": { "ccd_name": "Odour(Foul smell) from Garbage Depot", "com_location": "Lane 19,khese park, lohegaon, pune " }, "geometry": { "type": "Point", "coordinates": [ 73.91109, 18.5915981 ] } },
{ "type": "Feature", "properties": { "ccd_name": "Others (SWM )", "com_location": "Shankar Rao Lohane Marg, Gultekadi, Pune, Maharashtra 411037" }, "geometry": { "type": "Point", "coordinates": [ 73.8706183, 18.4964739 ] } },
{ "type": "Feature", "properties": { "ccd_name": "Others (SWM )", "com_location": "Samwidhaan Chowk at Wanowrie, Pune, Maharashtra" }, "geometry": { "type": "Point", "coordinates": [ 73.9022655, 18.4848031 ] } },
{ "type": "Feature", "properties": { "ccd_name": "Mosquito nuisance/Fogging", "com_location": "rAvasAheba paTavardhana vidyAlayAta shALechyA parisarAta, Pune, Maharashtra" }, "geometry": { "type": "Point", "coordinates": [ 73.8177118, 18.5101967 ] } },
{ "type": "Feature", "properties": { "ccd_name": "Others (SWM )", "com_location": "pauDa rastyAvarIla, paramahaMsa nagara yethe utsava kAryAlaya , Pune, Maharashtra" }, "geometry": { "type": "Point", "coordinates": [ 73.806308, 18.5091038 ] } },
{ "type": "Feature", "properties": { "ccd_name": "Others (SWM )", "com_location": "Mundhwa Brige mein signal , and meain chowk, Pune, Maharashtra" }, "geometry": { "type": "Point", "coordinates": [ 73.8535649, 18.443699 ] } },
{ "type": "Feature", "properties": { "ccd_name": "Burning of Garbage/Plastic waste", "com_location": "Fountain Road Kharadi,PUNE." }, "geometry": { "type": "Point", "coordinates": [ 73.9465805, 18.5581689 ] } },
{ "type": "Feature", "properties": { "ccd_name": "Others (SWM )", "com_location": " 1002 budhwar peth, Pune, Maharashtra" }, "geometry": { "type": "Point", "coordinates": [ 73.857976, 18.5155404 ] } },
{ "type": "Feature", "properties": { "ccd_name": "Garbage not lifted from co-authorised collection point / House gully", "com_location": "Roads near Aditya Shagun Bavdhan, Pune, Maharashtra" }, "geometry": { "type": "Point", "coordinates": [ 73.778881, 18.51904 ] } },
{ "type": "Feature", "properties": { "ccd_name": "Others (SWM )", "com_location": "Guru Nanak nagr kashe vadi teliphpn Alshan sundri Aptment, Pune, Maharashtra" }, "geometry": { "type": "Point", "coordinates": [ 73.8720449, 18.5002144 ] } },
{ "type": "Feature", "properties": { "ccd_name": "Others (SWM )", "com_location": "patra chawl Shivneri nagar Kondhwa khurd Pune 48 " }, "geometry": { "type": "Point", "coordinates": [ 73.8893174, 18.478314 ] } },
{ "type": "Feature", "properties": { "ccd_name": "Others (SWM )", "com_location": "aniketa sosAyaTI naMbara 1\r\nbibavevADI roDa \r\ni esa Aya ha spiTala javaLa, Pune, Maharashtra" }, "geometry": { "type": "Point", "coordinates": [ 73.8662571, 18.4811488 ] } },
{ "type": "Feature", "properties": { "ccd_name": "Garbage vehicle not arrived", "com_location": "NAVNATH SANKUL CO OPP HSG SOC, PLOT NONO.16, GOKUL NAGAR, DHANORI, Pune, Maharashtra" }, "geometry": { "type": "Point", "coordinates": [ 73.8904217, 18.5915011 ] } },
{ "type": "Feature", "properties": { "ccd_name": "Others (SWM )", "com_location": "414 nArAyaNa peTha muMjAbA boLa beDekara misaLa javaLa, Pune, Maharashtra" }, "geometry": { "type": "Point", "coordinates": [ 73.8786239, 18.5246091 ] } },
{ "type": "Feature", "properties": { "ccd_name": "Mosquito nuisance/Fogging", "com_location": "near the river on DP road between Rajaram and Mhatre bridge, Pune, Maharashtra" }, "geometry": { "type": "Point", "coordinates": [ 73.835895, 18.5046186 ] } },
{ "type": "Feature", "properties": { "ccd_name": "Others (SWM )", "com_location": "bhImasena joshI gArDana lena, Pune, Maharashtra" }, "geometry": { "type": "Point", "coordinates": [ 73.7912656, 18.5112625 ] } },
{ "type": "Feature", "properties": { "ccd_name": "Others (SWM )", "com_location": "padmAvatI maMdirA samorIla bAjUsa, Pune, Maharashtra" }, "geometry": { "type": "Point", "coordinates": [ 73.8580788, 18.476679 ] } },
{ "type": "Feature", "properties": { "ccd_name": "Burning of Garbage/Plastic waste", "com_location": "Back Side of Ayaan Society, Ubalenagar, Wagholi 412207 , Pune, Maharashtra" }, "geometry": { "type": "Point", "coordinates": [ 73.9604123, 18.572897 ] } },
{ "type": "Feature", "properties": { "ccd_name": "Others (SWM )", "com_location": "Ex-Serviceman Society Paud Road, Pune, Maharashtra" }, "geometry": { "type": "Point", "coordinates": [ 73.8075018, 18.5074187 ] } },
{ "type": "Feature", "properties": { "ccd_name": "Others (SWM )", "com_location": " dhAyarI - Narhe veshIvarIla  Dran kaMpanIchyA ithe , Pune, Maharashtra" }, "geometry": { "type": "Point", "coordinates": [ 73.8154894, 18.4467117 ] } },
{ "type": "Feature", "properties": { "ccd_name": "Huge littering in open plot / Garbage Dump", "com_location": "Sr no 165 , Hadpsar malwadi sade satra nali tod , near sadhana school , datt mandir , samaj mandir , pune 28 ," }, "geometry": { "type": "Point", "coordinates": [ 73.9499426, 18.5127385 ] } },
{ "type": "Feature", "properties": { "ccd_name": "Garbage lorry not covered", "com_location": "ambegaon bk  lenovo aprtment singhgad clg campus area, Pune, Maharashtra" }, "geometry": { "type": "Point", "coordinates": [ 73.8363126, 18.4681946 ] } },
{ "type": "Feature", "properties": { "ccd_name": "Burning of Garbage/Plastic waste", "com_location": "Aditya Apartments, Shri Sant Mamasaheb Despandey Path, Mahalakshmi Society, Varshanand Society, Anand Nagar, Pune, Maharashtra 411051" }, "geometry": { "type": "Point", "coordinates": [ 73.8241427, 18.4779027 ] } },
{ "type": "Feature", "properties": { "ccd_name": "Mosquito nuisance/Fogging", "com_location": "Area: Swapna Samrat CHS, behind Sanjivani Hospital, Erandawana Karve Road Pune411004" }, "geometry": { "type": "Point", "coordinates": [ 73.8360652, 18.5101329 ] } },
{ "type": "Feature", "properties": { "ccd_name": "Others (SWM )", "com_location": "nAlA, mhashIchA goThayA javaLa vaDagAMva braduka kAtraja bAyapAsa puNe 41." }, "geometry": { "type": "Point", "coordinates": [ 73.865238, 18.4529322 ] } },
{ "type": "Feature", "properties": { "ccd_name": "Others (SWM )", "com_location": "109, Lake Town Rd, Shree Mahalaxmi Nagar, Chaitraban, Mahalaxmi Nagar, Katraj, Pune, Maharashtra 411037" }, "geometry": { "type": "Point", "coordinates": [ 73.8638158, 18.4593443 ] } },
{ "type": "Feature", "properties": { "ccd_name": "Others (SWM )", "com_location": "nAnA peTha dhAnya bAjAra Latitude and longitude of location Google Maps 18 30'50.5\"N 73 51'57.4\"E, Pune, Maharashtra" }, "geometry": { "type": "Point", "coordinates": [ 73.8653833, 18.5144313 ] } },
{ "type": "Feature", "properties": { "ccd_name": "Others (SWM )", "com_location": "576 Shaniwar Peth, outside of gulab kunj apartment Pune 411030" }, "geometry": { "type": "Point", "coordinates": [ 73.8502546, 18.5167921 ] } },
{ "type": "Feature", "properties": { "ccd_name": "Others (SWM )", "com_location": "Gera north and Global lifestyle nearby RBL. , Pune, Maharashtra" }, "geometry": { "type": "Point", "coordinates": [ 73.9526792, 18.5554499 ] } },
{ "type": "Feature", "properties": { "ccd_name": "Others (SWM )", "com_location": "Sahakar Nagar near dashbhuja chintaman mandir.\r\nThe site located just adjacent to ChimnaChimney  Park (also known as NanaNani Park), Pune, Maharashtra" }, "geometry": { "type": "Point", "coordinates": [ 73.8786239, 18.5246091 ] } },
{ "type": "Feature", "properties": { "ccd_name": "Others (SWM )", "com_location": " NH 48 at Katraj to Balewadi Highway Road area., Pune, Maharashtra" }, "geometry": { "type": "Point", "coordinates": [ 73.7628901, 18.577109 ] } },
{ "type": "Feature", "properties": { "ccd_name": "Mosquito nuisance/Fogging", "com_location": "Sai Water Crest Building Modak Wasti Jambhulwadi Road Ambegaon Khurd Pune 411046" }, "geometry": { "type": "Point", "coordinates": [ 73.842957, 18.431656 ] } },
{ "type": "Feature", "properties": { "ccd_name": "Others (SWM )", "com_location": "Baner pashan link road next to patanjali store, Pune, Maharashtra" }, "geometry": { "type": "Point", "coordinates": [ 73.7912895, 18.5491346 ] } },
{ "type": "Feature", "properties": { "ccd_name": "Mosquito nuisance/Fogging", "com_location": "opp to Moneta hotel, Apte Road, Pune (Corner of Apte Rd -Kulkarni Path).\t" }, "geometry": { "type": "Point", "coordinates": [ 73.8442624, 18.5218082 ] } },
{ "type": "Feature", "properties": { "ccd_name": "Mosquito nuisance/Fogging", "com_location": "Sarita nagari,phase 2,sinhagad road pune 411030." }, "geometry": { "type": "Point", "coordinates": [ 73.8394284, 18.4967703 ] } },
{ "type": "Feature", "properties": { "ccd_name": "Others (SWM )", "com_location": "Phursungi gavat maruti mandira samor, Pune, Maharashtra" }, "geometry": { "type": "Point", "coordinates": [ 73.9784573, 18.4726725 ] } },
{ "type": "Feature", "properties": { "ccd_name": "Mosquito nuisance/Fogging", "com_location": "1170/7 ravenu colony behind jm temple temp , Pune, Maharashtra" }, "geometry": { "type": "Point", "coordinates": [ 73.8496543, 18.5276931 ] } },
{ "type": "Feature", "properties": { "ccd_name": "Others (SWM )", "com_location": "516 jaya hiMda maMDaLa shukravAra peTha shAhUpurA puNe-411002" }, "geometry": { "type": "Point", "coordinates": [ 73.8611812, 18.512489 ] } },
{ "type": "Feature", "properties": { "ccd_name": "Others (SWM )", "com_location": "Thite vasti lane no 11 kharadi, Pune, Maharashtra" }, "geometry": { "type": "Point", "coordinates": [ 73.9386746, 18.5435887 ] } },
{ "type": "Feature", "properties": { "ccd_name": "Others (SWM )", "com_location": " shahani navind hind high school New modikhana -Bhavani peth Pune-411041." }, "geometry": { "type": "Point", "coordinates": [ 73.8767095, 18.5069711 ] } },
{ "type": "Feature", "properties": { "ccd_name": "Others (SWM )", "com_location": "lane no 3 madhav nagar near city hospital dhanori pune 15." }, "geometry": { "type": "Point", "coordinates": [ 73.9059491, 18.5938372 ] } },
{ "type": "Feature", "properties": { "ccd_name": "Others (SWM )", "com_location": "Urban Nirvana entry gate, Kharadi., Pune, Maharashtra" }, "geometry": { "type": "Point", "coordinates": [ 73.950856, 18.5629944 ] } },
{ "type": "Feature", "properties": { "ccd_name": "Mosquito nuisance/Fogging", "com_location": "Sundar Nagar, Near Janata sahakari bank, Katraj - Kondhwa Road, Katraj-411046, Pune, Maharashtra" }, "geometry": { "type": "Point", "coordinates": [ 73.8662859, 18.4484084 ] } },
{ "type": "Feature", "properties": { "ccd_name": "Others (SWM )", "com_location": "Front of Godrej Infinity main gate., Pune, Maharashtra" }, "geometry": { "type": "Point", "coordinates": [ 73.9332071, 18.5151482 ] } },
{ "type": "Feature", "properties": { "ccd_name": "Others (SWM )", "com_location": "Atur Park colony and Sant Meera Road over bridge in Koregaon Park , Pune, Maharashtra" }, "geometry": { "type": "Point", "coordinates": [ 73.8858769, 18.5345684 ] } },
{ "type": "Feature", "properties": { "ccd_name": "Others (SWM )", "com_location": "after warje flyover, Pune, Maharashtra" }, "geometry": { "type": "Point", "coordinates": [ 73.8039931, 18.4805747 ] } },
{ "type": "Feature", "properties": { "ccd_name": "Others (SWM )", "com_location": "mIrA baMgalA bAhera,\r\nnavajavAna mitra maMDaLa samora,\r\nglobala ha spiTala samorIla boLAta,\r\n129/1 a dattavADI, \r\npuNe 30" }, "geometry": { "type": "Point", "coordinates": [ 73.8407347, 18.4999847 ] } },
{ "type": "Feature", "properties": { "ccd_name": "Others (SWM )", "com_location": "nAdabrahma sosAyaTI vAraje yethe rAhato AmachyA kuMpaNAlA lAgUna jo ka.cna la roDa Ahe tethe, Pune, Maharashtra" }, "geometry": { "type": "Point", "coordinates": [ 73.8786239, 18.5246091 ] } },
{ "type": "Feature", "properties": { "ccd_name": "Others (SWM )", "com_location": "A Wing , Garud Heritage, Ganesh Baug , B/H seasons Hotel , Aundh , Pune - 411007" }, "geometry": { "type": "Point", "coordinates": [ 73.8033903, 18.5535625 ] } },
{ "type": "Feature", "properties": { "ccd_name": "Others (SWM )", "com_location": "Gagan Adira, Opp. Lexicon School, Wagholi, Pune." }, "geometry": { "type": "Point", "coordinates": [ 73.9967764, 18.5879393 ] } },
{ "type": "Feature", "properties": { "ccd_name": "Garbage not lifted from co-authorised collection point / House gully", "com_location": "Sasane Nagar. Hadapsar. B10 Vardhaman township.., Pune, Maharashtra" }, "geometry": { "type": "Point", "coordinates": [ 73.9345123, 18.4919993 ] } },
{ "type": "Feature", "properties": { "ccd_name": "Others (SWM )", "com_location": "sArasa bAga kaDUna mitramaMDaLa chaukA kaDe yeNARyA rastyAvarIla, Pune, Maharashtra" }, "geometry": { "type": "Point", "coordinates": [ 73.8786239, 18.5246091 ] } },
{ "type": "Feature", "properties": { "ccd_name": "Others (SWM )", "com_location": "lena 11, kamala pArka, dhAnorI (yeravaDA kShetriya kAryAlaya) yethIla , Pune, Maharashtra" }, "geometry": { "type": "Point", "coordinates": [ 73.8528419, 18.5128563 ] } },
{ "type": "Feature", "properties": { "ccd_name": "Odour(Foul smell) from Garbage Depot", "com_location": "Health cump chal no 4 near veer lahuji mirtha mandal wadarwadi Pune 16 " }, "geometry": { "type": "Point", "coordinates": [ 73.829134, 18.5337531 ] } },
{ "type": "Feature", "properties": { "ccd_name": "Others (SWM )", "com_location": "ThikANa : bAjIrAva roDa. nAtubAga gaNapatI chauka. pAyatAna shoes hyA dukAnAsamora, Pune, Maharashtra" }, "geometry": { "type": "Point", "coordinates": [ 73.8416424, 18.5248325 ] } },
{ "type": "Feature", "properties": { "ccd_name": "Dog Nuisance", "com_location": "harI nagara bishapa shAle samora kalyANI nagara puNe14 " }, "geometry": { "type": "Point", "coordinates": [ 73.9119182, 18.5595501 ] } },
{ "type": "Feature", "properties": { "ccd_name": "Others (SWM )", "com_location": "62, swedganga society, warje, pune 411058." }, "geometry": { "type": "Point", "coordinates": [ 73.8063392, 18.4839547 ] } },
{ "type": "Feature", "properties": { "ccd_name": "Garbage not lifted from co-authorised collection point / House gully", "com_location": "j~nAnadIpa sosAyaTI apojiTa TU suMdara AkAsha magarapaTTA roDa nobala ha spiTala puNe 410013" }, "geometry": { "type": "Point", "coordinates": [ 73.9531189, 18.5646495 ] } },
{ "type": "Feature", "properties": { "ccd_name": "Mosquito nuisance/Fogging", "com_location": "Bon Vivant Hanuman nagar keshav nagar Pune" }, "geometry": { "type": "Point", "coordinates": [ 73.9505407, 18.5339815 ] } },
{ "type": "Feature", "properties": { "ccd_name": "Others (SWM )", "com_location": "Kunal Paradise Prayagdham Lane, near Lonkar Garden off Salunke Vihar road opposite Bliss Bakery, Kondhwa khurd Pune 411048" }, "geometry": { "type": "Point", "coordinates": [ 73.9023773, 18.4793753 ] } },
{ "type": "Feature", "properties": { "ccd_name": "Others (SWM )", "com_location": "aNNAbhAU sAThe vasAhata sahakAranagara 2 puNe" }, "geometry": { "type": "Point", "coordinates": [ 73.8445048, 18.4871825 ] } },
{ "type": "Feature", "properties": { "ccd_name": "Others (SWM )", "com_location": "near Anand Vidya Niketan , vimannagar, next to Swami Vivekananda garden., Pune, Maharashtra" }, "geometry": { "type": "Point", "coordinates": [ 73.8805099, 18.4601557 ] } },
{ "type": "Feature", "properties": { "ccd_name": "Mosquito nuisance/Fogging", "com_location": "sufalam bunglow,446 gokhale cross road,opp,jain boys hostel,model colany pune 411016" }, "geometry": { "type": "Point", "coordinates": [ 73.832605, 18.5356552 ] } },
{ "type": "Feature", "properties": { "ccd_name": "Burning of Garbage/Plastic waste", "com_location": "Amba Nagri, Dhanori Road, Pune, Maharashtra" }, "geometry": { "type": "Point", "coordinates": [ 73.883322, 18.580102 ] } },
{ "type": "Feature", "properties": { "ccd_name": "Others (SWM )", "com_location": "near the Oxford Village gate. , Pune, Maharashtra" }, "geometry": { "type": "Point", "coordinates": [ 73.902973, 18.4841992 ] } },
{ "type": "Feature", "properties": { "ccd_name": "Huge littering in open plot / Garbage Dump", "com_location": " Dhayari fyi&a!, Pune, Maharashtra" }, "geometry": { "type": "Point", "coordinates": [ 73.8101999, 18.4471444 ] } },
{ "type": "Feature", "properties": { "ccd_name": "Others (SWM )", "com_location": "sirama kaMpanI javaLIla AnaMdanagara mALavADI haDapasara , Pune, Maharashtra" }, "geometry": { "type": "Point", "coordinates": [ 73.9429625, 18.5024103 ] } },
{ "type": "Feature", "properties": { "ccd_name": "Others (SWM )", "com_location": ".D V POL 16SOUMITRA SOCIETY ERANDAWANA PUNE 411038." }, "geometry": { "type": "Point", "coordinates": [ 73.8314091, 18.5086429 ] } },
{ "type": "Feature", "properties": { "ccd_name": "Mosquito nuisance/Fogging", "com_location": "bhosalenagara - AyasIesa ka lanI yethIla luNAvata klAsika sosAyaTI, Pune, Maharashtra" }, "geometry": { "type": "Point", "coordinates": [ 73.9531189, 18.5646495 ] } },
{ "type": "Feature", "properties": { "ccd_name": "Others (SWM )", "com_location": "37 nyU TiMbara mArkeTa samora rAmoshI geTa nyU polIsa chaukI , Pune, Maharashtra" }, "geometry": { "type": "Point", "coordinates": [ 73.8786239, 18.5246091 ] } },
{ "type": "Feature", "properties": { "ccd_name": "Mosquito nuisance/Fogging", "com_location": "Rahul Pabalkar\r\n43/4, Manik Soctiory, Srikrishna Nagar, S B Road, Pune 411016" }, "geometry": { "type": "Point", "coordinates": [ 73.8304309, 18.5263461 ] } },
{ "type": "Feature", "properties": { "ccd_name": "Others (SWM )", "com_location": "sa . na. 15 va 16 AMbegAva bU, Pune, Maharashtra" }, "geometry": { "type": "Point", "coordinates": [ 73.8786239, 18.5246091 ] } },
{ "type": "Feature", "properties": { "ccd_name": "Mosquito nuisance/Fogging", "com_location": "Pebbles 2, behind DSK Toyota, Bavdhan, Pune - 411021" }, "geometry": { "type": "Point", "coordinates": [ 73.7682201, 18.5225529 ] } },
{ "type": "Feature", "properties": { "ccd_name": "Others (SWM )", "com_location": "sthaLa: Tinsala TAUna roDa -LMD chaukAjavaLa, bAvadhana, puNe 21 Complaint No pls" }, "geometry": { "type": "Point", "coordinates": [ 73.8786239, 18.5246091 ] } },
{ "type": "Feature", "properties": { "ccd_name": "Others (SWM )", "com_location": ", Mahalaxmi Sweet Centre, Mahadev nagar, Manjari road, Hadapsar ,Pune." }, "geometry": { "type": "Point", "coordinates": [ 73.9547527, 18.5072704 ] } },
{ "type": "Feature", "properties": { "ccd_name": "Others (SWM )", "com_location": " in Apex Classic society, Kasturba B wing, Vishrantwadi. , Pune, Maharashtra" }, "geometry": { "type": "Point", "coordinates": [ 73.8816016, 18.5740438 ] } },
{ "type": "Feature", "properties": { "ccd_name": "Pig Nuisance", "com_location": "Anshul Eva Housing Society, \r\nSiddhartha Nagar, \r\nNear Pune Mumbai Highway Opposite CNGPump. \r\nBavdhan Budruk, " }, "geometry": { "type": "Point", "coordinates": [ 73.7723174, 18.5130149 ] } },
{ "type": "Feature", "properties": { "ccd_name": "Burning of Garbage/Plastic waste", "com_location": "Unity complex near telephone exchange Santosh Nagar katraj pune 411046" }, "geometry": { "type": "Point", "coordinates": [ 73.8575461, 18.4449302 ] } },
{ "type": "Feature", "properties": { "ccd_name": "Others (SWM )", "com_location": " Pune Vaikunth Crematorium on the river" }, "geometry": { "type": "Point", "coordinates": [ 73.8786239, 18.5246091 ] } },
{ "type": "Feature", "properties": { "ccd_name": "Mosquito nuisance/Fogging", "com_location": "Kumar prithvi soc achal nagar building no B4 flat no 304 kondhwa pune 48" }, "geometry": { "type": "Point", "coordinates": [ 73.8796707, 18.467306 ] } },
{ "type": "Feature", "properties": { "ccd_name": "Garbage vehicle not arrived", "com_location": "laxmi anand society,near shivaji chowk,mahalunge pune 411045" }, "geometry": { "type": "Point", "coordinates": [ 73.726593200000011, 18.5965891 ] } },
{ "type": "Feature", "properties": { "ccd_name": "Others (SWM )", "com_location": "Royal Enfield Showroom chowk, Right Bhusari Colony , pune" }, "geometry": { "type": "Point", "coordinates": [ 73.7902284, 18.5086364 ] } },
{ "type": "Feature", "properties": { "ccd_name": "Garbage not lifted from co-authorised collection point / House gully", "com_location": "228 ravivAra peTha,bhAMDe ALI, Pune, Maharashtra" }, "geometry": { "type": "Point", "coordinates": [ 73.8590648, 18.5128038 ] } },
{ "type": "Feature", "properties": { "ccd_name": "Mosquito nuisance/Fogging", "com_location": "Samrat heights BX9 sukhsagar Nagar, near bhagani nicadita bank, pune 411046,\r\n" }, "geometry": { "type": "Point", "coordinates": [ 73.867405, 18.4567461 ] } },
{ "type": "Feature", "properties": { "ccd_name": "Others (SWM )", "com_location": "shrIdhara ka lanI lena naMbara 1 karve nagara puNe " }, "geometry": { "type": "Point", "coordinates": [ 73.821579, 18.492174 ] } },
{ "type": "Feature", "properties": { "ccd_name": "Garbage not lifted from co-authorised collection point / House gully", "com_location": "Eisha Empire Society, Chintamani Nagar, Handewadi Road, Hadapsar, Pune - 411028" }, "geometry": { "type": "Point", "coordinates": [ 73.9327903, 18.485932 ] } },
{ "type": "Feature", "properties": { "ccd_name": "Others (SWM )", "com_location": "sAI vRRiMdAvana, Apale ghara sosAyaTI, kharADI, Pune, Maharashtra" }, "geometry": { "type": "Point", "coordinates": [ 73.9531189, 18.5646495 ] } },
{ "type": "Feature", "properties": { "ccd_name": "Others (SWM )", "com_location": "Samarth Plaza, Tapkir Gali, Budhwar Peth, Pune, Maharashtra 411002\t" }, "geometry": { "type": "Point", "coordinates": [ 73.85656680000001, 18.5176795 ] } },
{ "type": "Feature", "properties": { "ccd_name": "Others (SWM )", "com_location": "plot no 16, navmitra society , near bharat jyoti bus stop bibewadi pune 37 " }, "geometry": { "type": "Point", "coordinates": [ 73.8590195, 18.4719942 ] } },
{ "type": "Feature", "properties": { "ccd_name": "Pig Nuisance", "com_location": "mastan hotel katraj, katraj bus stop, \r\nkAtraja ghATa kaDUna yeNArA rAstA jo puDhe kAtraja basa sTa pa lA joDato, Pune, Maharashtra" }, "geometry": { "type": "Point", "coordinates": [ 73.8585738, 18.4470023 ] } },
{ "type": "Feature", "properties": { "ccd_name": "Others (SWM )", "com_location": "shivaratna ka lanI mAMjarI phArma shevaLavADI marAThI shALechyA pAThImAgIla parisara shevALa vADI gAva puNe 412307" }, "geometry": { "type": "Point", "coordinates": [ 73.9853801, 18.5234503 ] } },
{ "type": "Feature", "properties": { "ccd_name": "Others (SWM )", "com_location": " #FCRoad \r\n, Pune, Maharashtra" }, "geometry": { "type": "Point", "coordinates": [ 73.8415607, 18.5174911 ] } },
{ "type": "Feature", "properties": { "ccd_name": "Others (SWM )", "com_location": "dhyari fata navale school narhe shyari road 411041 , Pune, Maharashtra" }, "geometry": { "type": "Point", "coordinates": [ 73.8216698, 18.4459988 ] } },
{ "type": "Feature", "properties": { "ccd_name": "Others (SWM )", "com_location": "1015/2 shivAji nagara puNe 16 dipa baMgalA javaLa svastika kA.clani samora " }, "geometry": { "type": "Point", "coordinates": [ 73.8335781, 18.5302296 ] } },
{ "type": "Feature", "properties": { "ccd_name": "Others (SWM )", "com_location": "VIdya bhavan school,outside of maruti temple,model colony,411016., Pune, Maharashtra" }, "geometry": { "type": "Point", "coordinates": [ 73.8387601, 18.5310587 ] } },
{ "type": "Feature", "properties": { "ccd_name": "Others (SWM )", "com_location": " siMhagaDa ka leja parisara va sa . na. 15 va 16 AMbegAva bU , Pune, Maharashtra" }, "geometry": { "type": "Point", "coordinates": [ 73.8786239, 18.5246091 ] } },
{ "type": "Feature", "properties": { "ccd_name": "Mosquito nuisance/Fogging", "com_location": " Sai Niwas Soc. located at Undri Chowk, Pune, Maharashtra" }, "geometry": { "type": "Point", "coordinates": [ 73.9139372, 18.444086 ] } },
{ "type": "Feature", "properties": { "ccd_name": "Others (SWM )", "com_location": "Rakshak Nagar, on side of road in front of WTC Kharadi, Pune, Maharashtra 411014" }, "geometry": { "type": "Point", "coordinates": [ 73.9485287, 18.5526296 ] } },
{ "type": "Feature", "properties": { "ccd_name": "Burning of Garbage/Plastic waste", "com_location": "shubhashrI Ta vara yevalevADI, Pune, Maharashtra" }, "geometry": { "type": "Point", "coordinates": [ 73.9051185, 18.4462026 ] } },
{ "type": "Feature", "properties": { "ccd_name": "Others (SWM )", "com_location": "Eisha Empire handewadi road chintamani nagar hadapsar  pune 411028" }, "geometry": { "type": "Point", "coordinates": [ 73.9328645, 18.4860394 ] } },
{ "type": "Feature", "properties": { "ccd_name": "Others (SWM )", "com_location": "Indiranagar chowk, mahesh society, bibvewadi , Pune, Maharashtra" }, "geometry": { "type": "Point", "coordinates": [ 73.8650064, 18.4713375 ] } },
{ "type": "Feature", "properties": { "ccd_name": "Mosquito nuisance/Fogging", "com_location": "66 rashmiraj apartment rambhau kamble path shivajinagar pune 411005" }, "geometry": { "type": "Point", "coordinates": [ 73.8497332, 18.5344106 ] } },
{ "type": "Feature", "properties": { "ccd_name": "Others (SWM )", "com_location": "Nav chaitanya Mandal Highne Khurd Near Canol Bridge, Pune, Maharashtra" }, "geometry": { "type": "Point", "coordinates": [ 73.8738112, 18.5375557 ] } },
{ "type": "Feature", "properties": { "ccd_name": "Others (SWM )", "com_location": "Girija society Nala paud road., Pune, Maharashtra" }, "geometry": { "type": "Point", "coordinates": [ 73.7060383, 18.5054044 ] } },
{ "type": "Feature", "properties": { "ccd_name": "Huge littering in open plot / Garbage Dump", "com_location": "puNe aMtararAShTrIya vimAnataLa roDa, siMbAyosisa la  skUla shejArI, vimAna nagara, puNe 411014. " }, "geometry": { "type": "Point", "coordinates": [ 73.9145123, 18.5595679 ] } },
{ "type": "Feature", "properties": { "ccd_name": "Others (SWM )", "com_location": "Under the bridge, BTK road Pin 411001, Pune, Maharashtra" }, "geometry": { "type": "Point", "coordinates": [ 73.8760153, 18.5296029 ] } },
{ "type": "Feature", "properties": { "ccd_name": "Huge littering in open plot / Garbage Dump", "com_location": "762 raviwar peth,fadake haud,wajardehi chowk , babusheth wada,pune 411002\r\n" }, "geometry": { "type": "Point", "coordinates": [ 73.8600822, 18.5159655 ] } },
{ "type": "Feature", "properties": { "ccd_name": "Others (SWM )", "com_location": "bANera ethe bAlAjI pArka, Pune, Maharashtra" }, "geometry": { "type": "Point", "coordinates": [ 73.8786239, 18.5246091 ] } },
{ "type": "Feature", "properties": { "ccd_name": "Others (SWM )", "com_location": "vanAjha , kotharUDa basa sTa pa javaLa, Pune, Maharashtra" }, "geometry": { "type": "Point", "coordinates": [ 73.8786239, 18.5246091 ] } },
{ "type": "Feature", "properties": { "ccd_name": "Mosquito nuisance/Fogging", "com_location": "Zagade Park Sr No 93/22/B Mundhawa Road, Pune - 411 036" }, "geometry": { "type": "Point", "coordinates": [ 73.9250305, 18.535419 ] } },
{ "type": "Feature", "properties": { "ccd_name": "Others (SWM )", "com_location": "NEX Global Garbage Processing Plant,Sus Road, Baner, Pune-21" }, "geometry": { "type": "Point", "coordinates": [ 73.7695665, 18.5480049 ] } },
{ "type": "Feature", "properties": { "ccd_name": "Others (SWM )", "com_location": " opposite Jasraj Complex, 43, Mumbai Pune Road, Bopodi, Pune 411003" }, "geometry": { "type": "Point", "coordinates": [ 73.8378458, 18.570336 ] } },
{ "type": "Feature", "properties": { "ccd_name": "Odour(Foul smell) from Garbage Depot", "com_location": "Concrete road in Mhsoba mandir samor manjari budruk 412307, Pune, Maharashtra" }, "geometry": { "type": "Point", "coordinates": [ 73.9601377, 18.5288098 ] } },
{ "type": "Feature", "properties": { "ccd_name": "Huge littering in open plot / Garbage Dump", "com_location": "Handewadi , Yash Ravi Park Society - Samruddhi Society Road, Pune, Maharashtra" }, "geometry": { "type": "Point", "coordinates": [ 73.9356425, 18.4851865 ] } },
{ "type": "Feature", "properties": { "ccd_name": "Mosquito nuisance/Fogging", "com_location": "aTariyA grAMDe sa sAyayaTI hAMDevADI, Pune, Maharashtra" }, "geometry": { "type": "Point", "coordinates": [ 73.92992, 18.45609 ] } },
{ "type": "Feature", "properties": { "ccd_name": "Others (SWM )", "com_location": "jijAmAtA udyAna samora pa.ma.sI Arogya koThI Ahe budhavAra peTha tithe , Pune, Maharashtra" }, "geometry": { "type": "Point", "coordinates": [ 73.8168295, 18.4656064 ] } },
{ "type": "Feature", "properties": { "ccd_name": "Others (SWM )", "com_location": "Resident of Paranjape Abhiruchi Parisar Dhayri. , Pune, Maharashtra" }, "geometry": { "type": "Point", "coordinates": [ 73.8185642, 18.4503829 ] } },
{ "type": "Feature", "properties": { "ccd_name": "Burning of Garbage/Plastic waste", "com_location": "Green Fields Arena, Koregaon Park Annexe, Mundhwa, Pune, Maharashtra 411036" }, "geometry": { "type": "Point", "coordinates": [ 73.9203672, 18.5377234 ] } },
{ "type": "Feature", "properties": { "ccd_name": "Others (SWM )", "com_location": "near Gujarat dairy, shyaam sundar apartment, Salisbury park pune 37" }, "geometry": { "type": "Point", "coordinates": [ 73.87572, 18.4926135 ] } },
{ "type": "Feature", "properties": { "ccd_name": "Burning of Garbage", "com_location": "Shivaji chauk,  Near math talim, Laxmi Aanand Society,  Mahalunge , Pune, Maharashtra" }, "geometry": { "type": "Point", "coordinates": [ 73.8723456, 18.4985279 ] } },
{ "type": "Feature", "properties": { "ccd_name": "Pig Nuisance", "com_location": "Sr no 10Mahatama phule vasahat saswad road Hadapsar gadital 411028, Pune, Maharashtra" }, "geometry": { "type": "Point", "coordinates": [ 73.9798256, 18.4652002 ] } },
{ "type": "Feature", "properties": { "ccd_name": "Mosquito nuisance/Fogging", "com_location": "Flat no B 402 ,jubilation society , near vidyashilp school , yewalewadi pune 411048" }, "geometry": { "type": "Point", "coordinates": [ 73.8992089, 18.4364609 ] } },
{ "type": "Feature", "properties": { "ccd_name": "Others (SWM )", "com_location": "dhAyarI. , 411041\nlena 30-31 B, limaye nagara javaLa. , Pune, Maharashtra" }, "geometry": { "type": "Point", "coordinates": [ 73.8101999, 18.4471444 ] } },
{ "type": "Feature", "properties": { "ccd_name": "Huge littering in open plot / Garbage Dump", "com_location": "Sr no 128 Prashant society vidya valley road sus gaon pune 411021" }, "geometry": { "type": "Point", "coordinates": [ 73.7523103, 18.5491168 ] } },
{ "type": "Feature", "properties": { "ccd_name": "Others (SWM )", "com_location": "shivAjInagara madhIla rAmadAsa udyAnA javaLa, Pune, Maharashtra" }, "geometry": { "type": "Point", "coordinates": [ 73.822121, 18.6325898 ] } },
{ "type": "Feature", "properties": { "ccd_name": "Others (SWM )", "com_location": "Global Lifestyle (Kharadi) road towards Gera Ground, Pune, Maharashtra" }, "geometry": { "type": "Point", "coordinates": [ 73.952925, 18.557412 ] } },
{ "type": "Feature", "properties": { "ccd_name": "Others (SWM )", "com_location": " behind Kale hospital bibwewadi Pune " }, "geometry": { "type": "Point", "coordinates": [ 73.8617868, 18.4792364 ] } },
{ "type": "Feature", "properties": { "ccd_name": "Others (SWM )", "com_location": "331 ghorapaDI peTha dalavAlA pla Ta, Pune, Maharashtra" }, "geometry": { "type": "Point", "coordinates": [ 73.8632984, 18.504433 ] } },
{ "type": "Feature", "properties": { "ccd_name": "Others (SWM )", "com_location": "Happy Colony lane no 1 happy colony sabhagruha janara road kothrud pune 411038" }, "geometry": { "type": "Point", "coordinates": [ 73.8158299, 18.495787 ] } },
{ "type": "Feature", "properties": { "ccd_name": "Others (SWM )", "com_location": "From sndt pedestrian bridge to Deshpande puram to Abhinav English school, erandawane.\r\n , Pune, Maharashtra" }, "geometry": { "type": "Point", "coordinates": [ 73.8296173, 18.5094507 ] } },
{ "type": "Feature", "properties": { "ccd_name": "Others (SWM )", "com_location": "pattA - pAvara hAUsa, phurasuMgI , haDapasara vibhAga, Pune, Maharashtra" }, "geometry": { "type": "Point", "coordinates": [ 73.9784573, 18.4726725 ] } },
{ "type": "Feature", "properties": { "ccd_name": "Pig Nuisance", "com_location": "rivara vhyU resiDensI, niMbaja nagara , Pune, Maharashtra" }, "geometry": { "type": "Point", "coordinates": [ 73.8786239, 18.5246091 ] } },
{ "type": "Feature", "properties": { "ccd_name": "Others (SWM )", "com_location": "8/231 pIemasI ka lanI vAkaDevADI shrI ChatrapatI saMbhAjI nagara puNe -03" }, "geometry": { "type": "Point", "coordinates": [ 73.8543766, 18.4711596 ] } },
{ "type": "Feature", "properties": { "ccd_name": "Mosquito nuisance/Fogging", "com_location": "F-1 bldg. Girija Shankar Vihar Karvenagar., Pune, Maharashtra" }, "geometry": { "type": "Point", "coordinates": [ 73.8217262, 18.4974333 ] } },
{ "type": "Feature", "properties": { "ccd_name": "Others (SWM )", "com_location": "opposite the Bharat petrol pump..Tilak road, Pune, Maharashtra" }, "geometry": { "type": "Point", "coordinates": [ 73.851707, 18.5067947 ] } },
{ "type": "Feature", "properties": { "ccd_name": "Others (SWM )", "com_location": "Gokulnagar, Dhanori, Pune 411023." }, "geometry": { "type": "Point", "coordinates": [ 73.8904198, 18.5889569 ] } },
{ "type": "Feature", "properties": { "ccd_name": "Others (SWM )", "com_location": " Sidharth Nagar dumped between Sunflower Society and Our society ie Grafikon Paradise Phase 2 , Pune, Maharashtra" }, "geometry": { "type": "Point", "coordinates": [ 73.902776, 18.478717 ] } },
{ "type": "Feature", "properties": { "ccd_name": "Others (SWM )", "com_location": "padmAvatI maMdira sahakAranagara puNe 9\r\npadmAvatI maMdirA samora roDa" }, "geometry": { "type": "Point", "coordinates": [ 73.8547641, 18.4772901 ] } },
{ "type": "Feature", "properties": { "ccd_name": "Others (SWM )", "com_location": "imArata kramAMka 28.lokamAnya nagara, puNe 30." }, "geometry": { "type": "Point", "coordinates": [ 73.8399359, 18.5055102 ] } },
{ "type": "Feature", "properties": { "ccd_name": "Others (SWM )", "com_location": "754 budhwar peth Tapkir galli Panacea lights Pune 411002" }, "geometry": { "type": "Point", "coordinates": [ 73.8589809, 18.5182179 ] } },
{ "type": "Feature", "properties": { "ccd_name": "Others (SWM )", "com_location": "Canopus society Boat club road, Pune, Maharashtra" }, "geometry": { "type": "Point", "coordinates": [ 73.8785877, 18.5393718 ] } },
{ "type": "Feature", "properties": { "ccd_name": "Others (SWM )", "com_location": " D Mart Heritage Mall Mohammedwadi Ward 42 Hadapsar, Pune, Maharashtra" }, "geometry": { "type": "Point", "coordinates": [ 73.919636, 18.516588 ] } },
{ "type": "Feature", "properties": { "ccd_name": "Others (SWM )", "com_location": "9/4 dyanesh society malwadi pune 58 " }, "geometry": { "type": "Point", "coordinates": [ 73.7975357, 18.479989 ] } },
{ "type": "Feature", "properties": { "ccd_name": "Mosquito nuisance/Fogging", "com_location": "364 nilkanth apartment opp gadge baba math,narpatgiri chowk,somwar peth,pune 411011." }, "geometry": { "type": "Point", "coordinates": [ 73.8673064, 18.5227968 ] } },
{ "type": "Feature", "properties": { "ccd_name": "Mosquito nuisance/Fogging", "com_location": "Kausar baugh housing society, D35 Arhaan manzil, opp zam zam hotel, Pune, Maharashtra" }, "geometry": { "type": "Point", "coordinates": [ 73.8925654, 18.4747682 ] } },
{ "type": "Feature", "properties": { "ccd_name": "Others (SWM )", "com_location": "Open Ground behind the T-point junction on Fountain road Kharadi,  near Beryl-Cheryl-City vista., Pune, Maharashtra" }, "geometry": { "type": "Point", "coordinates": [ 73.981489, 18.570631 ] } },
{ "type": "Feature", "properties": { "ccd_name": "Others (SWM )", "com_location": "Lane no 5/2 sanjay park nana nani park viman nagar pune 411032" }, "geometry": { "type": "Point", "coordinates": [ 73.9038625, 18.5695448 ] } },
{ "type": "Feature", "properties": { "ccd_name": "Others (SWM )", "com_location": "dhAyarI, barAMgaNI maLA, puNe -41" }, "geometry": { "type": "Point", "coordinates": [ 73.798389, 18.4499366 ] } },
{ "type": "Feature", "properties": { "ccd_name": "Odour(Foul smell) from Garbage Depot", "com_location": "Goodwill valencia munjaba wasti sr. No 23/1., Pune, Maharashtra" }, "geometry": { "type": "Point", "coordinates": [ 73.8958954, 18.5931122 ] } },
{ "type": "Feature", "properties": { "ccd_name": "Mosquito nuisance/Fogging", "com_location": "9/4,dnyanesh society,malwadi,pune 411058.\t" }, "geometry": { "type": "Point", "coordinates": [ 73.7975357, 18.479989 ] } },
{ "type": "Feature", "properties": { "ccd_name": "Mosquito nuisance/Fogging", "com_location": "Road number 5 Ganesh Nagar gupthel 411031, Pune, Maharashtra" }, "geometry": { "type": "Point", "coordinates": [ 73.8619534, 18.586706 ] } },
{ "type": "Feature", "properties": { "ccd_name": "Others (SWM )", "com_location": "Lane between Cream Craver and Rolls Bliss Bakery Near Salunke Vihar Telephone exchange building Shinde Path  Second left after Lonkar garden Coming from Salunke Vihar Road, Kondhwa Khurd Pune  411048." }, "geometry": { "type": "Point", "coordinates": [ 73.9013856, 18.4788385 ] } },
{ "type": "Feature", "properties": { "ccd_name": "Burning of Garbage/Plastic waste", "com_location": "DSK to sinhagad road factory area, barangani mala Dhayari Pune" }, "geometry": { "type": "Point", "coordinates": [ 73.8020415, 18.449861 ] } },
{ "type": "Feature", "properties": { "ccd_name": "Mosquito nuisance/Fogging", "com_location": "pattA: \r\n1066/ba, snehakamala bilDiMga,\r\ngokhale kra sa roDa, ma Dela ka lanI, shivAjI nagara, oma supara mArkeTa chauka, puNe 411016" }, "geometry": { "type": "Point", "coordinates": [ 73.8299107, 18.5289843 ] } },
{ "type": "Feature", "properties": { "ccd_name": "Others (SWM )", "com_location": "At Bhagwati Maestro society near LMD Chauk \r\nBavdhan, Pune, Maharashtra" }, "geometry": { "type": "Point", "coordinates": [ 73.7766248, 18.5118757 ] } },
{ "type": "Feature", "properties": { "ccd_name": "Others (SWM )", "com_location": "koregaon park mundhwa main road gaikwad CNG pump\r\nhotel carnival , Pune, Maharashtra" }, "geometry": { "type": "Point", "coordinates": [ 73.8939748, 18.5362084 ] } },
{ "type": "Feature", "properties": { "ccd_name": "Others (SWM )", "com_location": "ayur care clinic shop no 2, anand nivas, warje naka shahanupatel school road , parivar mart samor 58, Pune, Maharashtra" }, "geometry": { "type": "Point", "coordinates": [ 73.8110279, 18.4840972 ] } },
{ "type": "Feature", "properties": { "ccd_name": "Others (SWM )", "com_location": "Raisoni College of Engineering, near Abashri residency and Samarth Residency, Wagholi, Pune - 412207." }, "geometry": { "type": "Point", "coordinates": [ 73.9810287, 18.5736496 ] } },
{ "type": "Feature", "properties": { "ccd_name": "Mosquito nuisance/Fogging", "com_location": "Chintamani Industrial Bldg at Ramtekadi Industrial Area\r\nPune 411013" }, "geometry": { "type": "Point", "coordinates": [ 73.9181167, 18.4970607 ] } },
{ "type": "Feature", "properties": { "ccd_name": "Others (SWM )", "com_location": "Vidhisha society nation 52 restraunt smor karvenagar, Pune, Maharashtra" }, "geometry": { "type": "Point", "coordinates": [ 73.8210435, 18.4873599 ] } },
{ "type": "Feature", "properties": { "ccd_name": "Garbage not lifted from co-authorised collection point / House gully", "com_location": "shivAjI hAUsiMga sosAyaTI senApatI bApaTa roDa puNe 411016" }, "geometry": { "type": "Point", "coordinates": [ 73.8297966, 18.5278148 ] } },
{ "type": "Feature", "properties": { "ccd_name": "Others (SWM )", "com_location": "kale padal, shivtej nagar road, prabhag 26 railway station behind hadapsar  pune " }, "geometry": { "type": "Point", "coordinates": [ 73.9444837, 18.4783441 ] } },
{ "type": "Feature", "properties": { "ccd_name": "Others (SWM )", "com_location": "shivadarshana chALa kramAMka 116, bauddha vihArAjavaLa, puNe 09" }, "geometry": { "type": "Point", "coordinates": [ 73.8786239, 18.5246091 ] } },
{ "type": "Feature", "properties": { "ccd_name": "Others (SWM )", "com_location": "nagar road, ramvadi pune novotel hotel 411014" }, "geometry": { "type": "Point", "coordinates": [ 73.9079682, 18.5565183 ] } },
{ "type": "Feature", "properties": { "ccd_name": "Others (SWM )", "com_location": "vishvakarmA maMdirAchyA mAge pApaDe vastI haDapasara phurasuMgI puNe 2" }, "geometry": { "type": "Point", "coordinates": [ 73.9470036, 18.4822335 ] } },
{ "type": "Feature", "properties": { "ccd_name": "Others (SWM )", "com_location": "SAHEED ASHOK KAMATE MARG, GANGADHAN, PUNE." }, "geometry": { "type": "Point", "coordinates": [ 73.874985, 18.4788691 ] } },
{ "type": "Feature", "properties": { "ccd_name": "Mosquito nuisance/Fogging", "com_location": "chAMdavADI phurasuMgI, old canal, Pune, Maharashtra" }, "geometry": { "type": "Point", "coordinates": [ 73.9784573, 18.4726725 ] } },
{ "type": "Feature", "properties": { "ccd_name": "Others (SWM )", "com_location": "pune nagar highway , nesr Sanskrito school" }, "geometry": { "type": "Point", "coordinates": [ 73.9372291, 18.5626928 ] } },
{ "type": "Feature", "properties": { "ccd_name": "Others (SWM )", "com_location": "pancard club rd vasant vihar bunglow soc lane next to krishna medica baner., Pune, Maharashtra" }, "geometry": { "type": "Point", "coordinates": [ 73.7730342, 18.5599115 ] } },
{ "type": "Feature", "properties": { "ccd_name": "Others (SWM )", "com_location": " on open plot next to 'Kode' building, opposite crystal gardens society New baner pashan link road,pune." }, "geometry": { "type": "Point", "coordinates": [ 73.7961989, 18.5501534 ] } },
{ "type": "Feature", "properties": { "ccd_name": "Others (SWM )", "com_location": "Shri Home Housing Society, Wadgaon Sheri, Pune, Maharashtra 411014." }, "geometry": { "type": "Point", "coordinates": [ 73.9234903, 18.5565424 ] } },
{ "type": "Feature", "properties": { "ccd_name": "Others (SWM )", "com_location": "11/3 varard Vinayak height bank of marashtra Ambegaon budruk sihngad collage , Pune, Maharashtra" }, "geometry": { "type": "Point", "coordinates": [ 73.8358514, 18.460711 ] } },
{ "type": "Feature", "properties": { "ccd_name": "Garbage not lifted from co-authorised collection point / House gully", "com_location": "SERVE NO 2/2/1, anna choudhari nagar warje bridge shejari warje pune 58" }, "geometry": { "type": "Point", "coordinates": [ 73.8045677, 18.4800844 ] } },
{ "type": "Feature", "properties": { "ccd_name": "Others (SWM )", "com_location": "Prestige Avenue Baner Pashan link road Pune. \r\nNear Athashri old age home." }, "geometry": { "type": "Point", "coordinates": [ 73.790726, 18.5470153 ] } },
{ "type": "Feature", "properties": { "ccd_name": "Mosquito nuisance/Fogging", "com_location": "shubhaMkarotI apArTameMTa yethe hA.cTela TipsI DakalIMga bAra , Pune, Maharashtra" }, "geometry": { "type": "Point", "coordinates": [ 73.8786239, 18.5246091 ] } },
{ "type": "Feature", "properties": { "ccd_name": "Others (SWM )", "com_location": "lena naMbara 7 tukArAma nagara kharADI puNe 14 " }, "geometry": { "type": "Point", "coordinates": [ 73.9411813, 18.5511703 ] } },
{ "type": "Feature", "properties": { "ccd_name": "Others (SWM )", "com_location": "1211, shubash Nagar shukrawar peth, Pune" }, "geometry": { "type": "Point", "coordinates": [ 73.8562708, 18.5065494 ] } },
{ "type": "Feature", "properties": { "ccd_name": "Others (SWM )", "com_location": "Aditya  shagun bavdhan, Pune, Maharashtra" }, "geometry": { "type": "Point", "coordinates": [ 73.778881, 18.51904 ] } },
{ "type": "Feature", "properties": { "ccd_name": "Others (SWM )", "com_location": "502/a Shanwar pet next to dsk chintamani in front of ronak grafic, Pune, Maharashtra" }, "geometry": { "type": "Point", "coordinates": [ 73.8525118, 18.5165187 ] } },
{ "type": "Feature", "properties": { "ccd_name": "Others (SWM )", "com_location": "AmachyA da kiMgsa ve sahakArI saMsthA maryAdita pattA- ghorapaDI bI TI kavaDe roDa. yA sosAyaTI chyA parisarAta puNe-411001" }, "geometry": { "type": "Point", "coordinates": [ 73.9063575, 18.5202604 ] } },
{ "type": "Feature", "properties": { "ccd_name": "Others (SWM )", "com_location": "lakShmI gaMgA resiDensI RRiShikesha gArDana sosAyaTI sAI virATa sosAyaTI ,suMdara sahavAsa pheja TU sosAyaTI,, Pune, Maharashtra" }, "geometry": { "type": "Point", "coordinates": [ 73.8786239, 18.5246091 ] } },
{ "type": "Feature", "properties": { "ccd_name": "Others (SWM )", "com_location": "bharatakuMja naM 2, pla.cATa naM 67 , airaMDavaNA puNe 411038 " }, "geometry": { "type": "Point", "coordinates": [ 73.8006103, 18.5028895 ] } },
{ "type": "Feature", "properties": { "ccd_name": "Others (SWM )", "com_location": "Panchavati Society, S.No. 14 Chavannagar, Dhanakwadi, Pune 411043." }, "geometry": { "type": "Point", "coordinates": [ 73.8544034, 18.4713196 ] } },
{ "type": "Feature", "properties": { "ccd_name": "Pig Nuisance", "com_location": "Parnakuti chouk Yerwada, Pune, Maharashtra" }, "geometry": { "type": "Point", "coordinates": [ 73.8790119, 18.5462074 ] } },
{ "type": "Feature", "properties": { "ccd_name": "Mosquito nuisance/Fogging", "com_location": "Felicita co-operative housing society.\r\nBaner Pashan link road\r\nBaner Pune 411045" }, "geometry": { "type": "Point", "coordinates": [ 73.7908849, 18.546572 ] } },
{ "type": "Feature", "properties": { "ccd_name": "Others (SWM )", "com_location": "outside Jay Kay Society, 322/27 Shankar Shet Road, Pune 42" }, "geometry": { "type": "Point", "coordinates": [ 73.8709538, 18.5024933 ] } },
{ "type": "Feature", "properties": { "ccd_name": "Odour(Foul smell) from Garbage Depot", "com_location": "( prabhAta roDa gallI 14, DhekaNe chauka , mena roDa , bhAratI nivAsa sosAyaTI , puNe 411004) " }, "geometry": { "type": "Point", "coordinates": [ 73.8348683, 18.515729 ] } },
{ "type": "Feature", "properties": { "ccd_name": "Others (SWM )", "com_location": "Sasane Nagar to Dangmali Mala Road, Pune, Maharashtra" }, "geometry": { "type": "Point", "coordinates": [ 73.9280629, 18.4948254 ] } },
{ "type": "Feature", "properties": { "ccd_name": "Burning of Garbage/Plastic waste", "com_location": "Anand nagar,near raviraj terrace,sukhsagar nagar,katraj kondhwa road,pune 411046." }, "geometry": { "type": "Point", "coordinates": [ 73.870149, 18.4529621 ] } },
{ "type": "Feature", "properties": { "ccd_name": "Others (SWM )", "com_location": "ocation all over Ex-serviceman colony paud Road Pune 38" }, "geometry": { "type": "Point", "coordinates": [ 73.8119, 18.5091 ] } },
{ "type": "Feature", "properties": { "ccd_name": "Others (SWM )", "com_location": "Last bus stop, Keshav Nagar, Mundhwa , pune. " }, "geometry": { "type": "Point", "coordinates": [ 73.9440646, 18.5323976 ] } },
{ "type": "Feature", "properties": { "ccd_name": "Others (SWM )", "com_location": "DP ward 411001. SWM. Naylor rd., Pune, Maharashtra" }, "geometry": { "type": "Point", "coordinates": [ 73.8846598, 18.5339488 ] } },
{ "type": "Feature", "properties": { "ccd_name": "Garbage not lifted from co-authorised collection point / House gully", "com_location": "regent Plaza, baner pashan link road., Pune, Maharashtra" }, "geometry": { "type": "Point", "coordinates": [ 73.7930752, 18.5523154 ] } },
{ "type": "Feature", "properties": { "ccd_name": "Burning of Garbage/Plastic waste", "com_location": "Location  OPP Ruby police commissioner office.. 411001, Pune, Maharashtra" }, "geometry": { "type": "Point", "coordinates": [ 73.8757651, 18.5219542 ] } },
{ "type": "Feature", "properties": { "ccd_name": "Others (SWM )", "com_location": "Sr.No 159 A,Shahaji Raje Co op hos,Bhosale Nagar,Hadapsar.Pune 28" }, "geometry": { "type": "Point", "coordinates": [ 73.9449972, 18.4876627 ] } },
{ "type": "Feature", "properties": { "ccd_name": "Others (SWM )", "com_location": "opposite samsung showroom on baner pashan link road, Pune, Maharashtra" }, "geometry": { "type": "Point", "coordinates": [ 73.7968491, 18.5534473 ] } },
{ "type": "Feature", "properties": { "ccd_name": "Pig Nuisance", "com_location": "vAgholI ubALe nagara lena naMbara 29/ 30  kirANA a.NDa janarala sToarsa puNe 412207" }, "geometry": { "type": "Point", "coordinates": [ 73.9705571, 18.5854369 ] } },
{ "type": "Feature", "properties": { "ccd_name": "Pig Nuisance", "com_location": "Area: Bibwewadi \r\nThe road between lake town society and Nancy Lake Homes., Pune, Maharashtra" }, "geometry": { "type": "Point", "coordinates": [ 73.8604862, 18.4583351 ] } },
{ "type": "Feature", "properties": { "ccd_name": "Others (SWM )", "com_location": "keshav nagar Mundhwa behind keshav nagar busstop, Pune, Maharashtra" }, "geometry": { "type": "Point", "coordinates": [ 73.9459274, 18.5348078 ] } },
{ "type": "Feature", "properties": { "ccd_name": "Others (SWM )", "com_location": "bakorI phATA vAgholI , Pune, Maharashtra" }, "geometry": { "type": "Point", "coordinates": [ 73.9967144, 18.5900482 ] } },
{ "type": "Feature", "properties": { "ccd_name": "Others (SWM )", "com_location": "Vardhaman Square, Pandhari Nagar, Kharadi., Pune, Maharashtra" }, "geometry": { "type": "Point", "coordinates": [ 73.9414409, 18.5518947 ] } },
{ "type": "Feature", "properties": { "ccd_name": "Garbage vehicle not arrived", "com_location": "sr.no 51,plot no 176,near vasant shingre marathe school,jay maharasta chowk,bhairav nagar ,dhanori pune 411015\r\n" }, "geometry": { "type": "Point", "coordinates": [ 73.886745, 18.5835942 ] } },
{ "type": "Feature", "properties": { "ccd_name": "Others (SWM )", "com_location": "Ganatra row & pent house \r\nOpp shilpa park \r\nBibwewadi kondhwa road Marketyard Pune 411037" }, "geometry": { "type": "Point", "coordinates": [ 73.8687705, 18.4823544 ] } },
{ "type": "Feature", "properties": { "ccd_name": "Pig Nuisance", "com_location": "Shinde Pool, Shivane Pune 411023" }, "geometry": { "type": "Point", "coordinates": [ 73.7875212, 18.4686606 ] } },
{ "type": "Feature", "properties": { "ccd_name": "Others (SWM )", "com_location": "girija shankar society meenatai Thackery vashat karve nagar , Pune, Maharashtra" }, "geometry": { "type": "Point", "coordinates": [ 73.8225386, 18.4958686 ] } },
{ "type": "Feature", "properties": { "ccd_name": "Others (SWM )", "com_location": "on footpath, Vishwa indane gas agency , Subhash Nagar, Manjari road\r\nHadapsar, Pune." }, "geometry": { "type": "Point", "coordinates": [ 73.9537299, 18.5022707 ] } },
{ "type": "Feature", "properties": { "ccd_name": "Others (SWM )", "com_location": "Progressive Model Housing Society, Sr.No.314A/5,Plot No.12 Laxmi Colony Co.op.society, Pune - Solapur Rd, North Hadapsar, Hadapsar, Pune, Maharashtra 411028" }, "geometry": { "type": "Point", "coordinates": [ 73.9376641, 18.5009029 ] } },
{ "type": "Feature", "properties": { "ccd_name": "Mosquito nuisance/Fogging", "com_location": "Plot no 8 \r\nKaumudi hsg.society \r\nShriram bunglow \r\nYerandwane \r\nPune 411004" }, "geometry": { "type": "Point", "coordinates": [ 73.8667388, 18.5116559 ] } },
{ "type": "Feature", "properties": { "ccd_name": "Burning of Garbage/Plastic waste", "com_location": "28/2 b.t kawade road near canal , Pune, Maharashtra" }, "geometry": { "type": "Point", "coordinates": [ 73.907246, 18.507287 ] } },
{ "type": "Feature", "properties": { "ccd_name": "Others (SWM )", "com_location": " in Shree Krupa Sahakari Grihanirman Sanstha Maryadit, 498 Somwar Peth, Pune - 411011." }, "geometry": { "type": "Point", "coordinates": [ 73.8627075, 18.5197993 ] } },
{ "type": "Feature", "properties": { "ccd_name": "Others (SWM )", "com_location": "nyu ahire gAva , Pune, Maharashtra" }, "geometry": { "type": "Point", "coordinates": [ 73.7183639, 18.4543986 ] } },
{ "type": "Feature", "properties": { "ccd_name": "Mosquito nuisance/Fogging", "com_location": "klAsika ka mpleksa puNe sAtArA roDa ahilyAdevI chauka apojhiTa peTrola paMpa ke ke mArkeTa roDa dhanakavaDI puNe" }, "geometry": { "type": "Point", "coordinates": [ 73.8581095, 18.4608016 ] } },
{ "type": "Feature", "properties": { "ccd_name": "Mosquito nuisance/Fogging", "com_location": "G D Madgulkar garden located in Bavdhan, near LMD chauk, Next to Megh Malhar Raga Condominium, Pune, Maharashtra" }, "geometry": { "type": "Point", "coordinates": [ 73.7759118, 18.5114494 ] } },
{ "type": "Feature", "properties": { "ccd_name": "Others (SWM )", "com_location": "Raste wada chowk raste wada post office , apola theater javal somwar peth pune 411011." }, "geometry": { "type": "Point", "coordinates": [ 73.8645274, 18.5197852 ] } },
{ "type": "Feature", "properties": { "ccd_name": "Burning of Garbage/Plastic waste", "com_location": "narhe road , near sharvil society , below nala narhe , Pune, Maharashtra" }, "geometry": { "type": "Point", "coordinates": [ 73.8193609, 18.4507965 ] } },
{ "type": "Feature", "properties": { "ccd_name": "Mosquito nuisance/Fogging", "com_location": "niyara navagraha mArutI maMdira sarve naMbara 128 niyara jaya hanumAna taruNa maMDaLa niyara hInA bheTalI dattavADI puNe 30" }, "geometry": { "type": "Point", "coordinates": [ 73.8204255, 18.5034547 ] } },
{ "type": "Feature", "properties": { "ccd_name": "Other Animals Nuisance", "com_location": "Fortune 108,akemi business school road,wakad,near swapnalok complex, pune 411057." }, "geometry": { "type": "Point", "coordinates": [ 73.743659600000015, 18.6096956 ] } },
{ "type": "Feature", "properties": { "ccd_name": "Mosquito nuisance/Fogging", "com_location": "riverview Residency f and g wing Nimbajnagar ,off Sun City road, behind sun orbit Anandnagar pune -411041" }, "geometry": { "type": "Point", "coordinates": [ 73.813994, 18.4746835 ] } },
{ "type": "Feature", "properties": { "ccd_name": "Mosquito nuisance/Fogging", "com_location": "Atria Housing Society. Lane No. 13. Munjaba Wasti. Vishrantwadi., Pune, Maharashtra" }, "geometry": { "type": "Point", "coordinates": [ 73.8953834, 18.5783788 ] } },
{ "type": "Feature", "properties": { "ccd_name": "Others (SWM )", "com_location": "Mohan Nagar Road, Baner 45, Pune, Maharashtra" }, "geometry": { "type": "Point", "coordinates": [ 73.791602, 18.5615836 ] } },
{ "type": "Feature", "properties": { "ccd_name": "Mosquito nuisance/Fogging", "com_location": "Asmita Apartment, Ramganesh Gadkari Path, Yashodatta Housing Society, Kasba Peth, Pune, Maharashtra 411011" }, "geometry": { "type": "Point", "coordinates": [ 73.8574235, 18.5188191 ] } },
{ "type": "Feature", "properties": { "ccd_name": "Pig Nuisance", "com_location": " Tinseltown Road, From Tinseltown Gate-1 to Swami Vivekanand Sports Complex ), Bavdhan, Pune, Maharashtra" }, "geometry": { "type": "Point", "coordinates": [ 73.7989106, 18.6654594 ] } },
{ "type": "Feature", "properties": { "ccd_name": "Others (SWM )", "com_location": "Kumar Primavera Block-B5, Kumar Primavera, B5, Sainath Nagar, Wadgaon Sheri, Pune, Maharashtra 411014" }, "geometry": { "type": "Point", "coordinates": [ 73.9283525, 18.5414363 ] } },
{ "type": "Feature", "properties": { "ccd_name": "Others (SWM )", "com_location": "Address - 1051,New nana peth, near hope hospital ,parmar building, Pune - 411002" }, "geometry": { "type": "Point", "coordinates": [ 73.8701907, 18.5121388 ] } },
{ "type": "Feature", "properties": { "ccd_name": "Mosquito nuisance/Fogging", "com_location": "mukund nagar laxmi narayan talkies, vijay garden society, 411037\r\n, Pune, Maharashtra" }, "geometry": { "type": "Point", "coordinates": [ 73.8834146, 18.5817055 ] } },
{ "type": "Feature", "properties": { "ccd_name": "Pig Nuisance", "com_location": "katraj santosh nagar aai appa mandir rajgad colony opp gauri enterprises katraj , Pune, Maharashtra" }, "geometry": { "type": "Point", "coordinates": [ 73.8707595, 18.4331187 ] } },
{ "type": "Feature", "properties": { "ccd_name": "Others (SWM )", "com_location": "mayUra ka lanI niLU phule 411038 , Pune, Maharashtra" }, "geometry": { "type": "Point", "coordinates": [ 73.8127445, 18.5049483 ] } },
{ "type": "Feature", "properties": { "ccd_name": "Others (SWM )", "com_location": "Opposite Kapil Bakul SAHYADRI Farm Baner Pune" }, "geometry": { "type": "Point", "coordinates": [ 73.7794751, 18.5613554 ] } },
{ "type": "Feature", "properties": { "ccd_name": "Others (SWM )", "com_location": "bhImasena joshI udyAna. ujavI bhusArI, kotharuDa basa DepojavaLa. , Pune, Maharashtra" }, "geometry": { "type": "Point", "coordinates": [ 73.7912656, 18.5112625 ] } },
{ "type": "Feature", "properties": { "ccd_name": "Others (SWM )", "com_location": "Kharadi Hadapsar bypass , Pune, Maharashtra" }, "geometry": { "type": "Point", "coordinates": [ 73.9328599, 18.5324255 ] } },
{ "type": "Feature", "properties": { "ccd_name": "Mosquito nuisance/Fogging", "com_location": "sarve naMbara 7, gallI naMbara 3,sAIdattanagara, taLajAI paThAra, dhanakavaDI, puNe-43" }, "geometry": { "type": "Point", "coordinates": [ 73.847155, 18.46847 ] } },
{ "type": "Feature", "properties": { "ccd_name": "Others (SWM )", "com_location": "YOGI RESIDENCY,PLOT NO 53,SAI GANESH PARK, KHANDVE NAGAR, BEHIND URJA FUEL PUMP, NAGAR ROAD,NEAR KHARADI OCTROI NAKA, PUNE" }, "geometry": { "type": "Point", "coordinates": [ 73.9543829, 18.5732472 ] } },
{ "type": "Feature", "properties": { "ccd_name": "Huge littering in open plot / Garbage Dump", "com_location": "S no.36/2 Pragati Nagar Kale Padal Hadapsar Pune." }, "geometry": { "type": "Point", "coordinates": [ 73.9433299, 18.4869571 ] } },
{ "type": "Feature", "properties": { "ccd_name": "Others (SWM )", "com_location": "opposite Finland school  Lane 3 Kalyaninagar., Pune, Maharashtra" }, "geometry": { "type": "Point", "coordinates": [ 73.9112531, 18.5506627 ] } },
{ "type": "Feature", "properties": { "ccd_name": "Others (SWM )", "com_location": " Varad bungalow, lane no 4,veerbhadra nagar,baner pune 411045. " }, "geometry": { "type": "Point", "coordinates": [ 73.7731753, 18.5620406 ] } },
{ "type": "Feature", "properties": { "ccd_name": "Others (SWM )", "com_location": "104 Shukruwar Peth, Pune, Maharashtra" }, "geometry": { "type": "Point", "coordinates": [ 73.8567002, 18.5083204 ] } },
{ "type": "Feature", "properties": { "ccd_name": "Others (SWM )", "com_location": "Opp Ravindra nath tagore School, Next To SKP Campus, Balewadi, Pune, Maharashtra" }, "geometry": { "type": "Point", "coordinates": [ 73.7725141, 18.5733647 ] } },
{ "type": "Feature", "properties": { "ccd_name": "Mosquito nuisance/Fogging", "com_location": "saMkalpa saMkula sosAyaTI yashodhana sosAyaTI samora vhIAyaTI ka leja javaLa koMDhavA budruka puNe 411048." }, "geometry": { "type": "Point", "coordinates": [ 73.8834221, 18.4585277 ] } },
{ "type": "Feature", "properties": { "ccd_name": "Others (SWM )", "com_location": "55 Bhosle Nagar\r\nPune - 411007" }, "geometry": { "type": "Point", "coordinates": [ 73.8356043, 18.5436283 ] } },
{ "type": "Feature", "properties": { "ccd_name": "Mosquito nuisance/Fogging", "com_location": "Chal kr .41/200, PMC colony no11 janwadi police chowki jawal Pune Maharashtra 411016 " }, "geometry": { "type": "Point", "coordinates": [ 73.8269575, 18.5294283 ] } },
{ "type": "Feature", "properties": { "ccd_name": "Others (SWM )", "com_location": "khaMDobA maMdIra rastA bhairujI sTeshanarI te jaya malhAra kA.Nmpaleksa, amira kA.Nmpeksa  vajana kATyA samorIla rastA kAtraja koDhavA roDa, koDhavA bUdrUka, Pune, Maharashtra" }, "geometry": { "type": "Point", "coordinates": [ 73.8246309, 18.4659813 ] } },
{ "type": "Feature", "properties": { "ccd_name": "Others (SWM )", "com_location": "durgA bilDiMga-sudatta saMkula roDa- siMhagaDa rAstA kShetrIya kAryAlaya, Pune, Maharashtra" }, "geometry": { "type": "Point", "coordinates": [ 73.8528419, 18.5128563 ] } },
{ "type": "Feature", "properties": { "ccd_name": "Others (SWM )", "com_location": "76/ b bhawani peth \r\nOpp jai bhawani bank, Pune, Maharashtra" }, "geometry": { "type": "Point", "coordinates": [ 73.8650577, 18.5105699 ] } },
{ "type": "Feature", "properties": { "ccd_name": "Pig Nuisance", "com_location": "Lane no 3 n 3A, shivshambho nagar, katraj kondhwa road, Katraj, Pune, Maharashtra" }, "geometry": { "type": "Point", "coordinates": [ 73.864005, 18.433413 ] } },
{ "type": "Feature", "properties": { "ccd_name": "Others (SWM )", "com_location": "ockey Showroom near SBI Bavdhan., Pune, Maharashtra" }, "geometry": { "type": "Point", "coordinates": [ 73.7807796, 18.5169718 ] } },
{ "type": "Feature", "properties": { "ccd_name": "Burning of Garbage", "com_location": "Bridge near hotel kaveri.\nNear Siddhakala society., Pune, Maharashtra" }, "geometry": { "type": "Point", "coordinates": [ 73.967581, 18.5766109 ] } },
{ "type": "Feature", "properties": { "ccd_name": "Others (SWM )", "com_location": "Ambedkar chowk ,Aundh\r\n, Pune, Maharashtra" }, "geometry": { "type": "Point", "coordinates": [ 73.8035, 18.560082 ] } },
{ "type": "Feature", "properties": { "ccd_name": "Others (SWM )", "com_location": "Survey no.32, Kondhwa Budruk, Pune" }, "geometry": { "type": "Point", "coordinates": [ 73.891416, 18.478197 ] } },
{ "type": "Feature", "properties": { "ccd_name": "Others (SWM )", "com_location": "shree samarth apartment , davi bhusari colony , near vedh bhavan , kothrud , pune 38" }, "geometry": { "type": "Point", "coordinates": [ 73.7930742, 18.5104837 ] } },
{ "type": "Feature", "properties": { "ccd_name": "Others (SWM )", "com_location": "Near mruntunjay mandir magil baju,back gate road,Plot No. 157/A B C/2, CTS No. 433 And 1129, Kothrud, Karve Road-Kothrud, Pune,411038." }, "geometry": { "type": "Point", "coordinates": [ 73.813863, 18.499015 ] } },
{ "type": "Feature", "properties": { "ccd_name": "Others (SWM )", "com_location": "Opp.incab industries\r\nHadapsar Ind. Estate, Pune, Maharashtra" }, "geometry": { "type": "Point", "coordinates": [ 73.918198, 18.510684 ] } },
{ "type": "Feature", "properties": { "ccd_name": "Pig Nuisance", "com_location": "Siddharth Nagar, Bavdhan, Pune, Maharashtra 411021 (EVA ANSHUL society C wing flat no 704)" }, "geometry": { "type": "Point", "coordinates": [ 73.7715447, 18.5130143 ] } },
{ "type": "Feature", "properties": { "ccd_name": "Pig Nuisance", "com_location": "Shanti Elixir, Keshav Nagar, Mundhwa.., Pune, Maharashtra" }, "geometry": { "type": "Point", "coordinates": [ 73.9449191, 18.5315365 ] } },
{ "type": "Feature", "properties": { "ccd_name": "Huge littering in open plot / Garbage Dump", "com_location": "1508, Bhutkar Haud Marg, Rameshwar Chouk, Shukrawar Peth, Pune, Maharashtra 411002" }, "geometry": { "type": "Point", "coordinates": [ 73.8585664, 18.513608 ] } },
{ "type": "Feature", "properties": { "ccd_name": "Mosquito nuisance/Fogging", "com_location": "Plot no. 15, Khilarewadi, Karve Road, Pune 411004" }, "geometry": { "type": "Point", "coordinates": [ 73.8360253, 18.508307 ] } },
{ "type": "Feature", "properties": { "ccd_name": "Mosquito nuisance/Fogging", "com_location": "Bhavani peth\r\nAmol sagar estate, Pune, Maharashtra" }, "geometry": { "type": "Point", "coordinates": [ 73.8750281, 18.5077064 ] } },
{ "type": "Feature", "properties": { "ccd_name": "Others (SWM )", "com_location": "keshavanagara, muMDhavA maMtrA iMsiMganiyA javaLa\r\n, Pune, Maharashtra" }, "geometry": { "type": "Point", "coordinates": [ 73.8786239, 18.5246091 ] } },
{ "type": "Feature", "properties": { "ccd_name": "Others (SWM )", "com_location": " Rashmi Building, Bombay Sappers Colony, Wadgaon Sheri Pune 14" }, "geometry": { "type": "Point", "coordinates": [ 73.9260622, 18.5607278 ] } },
{ "type": "Feature", "properties": { "ccd_name": "Others (SWM )", "com_location": "vishrAMtavADI basa Depo chauka, gaNeshamaMdira javaLa, Pune, Maharashtra" }, "geometry": { "type": "Point", "coordinates": [ 73.8786239, 18.5246091 ] } },
{ "type": "Feature", "properties": { "ccd_name": "Others (SWM )", "com_location": "Sacchanand hospital kondhwa opp konark puram , Pune, Maharashtra" }, "geometry": { "type": "Point", "coordinates": [ 73.8887449, 18.4708289 ] } },
{ "type": "Feature", "properties": { "ccd_name": "Others (SWM )", "com_location": "amRRita iMTaraprAIjesa shejArachI lena gujara -niMbALakara vADI roDa kAtraja puNe" }, "geometry": { "type": "Point", "coordinates": [ 73.865238, 18.4529322 ] } },
{ "type": "Feature", "properties": { "ccd_name": "Mosquito nuisance/Fogging", "com_location": "21 Jaydev nagar sinhgad road rajaram bridge shantai bungalow pune" }, "geometry": { "type": "Point", "coordinates": [ 73.830962, 18.489475 ] } },
{ "type": "Feature", "properties": { "ccd_name": "Others (SWM )", "com_location": "in Kharadi (Shree Hospital road, Gulmohar City road area etc).\t, Pune, Maharashtra" }, "geometry": { "type": "Point", "coordinates": [ 73.9415406, 18.551713 ] } },
{ "type": "Feature", "properties": { "ccd_name": "Others (SWM )", "com_location": "for wagholi., Pune, Maharashtra" }, "geometry": { "type": "Point", "coordinates": [ 73.9787063, 18.5807719 ] } },
{ "type": "Feature", "properties": { "ccd_name": "Others (SWM )", "com_location": "madhukosh soc to prayeja city canal road , Pune, Maharashtra" }, "geometry": { "type": "Point", "coordinates": [ 73.8148055, 18.4669806 ] } },
{ "type": "Feature", "properties": { "ccd_name": "Others (SWM )", "com_location": "CHS sathe wasti lohegaon,pune." }, "geometry": { "type": "Point", "coordinates": [ 73.9231738, 18.5981819 ] } },
{ "type": "Feature", "properties": { "ccd_name": "Other Animals Nuisance", "com_location": "kiran joshi,narhe hill  society,azad nagar,wanodi pune,40" }, "geometry": { "type": "Point", "coordinates": [ 73.826375, 18.4464732 ] } },
{ "type": "Feature", "properties": { "ccd_name": "Others (SWM )", "com_location": "Vishrantwadi road deccan college chowk army school samor pune" }, "geometry": { "type": "Point", "coordinates": [ 73.8915136, 18.5742663 ] } },
{ "type": "Feature", "properties": { "ccd_name": "Others (SWM )", "com_location": "Sasane Nagar canal Hadapsar Pune" }, "geometry": { "type": "Point", "coordinates": [ 73.9345125, 18.4919553 ] } },
{ "type": "Feature", "properties": { "ccd_name": "Others (SWM )", "com_location": "Behind Balewadi stadium, ShitladeviNagar Road, Equilife Society Road., Pune, Maharashtra" }, "geometry": { "type": "Point", "coordinates": [ 73.7610241, 18.5747407 ] } },
{ "type": "Feature", "properties": { "ccd_name": "Others (SWM )", "com_location": "Spicer College, 411020, Pune, Maharashtra" }, "geometry": { "type": "Point", "coordinates": [ 73.8348652, 18.5621639 ] } },
{ "type": "Feature", "properties": { "ccd_name": "Others (SWM )", "com_location": "near Marvel Fria, Wagholi Lohegaon road. , Pune, Maharashtra" }, "geometry": { "type": "Point", "coordinates": [ 73.9708815, 18.5826315 ] } },
{ "type": "Feature", "properties": { "ccd_name": "Huge littering in open plot / Garbage Dump", "com_location": "\r\nvyaMkaTesha sharvila sosAyaTI sarve naMbara 26 dhAyarI puNe" }, "geometry": { "type": "Point", "coordinates": [ 73.8080869, 18.452169 ] } },
{ "type": "Feature", "properties": { "ccd_name": "Huge littering in open plot / Garbage Dump", "com_location": "Somnath Nagar, Wadgaon Sheri, Pune, Maharashtra 411014" }, "geometry": { "type": "Point", "coordinates": [ 73.9216532, 18.5581835 ] } },
{ "type": "Feature", "properties": { "ccd_name": "Burning of Garbage/Plastic waste", "com_location": "Behind Vishal Leela Society\r\nOpposite to Gulmohar Symphony society\r\nOpp. reliance smart, S. No. 32/3,Kharadi, Pune, Maharashtra" }, "geometry": { "type": "Point", "coordinates": [ 73.932974, 18.5502759 ] } },
{ "type": "Feature", "properties": { "ccd_name": "Huge littering in open plot / Garbage Dump", "com_location": "Plot adjacent to Super Bakery,\r\nSainath Nagar, Wadgaon Sheri, Pune -14" }, "geometry": { "type": "Point", "coordinates": [ 73.9315964, 18.5421433 ] } },
{ "type": "Feature", "properties": { "ccd_name": "Others (SWM )", "com_location": "Lane No 07 Veerbhadra nagar Baner Pune 411045" }, "geometry": { "type": "Point", "coordinates": [ 73.7707854, 18.564439 ] } },
{ "type": "Feature", "properties": { "ccd_name": "Others (SWM )", "com_location": "\r\nAmit plaza, Subhash Nagar ,Manjari road, Hadapsar, Pune." }, "geometry": { "type": "Point", "coordinates": [ 73.9526946, 18.5020819 ] } },
{ "type": "Feature", "properties": { "ccd_name": "Huge littering in open plot / Garbage Dump", "com_location": "bhairav nagar , galli no 7, dhanori road, vishrantwadi, near chaitanya gagangiri mangal karyalay  , Pune, Maharashtra" }, "geometry": { "type": "Point", "coordinates": [ 73.8796133, 18.5753529 ] } },
{ "type": "Feature", "properties": { "ccd_name": "Others (SWM )", "com_location": "mahesh society chowk to iskon temple road, Pune, Maharashtra" }, "geometry": { "type": "Point", "coordinates": [ 73.8803142, 18.4496546 ] } },
{ "type": "Feature", "properties": { "ccd_name": "Others (SWM )", "com_location": " Gultekdi Industrial Estate, mukundnagar, Pune, Maharashtra" }, "geometry": { "type": "Point", "coordinates": [ 73.8679115, 18.4957045 ] } },
{ "type": "Feature", "properties": { "ccd_name": "Others (SWM )", "com_location": "serve no 132 , 5 p,kiran shubharambh society,balewadi phata ,backside ganesh datt mandir ,pune 411045" }, "geometry": { "type": "Point", "coordinates": [ 73.7819203, 18.5653509 ] } },
{ "type": "Feature", "properties": { "ccd_name": "Garbage vehicle not arrived", "com_location": "Parvati heights behind Manisha theatre shivanee 411023, Pune, Maharashtra" }, "geometry": { "type": "Point", "coordinates": [ 73.7973251, 18.4575995 ] } },
{ "type": "Feature", "properties": { "ccd_name": "Huge littering in open plot / Garbage Dump", "com_location": "12 Shamsundar Housing Society, Near Mhatre Bridge, Anant Kanhere Path,Dattawadi, Pune 411030" }, "geometry": { "type": "Point", "coordinates": [ 73.8381229, 18.5046199 ] } },
{ "type": "Feature", "properties": { "ccd_name": "Others (SWM )", "com_location": "Medipoint to Jupitor road Aundh baner Link Road, Pune, Maharashtra" }, "geometry": { "type": "Point", "coordinates": [ 73.7961758, 18.5632754 ] } },
{ "type": "Feature", "properties": { "ccd_name": "Others (SWM )", "com_location": "Tukaram Tupe Nagar, Hadapsar, Pune, Maharashtra 412307" }, "geometry": { "type": "Point", "coordinates": [ 73.9536336, 18.5056574 ] } },
{ "type": "Feature", "properties": { "ccd_name": "Others (SWM )", "com_location": "3 hatti chowk sant gadge baba arogya kothi sakshita home dhankawadi sambhaji nagar near usha palace\t, Pune, Maharashtra" }, "geometry": { "type": "Point", "coordinates": [ 73.8544847, 18.4678954 ] } },
{ "type": "Feature", "properties": { "ccd_name": "Others (SWM )", "com_location": "sai nivas aaple ghar society , Pune, Maharashtra" }, "geometry": { "type": "Point", "coordinates": [ 73.9500101, 18.5666469 ] } },
{ "type": "Feature", "properties": { "ccd_name": "Others (SWM )", "com_location": "Lane 5 opposite Shah Elegance Sanjay Park Viman Nagar., Pune, Maharashtra" }, "geometry": { "type": "Point", "coordinates": [ 73.9029214, 18.5700897 ] } },
{ "type": "Feature", "properties": { "ccd_name": "Others (SWM )", "com_location": "yashavaMtanagara sosAyaTI, deshamukhavADI, shivaNe yethila echa viMgachyA bAjulA sosAyaTI , Pune, Maharashtra" }, "geometry": { "type": "Point", "coordinates": [ 73.9531189, 18.5646495 ] } },
{ "type": "Feature", "properties": { "ccd_name": "Others (SWM )", "com_location": "at Samvidhan chowk wanwadi pune 40" }, "geometry": { "type": "Point", "coordinates": [ 73.9000204, 18.4922285 ] } },
{ "type": "Feature", "properties": { "ccd_name": "Others (SWM )", "com_location": " behind Abhinav School Narhe, Singhad Road., Pune, Maharashtra" }, "geometry": { "type": "Point", "coordinates": [ 73.8274762, 18.4378626 ] } },
{ "type": "Feature", "properties": { "ccd_name": "Burning of Garbage/Plastic waste", "com_location": "Echelon Society, Near Rolling Hills Society, BPLRD, Pashan takdi, near Camelia Society, Pune, Maharashtra" }, "geometry": { "type": "Point", "coordinates": [ 73.7923957, 18.5414267 ] } },
{ "type": "Feature", "properties": { "ccd_name": "Burning of Garbage/Plastic waste", "com_location": "Ajinkya mitra madal,front of ganpati temple,senapati bapat road,ghole road,pune 411016." }, "geometry": { "type": "Point", "coordinates": [ 73.828171, 18.5390037 ] } },
{ "type": "Feature", "properties": { "ccd_name": "Mosquito nuisance/Fogging", "com_location": "survey number 15 room number 110 nda road rundawan ice cream warje pune 411058 " }, "geometry": { "type": "Point", "coordinates": [ 73.7970186, 18.4770075 ] } },
{ "type": "Feature", "properties": { "ccd_name": "Huge littering in open plot / Garbage Dump", "com_location": " Cheryl Apartments, Fountain Road, Kharadi,, Pune, Maharashtra" }, "geometry": { "type": "Point", "coordinates": [ 73.9446133, 18.5604502 ] } },
{ "type": "Feature", "properties": { "ccd_name": "Others (SWM )", "com_location": "pashan pune 411021 sutAravADI smashAnabhUmI  pAShANa roDa" }, "geometry": { "type": "Point", "coordinates": [ 73.7923957, 18.5414267 ] } },
{ "type": "Feature", "properties": { "ccd_name": "Others (SWM )", "com_location": "ram sham.nivas plot no 29 padmakunj so  Bibwewadi Pune 37" }, "geometry": { "type": "Point", "coordinates": [ 73.8587799, 18.4721504 ] } },
{ "type": "Feature", "properties": { "ccd_name": "Others (SWM )", "com_location": "all sides of wagholi Bajar, Pune, Maharashtra" }, "geometry": { "type": "Point", "coordinates": [ 73.9787063, 18.5807719 ] } },
{ "type": "Feature", "properties": { "ccd_name": "Others (SWM )", "com_location": "Second Floor, 205, GGTT, Grant Rd, Kharadi, Pune, Maharashtra 411014 " }, "geometry": { "type": "Point", "coordinates": [ 73.955089, 18.5587622 ] } },
{ "type": "Feature", "properties": { "ccd_name": "Burning of Garbage/Plastic waste", "com_location": "Near bhel chowk,nagras road,narlikar ews,pune 411007.\r\n" }, "geometry": { "type": "Point", "coordinates": [ 73.8041779, 18.5656376 ] } },
{ "type": "Feature", "properties": { "ccd_name": "Huge littering in open plot / Garbage Dump", "com_location": "walnu shivane school pune" }, "geometry": { "type": "Point", "coordinates": [ 73.7821719, 18.4661512 ] } },
{ "type": "Feature", "properties": { "ccd_name": "Pig Nuisance", "com_location": "Shri Home Housing Society, Wadgaon Sheri, Pune, Maharashtra 411014.\t" }, "geometry": { "type": "Point", "coordinates": [ 73.9234903, 18.5565424 ] } },
{ "type": "Feature", "properties": { "ccd_name": "Others (SWM )", "com_location": "Patryachi Chawl SRA Building., Pune, Maharashtra" }, "geometry": { "type": "Point", "coordinates": [ 73.8650509, 18.5043273 ] } },
{ "type": "Feature", "properties": { "ccd_name": "Mosquito nuisance/Fogging", "com_location": "\"SHREEPHAL\" 8B SHIVA CHHATRA PATHI HOUSING SOCIETY SENADUTTA PETH NEAR DE-LUX LAUNDRY, Pune, Maharashtra" }, "geometry": { "type": "Point", "coordinates": [ 73.8424577, 18.5053773 ] } },
{ "type": "Feature", "properties": { "ccd_name": "Others (SWM )", "com_location": "kunal crimson aundh road ambedkar chowk bighand patila estate bopodi 411020, Pune, Maharashtra" }, "geometry": { "type": "Point", "coordinates": [ 73.8296318, 18.5610245 ] } },
{ "type": "Feature", "properties": { "ccd_name": "Others (SWM )", "com_location": "rAstA peTha, dhanavaMtrI ha spiTala (kAkA halavAI) , Pune, Maharashtra" }, "geometry": { "type": "Point", "coordinates": [ 73.8786239, 18.5246091 ] } },
{ "type": "Feature", "properties": { "ccd_name": "Others (SWM )", "com_location": "tuLashIbAgavAle ka lanI, sahakAranagara 2 ,sAInaMdana sosAyaTI, Pune, Maharashtra" }, "geometry": { "type": "Point", "coordinates": [ 73.8445048, 18.4871825 ] } },
{ "type": "Feature", "properties": { "ccd_name": "Others (SWM )", "com_location": "sosAyaTI chyA geTa samora TiMgare nagara lena kra.1., Pune, Maharashtra" }, "geometry": { "type": "Point", "coordinates": [ 73.9531189, 18.5646495 ] } },
{ "type": "Feature", "properties": { "ccd_name": "Pig Nuisance", "com_location": " tapovana sosAyaTI, jijAI gArDana shejArI  tapodhAma rastA. vAraje.  puNe.  " }, "geometry": { "type": "Point", "coordinates": [ 73.7784223, 18.5229736 ] } },
{ "type": "Feature", "properties": { "ccd_name": "Mosquito nuisance/Fogging", "com_location": "suncity road area, singhad road Vadgaon Budruk, Pune, Maharashtra" }, "geometry": { "type": "Point", "coordinates": [ 73.8205121, 18.4780218 ] } },
{ "type": "Feature", "properties": { "ccd_name": "Others (SWM )", "com_location": "sarvha na 33 gAyatrI bilDiMga ichChApUrtI gaNesha maMdira shejArI AMbegAva bu puNe 411046" }, "geometry": { "type": "Point", "coordinates": [ 73.8410334, 18.4528339 ] } },
{ "type": "Feature", "properties": { "ccd_name": "Others (SWM )", "com_location": "Lane no 12 sasane wasti ser 87 mohammadwadi road , Pune, Maharashtra" }, "geometry": { "type": "Point", "coordinates": [ 73.9294493, 18.4834933 ] } },
{ "type": "Feature", "properties": { "ccd_name": "Others (SWM )", "com_location": "opposite to tucker army coop society gondhalenagar., Pune, Maharashtra" }, "geometry": { "type": "Point", "coordinates": [ 73.948902, 18.4941368 ] } },
{ "type": "Feature", "properties": { "ccd_name": "Odour(Foul smell) from Garbage Depot", "com_location": "Kotkat land, Pune, Maharashtra" }, "geometry": { "type": "Point", "coordinates": [ 73.8209616, 18.4744957 ] } },
{ "type": "Feature", "properties": { "ccd_name": "Others (SWM )", "com_location": "Papde Wasti, Pune, Maharashtra 412308" }, "geometry": { "type": "Point", "coordinates": [ 73.9470036, 18.4822335 ] } },
{ "type": "Feature", "properties": { "ccd_name": "Burning of Garbage/Plastic waste", "com_location": ". \r\nGaganAdira\r\n Wagholi, Pune, Maharashtra" }, "geometry": { "type": "Point", "coordinates": [ 73.9918973, 18.588262 ] } },
{ "type": "Feature", "properties": { "ccd_name": "Others (SWM )", "com_location": "dhAyarI DI esa ke roDavarIla sAvitrI gArDana javaLachA , Pune, Maharashtra" }, "geometry": { "type": "Point", "coordinates": [ 73.814685, 18.4516745 ] } },
{ "type": "Feature", "properties": { "ccd_name": "Others (SWM )", "com_location": "A1/104, Lara Prestige, Sus Road, Pashan, Pune-411021" }, "geometry": { "type": "Point", "coordinates": [ 73.7930133, 18.5419127 ] } },
{ "type": "Feature", "properties": { "ccd_name": "Mosquito nuisance/Fogging", "com_location": "Izaan apartment kalwad wasti lohegaon rd near budh vihar pune." }, "geometry": { "type": "Point", "coordinates": [ 73.904394400000015, 18.5925303 ] } },
{ "type": "Feature", "properties": { "ccd_name": "Others (SWM )", "com_location": "Venezia Homes Society. Baner, Pune, Maharashtra 411045\t\r\n" }, "geometry": { "type": "Point", "coordinates": [ 73.7740778, 18.549071 ] } },
{ "type": "Feature", "properties": { "ccd_name": "Huge littering in open plot / Garbage Dump", "com_location": "PMC play ground, (Inside Karan Palms housing society gate) , near Rosary school, Warje. , Pune, Maharashtra" }, "geometry": { "type": "Point", "coordinates": [ 73.76676, 18.550614 ] } },
{ "type": "Feature", "properties": { "ccd_name": "Others (SWM )", "com_location": "Gokul Nagar, Munjaba Vasti, Dhanori, Pune, Maharashtra 411015" }, "geometry": { "type": "Point", "coordinates": [ 73.8904198, 18.5889569 ] } },
{ "type": "Feature", "properties": { "ccd_name": "Mosquito nuisance/Fogging", "com_location": "Omkareshwar bridge javal Veerachi Taleem Mandal swami samarth apt shaniwar peth, Pune, Maharashtra" }, "geometry": { "type": "Point", "coordinates": [ 73.8497315, 18.5198577 ] } },
{ "type": "Feature", "properties": { "ccd_name": "Others (SWM )", "com_location": "at Amit plaza, Subhash Nagar, Manjari road, Hadapsar, Pune.\r\n" }, "geometry": { "type": "Point", "coordinates": [ 73.9526946, 18.5020819 ] } },
{ "type": "Feature", "properties": { "ccd_name": "Others (SWM )", "com_location": "Maratha Mandir and Shinde Petrol Pump on NDA Pashan Road. Bavdhan., Pune, Maharashtra" }, "geometry": { "type": "Point", "coordinates": [ 73.7823665, 18.5112897 ] } },
{ "type": "Feature", "properties": { "ccd_name": "Mosquito nuisance/Fogging", "com_location": "Samarth Paradise, 20/6A, Near Manas housing society, Lane no 10B, Dhayari Phata, Pune 411041 " }, "geometry": { "type": "Point", "coordinates": [ 73.8140198, 18.4555737 ] } },
{ "type": "Feature", "properties": { "ccd_name": "Others (SWM )", "com_location": " Chhatrapati Shivaji Maharaj krida sankul Mahalunge pune 411045" }, "geometry": { "type": "Point", "coordinates": [ 73.7558922, 18.5741222 ] } },
{ "type": "Feature", "properties": { "ccd_name": "Burning of Garbage/Plastic waste", "com_location": "42/1B, Narvir Tanaji Sindhi Society, Behind Shivajinagar bus stop,Beside Patel tiles Shivajinagar -5, Pune, Maharashtra" }, "geometry": { "type": "Point", "coordinates": [ 73.8501601, 18.5333778 ] } },
{ "type": "Feature", "properties": { "ccd_name": "Other Animals Nuisance", "com_location": "Skybay & Equilife society in mahalunge , pin code 411045, Pune, Maharashtra" }, "geometry": { "type": "Point", "coordinates": [ 73.7538704, 18.5776307 ] } },
{ "type": "Feature", "properties": { "ccd_name": "Others (SWM )", "com_location": "dhAyarI, puNe -41" }, "geometry": { "type": "Point", "coordinates": [ 73.8101999, 18.4471444 ] } },
{ "type": "Feature", "properties": { "ccd_name": "Others (SWM )", "com_location": "Shri Balajiprasad society on Ramkrishna Mate Road near Vandemataram chowk in Sadashiv Peth, Pune - 411030" }, "geometry": { "type": "Point", "coordinates": [ 73.8524652, 18.5102231 ] } },
{ "type": "Feature", "properties": { "ccd_name": "Others (SWM )", "com_location": "Sutardara Road- opposite to Samrajya pethakar society,\r\nIn front of maruti mandir, Pune, Maharashtra" }, "geometry": { "type": "Point", "coordinates": [ 73.807182, 18.515342 ] } },
{ "type": "Feature", "properties": { "ccd_name": "Others (SWM )", "com_location": "sarve naMbara 34/1 a  kALepaDaLa haDapasara tukAI mAtA sevA TrasTa PIN CODE 412308, Pune, Maharashtra" }, "geometry": { "type": "Point", "coordinates": [ 73.937265, 18.4910111 ] } },
{ "type": "Feature", "properties": { "ccd_name": "Others (SWM )", "com_location": "behind Ganesh Mandir inside Shinde Nagar near Maratha Mandir Bavdhan, Pune, Maharashtra" }, "geometry": { "type": "Point", "coordinates": [ 73.7814985, 18.5117709 ] } },
{ "type": "Feature", "properties": { "ccd_name": "Burning of Garbage/Plastic waste", "com_location": "56/1 Apale ghara hAusiMga sosAyaTI lena naMbara vana nagara roDa kharADe lakShmI la nsa puNe 411014" }, "geometry": { "type": "Point", "coordinates": [ 73.9531189, 18.5646495 ] } },
{ "type": "Feature", "properties": { "ccd_name": "Others (SWM )", "com_location": "Disney Park, Azad Nagar, Wanowrie, Pune, Maharashtra 411040" }, "geometry": { "type": "Point", "coordinates": [ 73.9058534, 18.4858699 ] } },
{ "type": "Feature", "properties": { "ccd_name": "Others (SWM )", "com_location": "kaveri hotel lane vijay nagar colony sadashiv peth near vijay nagar udyan near sunrise apartment pune 411030" }, "geometry": { "type": "Point", "coordinates": [ 73.8516595, 18.5045028 ] } },
{ "type": "Feature", "properties": { "ccd_name": "Others (SWM )", "com_location": "Area in Pinglewasti mundhwa road is being neglected also Koregaon road Anex towards mundhwa road near Smart Works (opposite rt side), Pune, Maharashtra" }, "geometry": { "type": "Point", "coordinates": [ 73.9140811, 18.5311287 ] } },
{ "type": "Feature", "properties": { "ccd_name": "Others (SWM )", "com_location": "Dhayari  near Kailas Jeevan factory, Pune, Maharashtra" }, "geometry": { "type": "Point", "coordinates": [ 73.8101999, 18.4471444 ] } },
{ "type": "Feature", "properties": { "ccd_name": "Others (SWM )", "com_location": "Jedhe Path, Market Yard, Gultekadi, Pune, Maharashtra 411037" }, "geometry": { "type": "Point", "coordinates": [ 73.8623852, 18.4820574 ] } },
{ "type": "Feature", "properties": { "ccd_name": "Others (SWM )", "com_location": "janavADI dharmanagara janatA vasAhata bhAgAtIla jaya bhavAnI mitra maMDaLa, Pune, Maharashtra" }, "geometry": { "type": "Point", "coordinates": [ 73.8249973, 18.5292326 ] } },
{ "type": "Feature", "properties": { "ccd_name": "Mosquito nuisance/Fogging", "com_location": "mahAtmA phule peTha 109\\110 jAnA mAsTara chauka TiMbara mArkeTa roDa mashAlI gaMja peTha tADI guTTA , Pune, Maharashtra" }, "geometry": { "type": "Point", "coordinates": [ 73.917613, 18.532646 ] } },
{ "type": "Feature", "properties": { "ccd_name": "Others (SWM )", "com_location": " at Ambil Odha Padmaja Park Phase 2, near Lake Town Society Katraj-411043., Pune, Maharashtra" }, "geometry": { "type": "Point", "coordinates": [ 73.8624955, 18.4589802 ] } },
{ "type": "Feature", "properties": { "ccd_name": "Others (SWM )", "com_location": "Mazda farm. Main road. New Karve Road. \r\nNext to tapodham society. \r\nWarje, Pune, Maharashtra" }, "geometry": { "type": "Point", "coordinates": [ 73.8074851, 18.4809789 ] } },
{ "type": "Feature", "properties": { "ccd_name": "Others (SWM )", "com_location": "Next to Bandhangad Aundh DP Road Besides Karma Foundation, Pune, Maharashtra" }, "geometry": { "type": "Point", "coordinates": [ 73.8033406, 18.5632377 ] } },
{ "type": "Feature", "properties": { "ccd_name": "Burning of Garbage/Plastic waste", "com_location": "Shreeram sweets and his kitchen factory SR.no 169/2 Gurdwara colony lohegaon wagholi road., Pune, Maharashtra" }, "geometry": { "type": "Point", "coordinates": [ 73.9253948, 18.5939847 ] } },
{ "type": "Feature", "properties": { "ccd_name": "Pig Nuisance", "com_location": "B 9 bilDiMga, bhujabaLa TAunashipa, kotharuDa, Pune, Maharashtra" }, "geometry": { "type": "Point", "coordinates": [ 73.8225849, 18.5001112 ] } },
{ "type": "Feature", "properties": { "ccd_name": "Others (SWM )", "com_location": "Shejwal park kharadi., Pune, Maharashtra" }, "geometry": { "type": "Point", "coordinates": [ 73.9323706, 18.5525873 ] } },
{ "type": "Feature", "properties": { "ccd_name": "Others (SWM )", "com_location": "mAMjarI rastA, haDapasara, puNe.aNNAsAheba magara ka lejachyA" }, "geometry": { "type": "Point", "coordinates": [ 73.958793, 18.5076531 ] } },
{ "type": "Feature", "properties": { "ccd_name": "Others (SWM )", "com_location": "Staying in Raikar Mala area , Dhayari , recently included in PMC,pune." }, "geometry": { "type": "Point", "coordinates": [ 73.809384, 18.4366839 ] } },
{ "type": "Feature", "properties": { "ccd_name": "Garbage not lifted from co-authorised collection point / House gully", "com_location": "nisarg housing society, phale nagar, ambegaon budruk , trimurti society near , near shani mandir  , Pune, Maharashtra" }, "geometry": { "type": "Point", "coordinates": [ 73.8487315, 18.4534647 ] } },
{ "type": "Feature", "properties": { "ccd_name": "Others (SWM )", "com_location": "lA. ratana. lena bANera rastyA , Pune, Maharashtra" }, "geometry": { "type": "Point", "coordinates": [ 73.9328965, 18.5324891 ] } },
{ "type": "Feature", "properties": { "ccd_name": "Burning of Garbage/Plastic waste", "com_location": "Precision Control Systems, Survey no 30/4, Dhayari, near Shree Control Bus stop. Narhe Dhayari road., Pune, Maharashtra" }, "geometry": { "type": "Point", "coordinates": [ 73.8218315, 18.4440036 ] } },
{ "type": "Feature", "properties": { "ccd_name": "Garbage vehicle not arrived", "com_location": "Serve no 6/1 ,green park , opposite ajmera park , kondhwa bk ,pune 411048." }, "geometry": { "type": "Point", "coordinates": [ 73.885593, 18.463465 ] } },
{ "type": "Feature", "properties": { "ccd_name": "Odour(Foul smell) from Garbage Depot", "com_location": "Sterling niserg lane 39, Pune, Maharashtra" }, "geometry": { "type": "Point", "coordinates": [ 73.8160359, 18.4482759 ] } },
{ "type": "Feature", "properties": { "ccd_name": "Others (SWM )", "com_location": "bibavevADI oTA vArakarI bhavana shejArI AMgaNavADI javaLa, Pune, Maharashtra" }, "geometry": { "type": "Point", "coordinates": [ 73.8611531, 18.4768982 ] } },
{ "type": "Feature", "properties": { "ccd_name": "Others (SWM )", "com_location": "Rajshree Villa CHS Bhosale Paradise off Range Hills Rd Survey No 209/3 Next to New Vrindavan society., Pune, Maharashtra" }, "geometry": { "type": "Point", "coordinates": [ 73.8400618, 18.5434291 ] } },
{ "type": "Feature", "properties": { "ccd_name": "Others (SWM )", "com_location": "Govind halwai chowk, \r\nRavivar peth\r\nOpp. Kawediya jewellers, Pune, Maharashtra" }, "geometry": { "type": "Point", "coordinates": [ 73.8617025, 18.5126855 ] } },
{ "type": "Feature", "properties": { "ccd_name": "Others (SWM )", "com_location": "Konark Exotica wagholi pune 412207" }, "geometry": { "type": "Point", "coordinates": [ 73.9768381, 18.5736622 ] } },
{ "type": "Feature", "properties": { "ccd_name": "Huge littering in open plot / Garbage Dump", "com_location": "lena naMbara B23 gaNeshanagara , dhAyarI, Pune, Maharashtra" }, "geometry": { "type": "Point", "coordinates": [ 73.8101999, 18.4471444 ] } },
{ "type": "Feature", "properties": { "ccd_name": "Others (SWM )", "com_location": "kokaNa eksapresa chyA bAjUchyA gallIchyA TokAlA, Pune, Maharashtra" }, "geometry": { "type": "Point", "coordinates": [ 73.8786239, 18.5246091 ] } },
{ "type": "Feature", "properties": { "ccd_name": "Pig Nuisance", "com_location": "vAraje TekaDI - IshAna nagarI/shanI maMdira, Pune, Maharashtra" }, "geometry": { "type": "Point", "coordinates": [ 73.7990969, 18.491723 ] } },
{ "type": "Feature", "properties": { "ccd_name": "Pig Nuisance", "com_location": " Near Poonam park, Rajyog Society Rd, Shree Sant Eknath Nagar, Padmavati Nagar, Pune, Maharashtra 411037" }, "geometry": { "type": "Point", "coordinates": [ 73.8581211, 18.4737323 ] } },
{ "type": "Feature", "properties": { "ccd_name": "Others (SWM )", "com_location": "iMdirA vasAhata gaNeshakhiMDa roDa auMdha puNe 7 " }, "geometry": { "type": "Point", "coordinates": [ 73.8175417, 18.5514744 ] } },
{ "type": "Feature", "properties": { "ccd_name": "Others (SWM )", "com_location": "canal road and tukai nagar road hingne khurd and vadgaon budruk , Pune, Maharashtra" }, "geometry": { "type": "Point", "coordinates": [ 73.8261979, 18.474673 ] } },
{ "type": "Feature", "properties": { "ccd_name": "Burning of Garbage/Plastic waste", "com_location": "sr.no 5,6Keshav Nagar,Mundhva Pune" }, "geometry": { "type": "Point", "coordinates": [ 73.9425951, 18.536592 ] } },
{ "type": "Feature", "properties": { "ccd_name": "Odour(Foul smell) from Garbage Depot", "com_location": "Opposite samarth hospital Thite vasti kharadi Pune -14" }, "geometry": { "type": "Point", "coordinates": [ 73.9379343, 18.5445121 ] } },
{ "type": "Feature", "properties": { "ccd_name": "Mosquito nuisance/Fogging", "com_location": "Flat no 102, prabhavati apartment, near Favolosa society Balewadi Pune " }, "geometry": { "type": "Point", "coordinates": [ 73.7654597, 18.577313 ] } },
{ "type": "Feature", "properties": { "ccd_name": "Others (SWM )", "com_location": "shaMkarasheTha roDa, sevana lavza chauka,shubhAgaMda phiTanesa seMTara samora phlAIovara brija khAlIla bAya pAsa., Pune, Maharashtra" }, "geometry": { "type": "Point", "coordinates": [ 73.8786239, 18.5246091 ] } },
{ "type": "Feature", "properties": { "ccd_name": "Others (SWM )", "com_location": "On Kai.Pu.Bha. Bhave path, Outsode Ganapati society, 41, Gujarat colony., Pune, Maharashtra" }, "geometry": { "type": "Point", "coordinates": [ 73.8088221, 18.5062206 ] } },
{ "type": "Feature", "properties": { "ccd_name": "Others (SWM )", "com_location": "Near Mhada colony, behind Rohan mithila viman Nagar.  , Pune, Maharashtra" }, "geometry": { "type": "Point", "coordinates": [ 73.9113651, 18.5752962 ] } },
{ "type": "Feature", "properties": { "ccd_name": "Mosquito nuisance/Fogging", "com_location": "kasabA peTha, kuMbhAra vADA, puNe 411011" }, "geometry": { "type": "Point", "coordinates": [ 73.8573208, 18.5190414 ] } },
{ "type": "Feature", "properties": { "ccd_name": "Others (SWM )", "com_location": "kAshevADI bhAvAnI peTha puNe chamanashAha daragA mAge" }, "geometry": { "type": "Point", "coordinates": [ 73.8705748, 18.5058469 ] } },
{ "type": "Feature", "properties": { "ccd_name": "Others (SWM )", "com_location": "between Shree Hospital Kharadi and Marvel Citrine, Pune, Maharashtra" }, "geometry": { "type": "Point", "coordinates": [ 73.9446361, 18.5522581 ] } },
{ "type": "Feature", "properties": { "ccd_name": "Others (SWM )", "com_location": "Abhiruchi Parisar near Pari Chowk, Madhe Shayari road, Pune, Maharashtra" }, "geometry": { "type": "Point", "coordinates": [ 73.8786239, 18.5246091 ] } },
{ "type": "Feature", "properties": { "ccd_name": "Others (SWM )", "com_location": "Plot no.51 mAjI sainika vasAhata pauDa roDa puNe 38" }, "geometry": { "type": "Point", "coordinates": [ 73.7863246, 18.4408828 ] } },
{ "type": "Feature", "properties": { "ccd_name": "Others (SWM )", "com_location": "SIDDHARTH HEIGHTS AURA CO-OP HOUSING SOCIETY, Disney Park, Azad Nagar, Wanowrie, Pune, Maharashtra 411040" }, "geometry": { "type": "Point", "coordinates": [ 73.9085174, 18.4836706 ] } },
{ "type": "Feature", "properties": { "ccd_name": "Others (SWM )", "com_location": "@GgCilantro\r\n behind Moze College baif road #Wagholi, Pune, Maharashtra" }, "geometry": { "type": "Point", "coordinates": [ 73.9782328, 18.5780454 ] } },
{ "type": "Feature", "properties": { "ccd_name": "Garbage vehicle not arrived", "com_location": "Lane 1, Gulmohar row houses survey no 106/1/9 baner road baner pune 411045 " }, "geometry": { "type": "Point", "coordinates": [ 73.770038, 18.567643 ] } },
{ "type": "Feature", "properties": { "ccd_name": "Others (SWM )", "com_location": "Dalal street, near welcome hall. PUNE" }, "geometry": { "type": "Point", "coordinates": [ 73.8906875, 18.4691875 ] } },
{ "type": "Feature", "properties": { "ccd_name": "Mosquito nuisance/Fogging", "com_location": "Wing-A, GERA'S MISTY WATERS, Maharashtra 411036, Pune, Maharashtra" }, "geometry": { "type": "Point", "coordinates": [ 73.9455757, 18.5437832 ] } },
{ "type": "Feature", "properties": { "ccd_name": "Burning of Garbage/Plastic waste", "com_location": "behind Varsha Apts near SRPF in Wanowrie, Pune, Maharashtra" }, "geometry": { "type": "Point", "coordinates": [ 73.9095279, 18.4912296 ] } },
{ "type": "Feature", "properties": { "ccd_name": "Mosquito nuisance/Fogging", "com_location": "lane no 8 dev kanti niwas khese park pune 411032" }, "geometry": { "type": "Point", "coordinates": [ 73.8922389, 18.5747788 ] } },
{ "type": "Feature", "properties": { "ccd_name": "Pig Nuisance", "com_location": "Bridge near to DSK Ranwara , Pune, Maharashtra" }, "geometry": { "type": "Point", "coordinates": [ 73.7739464, 18.5209853 ] } },
{ "type": "Feature", "properties": { "ccd_name": "Others (SWM )", "com_location": "pAShANa TekaDI phoDalI tyA bhAgAta Vantage bilDIMga naMtarachyA bhAgAta DampiMga hota , Pune, Maharashtra" }, "geometry": { "type": "Point", "coordinates": [ 73.7777908, 18.550429 ] } },
{ "type": "Feature", "properties": { "ccd_name": "Others (SWM )", "com_location": "Sr no 62/2 wadgaon shinde road janardhan nagar lane number 4 lohegaon pune 411047" }, "geometry": { "type": "Point", "coordinates": [ 73.925757, 18.5995066 ] } },
{ "type": "Feature", "properties": { "ccd_name": "Others (SWM )", "com_location": "Nana Peth, near Police lines, Rajawadi area., Pune, Maharashtra" }, "geometry": { "type": "Point", "coordinates": [ 73.8653833, 18.5144313 ] } },