{
"type": "FeatureCollection",
"name": "2023_Building_Permission",
"crs": { "type": "name", "properties": { "name": "urn:ogc:def:crs:OGC:1.3:CRS84" } },
"features": [
{ "type": "Feature", "properties": { "ccd_name": "Unauthorised construction/development", "com_location": " Lane 2 and Lane 7 in Veerbhadra nagar in Baner, Pune, Maharashtra" }, "geometry": { "type": "Point", "coordinates": [ 73.7707854, 18.564439 ] } },
{ "type": "Feature", "properties": { "ccd_name": "Unauthorised construction/development", "com_location": "SIILC Media Center 82/1A & 83, 1A, Baner Rd, Sakal Nagar, Aundh, Pune, Maharashtra 411007, India" }, "geometry": { "type": "Point", "coordinates": [ 73.8204834, 18.5479668 ] } },
{ "type": "Feature", "properties": { "ccd_name": "Other (Building Permission)", "com_location": "Humanistic\r\nBehind Marigold banquets, Bavdhan, Pune-411021" }, "geometry": { "type": "Point", "coordinates": [ 73.7636897, 18.5075308 ] } },
{ "type": "Feature", "properties": { "ccd_name": "Unauthorised construction/development", "com_location": "sarvhe naM 15,viThThala nagara,junyA ka.cna la shejArI, gaNapatI maMdira javaLa,vhespA shorUma chyA pAThImAge, haDapasara, puNe 411028" }, "geometry": { "type": "Point", "coordinates": [ 73.9348307, 18.5084219 ] } },
{ "type": "Feature", "properties": { "ccd_name": "Other (Building Permission)", "com_location": "Sr no 67 Dhumal bandhu digvijay lane no 4 Nagraj mandir opposite barkat villha Santosh nagar Katraj pune 411046" }, "geometry": { "type": "Point", "coordinates": [ 73.8584402, 18.4356477 ] } },
{ "type": "Feature", "properties": { "ccd_name": "Other (Building Permission)", "com_location": "FC Road, Paduka Chowk, Pune, Maharashtra" }, "geometry": { "type": "Point", "coordinates": [ 73.841360200000011, 18.5246302 ] } },
{ "type": "Feature", "properties": { "ccd_name": "Other (Building Permission)", "com_location": "DA.c.bAbAsAheba AMbeDakara pulAjavaLa asaNAre ha.cpI da paMjAba nAvAche ha Tela\r\nbAlevADI phATA yethIla mhetre kA.crna, Pune, Maharashtra" }, "geometry": { "type": "Point", "coordinates": [ 73.7838215, 18.5645048 ] } },
{ "type": "Feature", "properties": { "ccd_name": "Unauthorised construction/development", "com_location": "354/B, pushpanjali Apts, Pune, Maharashtra" }, "geometry": { "type": "Point", "coordinates": [ 73.8482698, 18.5290824 ] } },
{ "type": "Feature", "properties": { "ccd_name": "Other (Building Permission)", "com_location": "1935  sadAshiva peTha, mADIvAle kA.clanI, puNe 411030" }, "geometry": { "type": "Point", "coordinates": [ 73.8437435, 18.508951 ] } },
{ "type": "Feature", "properties": { "ccd_name": "Unauthorised construction/development", "com_location": "Narhe gAvAtIla shrI kaMTrola chauka hA chAra roDa ANi anukrame pArI kaMpanI chauka, Pune, Maharashtra" }, "geometry": { "type": "Point", "coordinates": [ 73.9881596, 18.5843784 ] } },
{ "type": "Feature", "properties": { "ccd_name": "Other (Building Permission)", "com_location": "tAvare bekarI mAge, aryaneshrvara chauka, , Pune, Maharashtra" }, "geometry": { "type": "Point", "coordinates": [ 73.8028276, 18.5642859 ] } },
{ "type": "Feature", "properties": { "ccd_name": "Unauthorised construction/development", "com_location": "Anna Bhau Sathe vasahat sahakarnagar2, Pune, Maharashtra" }, "geometry": { "type": "Point", "coordinates": [ 73.8519813, 18.4846696 ] } },
{ "type": "Feature", "properties": { "ccd_name": "Other (Building Permission)", "com_location": "Raheja Vistas, Phase 2, NIBM Road, Muhammadwadi, Pune, 411060." }, "geometry": { "type": "Point", "coordinates": [ 73.9086771, 18.4719263 ] } },
{ "type": "Feature", "properties": { "ccd_name": "Unauthorised construction/development", "com_location": "Sr no. 18,property no. 632,near petrol pump,near gas company,kondhwa budruk pune 411048." }, "geometry": { "type": "Point", "coordinates": [ 73.9500822, 18.4940169 ] } },
{ "type": "Feature", "properties": { "ccd_name": "Unauthorised construction/development", "com_location": "389/32 shreyasa hausiMga sosAyaTI mIrA sosAyaTI mAge ka.cna la javaLa gulaTekaDI puNe 411037\r\n" }, "geometry": { "type": "Point", "coordinates": [ 73.8704877, 18.4877372 ] } },
{ "type": "Feature", "properties": { "ccd_name": "Unauthorised construction/development", "com_location": "27 Aundh Road\r\nMamta Residency\r\nNear Shewale Hospital\r\nAundh Road \r\nKhadki\r\nPune 411020" }, "geometry": { "type": "Point", "coordinates": [ 73.8326827, 18.562877 ] } },
{ "type": "Feature", "properties": { "ccd_name": "Other (Building Permission)", "com_location": "Triveni Apartment Near Jagtap Hospital Anand Nagar Sinhagad Road Pune 51" }, "geometry": { "type": "Point", "coordinates": [ 73.8244939, 18.4718677 ] } },
{ "type": "Feature", "properties": { "ccd_name": "Unauthorised construction/development", "com_location": "Sr. No.  46/6, Pawar Baug, B.T.Kawade Road, Ghorpadi, Pune -411001" }, "geometry": { "type": "Point", "coordinates": [ 73.9065404, 18.5261915 ] } },
{ "type": "Feature", "properties": { "ccd_name": "Other (Building Permission)", "com_location": "nyati empire bypass road kharadi., Pune, Maharashtra" }, "geometry": { "type": "Point", "coordinates": [ 73.9266384, 18.5053824 ] } },
{ "type": "Feature", "properties": { "ccd_name": "Unauthorised construction/development", "com_location": "Kwality family bar and restaurant  opposite Gagan sweets kharadi South Main Road, Thite Nagar, Kharadi, Pune, Maharashtra 411014" }, "geometry": { "type": "Point", "coordinates": [ 73.9393847, 18.5503067 ] } },
{ "type": "Feature", "properties": { "ccd_name": "Unauthorised construction/development", "com_location": "Survey No 75/9, Shiv Malhar Park, Raykar Mala Road, Jadhav Nagar, Dhayari, Pune 411041." }, "geometry": { "type": "Point", "coordinates": [ 73.8108384, 18.435405 ] } },
{ "type": "Feature", "properties": { "ccd_name": "Other (Building Permission)", "com_location": "Lane No.6, Bhagyoday Nagar, Kondhwa khurd,, Pune, Maharashtra" }, "geometry": { "type": "Point", "coordinates": [ 73.8843519, 18.474251 ] } },
{ "type": "Feature", "properties": { "ccd_name": "Other (Building Permission)", "com_location": "H.NO. 1664, PLOT NO.26 MAULI BANGLOW\r\nASHIYANA SOCIETY NO.1 ,BANER,PUNE-\r\n411007" }, "geometry": { "type": "Point", "coordinates": [ 73.7799196, 18.5737518 ] } },
{ "type": "Feature", "properties": { "ccd_name": "Other (Building Permission)", "com_location": "behind Delta empress society sopan baug pune 411001" }, "geometry": { "type": "Point", "coordinates": [ 73.8998689, 18.5175829 ] } },
{ "type": "Feature", "properties": { "ccd_name": "Unauthorised construction/development", "com_location": "survey no 2(p) lodha Complex last bus stop Dhankawadi gaon Pune 43" }, "geometry": { "type": "Point", "coordinates": [ 73.8494236, 18.4633008 ] } },
{ "type": "Feature", "properties": { "ccd_name": "Other (Building Permission)", "com_location": "Add flat no 1 sr.no 55/8 wadgaon bk pune 411041." }, "geometry": { "type": "Point", "coordinates": [ 73.8260212, 18.4596922 ] } },
{ "type": "Feature", "properties": { "ccd_name": "Unauthorised construction/development", "com_location": "Kargil Heights, Sangam Hospital Road\r\n, Pune, Maharashtra" }, "geometry": { "type": "Point", "coordinates": [ 73.9127028, 18.4552838 ] } },
{ "type": "Feature", "properties": { "ccd_name": "Other (Building Permission)", "com_location": "36A, C Ln, Ragvilas Society, Koregaon Park, Pune, Maharashtra 411001." }, "geometry": { "type": "Point", "coordinates": [ 73.8909566, 18.5412325 ] } },
{ "type": "Feature", "properties": { "ccd_name": "Unauthorised construction/development", "com_location": "bAvadhanakhurda vij~nAnagara roDa 411021, Pune, Maharashtra" }, "geometry": { "type": "Point", "coordinates": [ 73.7778077, 18.5282286 ] } },
{ "type": "Feature", "properties": { "ccd_name": "Unauthorised construction/development", "com_location": "survey number 36/1 Katraj Kondhwa Road near Unique School 411046, Pune, Maharashtra" }, "geometry": { "type": "Point", "coordinates": [ 73.8760198, 18.4487735 ] } },
{ "type": "Feature", "properties": { "ccd_name": "Other (Building Permission)", "com_location": "Kunal Aspiree Balewadi., Pune, Maharashtra" }, "geometry": { "type": "Point", "coordinates": [ 73.7762839, 18.579502 ] } },
{ "type": "Feature", "properties": { "ccd_name": "Other (Building Permission)", "com_location": "1089 budhavAra peTha,shivAjI roDa,abudA ilekTra nika sha pa chyA vara shrInAtha Ta kIja samora puNe 411002" }, "geometry": { "type": "Point", "coordinates": [ 73.8579296, 18.5095268 ] } },
{ "type": "Feature", "properties": { "ccd_name": "Other (Building Permission)", "com_location": "b2 402 raheja vista phase 1 mohammad wadi pune 411060" }, "geometry": { "type": "Point", "coordinates": [ 73.9076543, 18.471289 ] } },
{ "type": "Feature", "properties": { "ccd_name": "Other (Building Permission)", "com_location": "224 guruvAra peTha rAjA TAvara shejArI puNe." }, "geometry": { "type": "Point", "coordinates": [ 73.8636103, 18.4965871 ] } },
{ "type": "Feature", "properties": { "ccd_name": "Unauthorised construction/development", "com_location": "kondhwa,konakpuram cooperative housing society,building no c1,flat no 2,pune 411048." }, "geometry": { "type": "Point", "coordinates": [ 73.8889779, 18.4695088 ] } },
{ "type": "Feature", "properties": { "ccd_name": "Unauthorised construction/development", "com_location": "31 muMjAbAvastI chaudharI nagara roDa naMbara 14 lena naMbara 21, Pune, Maharashtra" }, "geometry": { "type": "Point", "coordinates": [ 73.896598, 18.5849715 ] } },
{ "type": "Feature", "properties": { "ccd_name": "Unauthorised construction/development", "com_location": "mAjhe shejArI shrI gajAnana kadama , yAMnI sarve naM 136, aShTavInAyaka chauka, vAraje mALavADI, puNe 58" }, "geometry": { "type": "Point", "coordinates": [ 73.8075354, 18.4825326 ] } },
{ "type": "Feature", "properties": { "ccd_name": "Other (Building Permission)", "com_location": "Satav nagar dwarka sweets Nakshtra project , Pune, Maharashtra" }, "geometry": { "type": "Point", "coordinates": [ 73.9315299, 18.4778347 ] } },
{ "type": "Feature", "properties": { "ccd_name": "Unauthorised construction/development", "com_location": "SR.NO 311 H.NO. 2/1/14/2/43 SASANE NAGAR,HADAPSAR,PUNE 28." }, "geometry": { "type": "Point", "coordinates": [ 73.9312748, 18.4934978 ] } },
{ "type": "Feature", "properties": { "ccd_name": "Other (Building Permission)", "com_location": "2 such sites which are a nuisance\r\n1. Lane 3, Near Ganapati Mandir, Khese Park, Pune 411032\r\n2. Shivaji Road, Cross Road 1, Near Ganapati Mandir, Khese Park Pune 411032\r\n" }, "geometry": { "type": "Point", "coordinates": [ 73.9089406, 18.5898477 ] } },
{ "type": "Feature", "properties": { "ccd_name": "Other (Building Permission)", "com_location": "Trump tower ,9 hills , NIBM , Pune, Maharashtra" }, "geometry": { "type": "Point", "coordinates": [ 73.9006405, 18.4765003 ] } },
{ "type": "Feature", "properties": { "ccd_name": "Other (Building Permission)", "com_location": "pUjA pArka gaNesha maMdira samora, bhAratI nagara,  kotharUDa, Pune, Maharashtra" }, "geometry": { "type": "Point", "coordinates": [ 73.8116253, 18.4349783 ] } },
{ "type": "Feature", "properties": { "ccd_name": "Other (Building Permission)", "com_location": "chiMtAmaNI skUla mArge rAShTrIya /rAjya mahAmArga kaDe  AMbegAva budruka chiMtAmaNI skUla kAtraja puNe 411046" }, "geometry": { "type": "Point", "coordinates": [ 73.8670261, 18.4463777 ] } },
{ "type": "Feature", "properties": { "ccd_name": "Other (Building Permission)", "com_location": " residential apartments on Warje Highway service roads. , Pune, Maharashtra" }, "geometry": { "type": "Point", "coordinates": [ 73.796834, 18.4864727 ] } },
{ "type": "Feature", "properties": { "ccd_name": "Unauthorised construction/development", "com_location": "Sr.No 46/6, B T Kawade Raod ,Pawar Baug ,Ghorpadigaon , Mundhwa , Pune 411036" }, "geometry": { "type": "Point", "coordinates": [ 73.9073997, 18.5280107 ] } },
{ "type": "Feature", "properties": { "ccd_name": "Other (Building Permission)", "com_location": "103, Ramtekdi Industrial Area, Hadapsar, Pune, Maharashtra 411040\r\nRoad no 11" }, "geometry": { "type": "Point", "coordinates": [ 73.9220756, 18.4891495 ] } },
{ "type": "Feature", "properties": { "ccd_name": "Unauthorised construction/development", "com_location": "Unity Apartments at S.No 18/4C Dhanori Road, Pune -411015" }, "geometry": { "type": "Point", "coordinates": [ 73.887777, 18.5800116 ] } },
{ "type": "Feature", "properties": { "ccd_name": "Other (Building Permission)", "com_location": "gokhale nagara yethIla pAvana hAUsiMga sosAyaTI rAjakamala svITa mAge  , Pune, Maharashtra" }, "geometry": { "type": "Point", "coordinates": [ 73.9531189, 18.5646495 ] } },
{ "type": "Feature", "properties": { "ccd_name": "Unauthorised construction/development", "com_location": "mauje vaDagAMva sherI yethIla sa. naM. 43 hissA naM. 1e pla Ta naM. 53 va 54,pune." }, "geometry": { "type": "Point", "coordinates": [ 73.8786239, 18.5246091 ] } },
{ "type": "Feature", "properties": { "ccd_name": "Other (Building Permission)", "com_location": "NEW SITE NAMED GREEN HIVE PLUS IN S. NO 165, HARPLAE VASTI, FURSUNGI 412308. , Pune, Maharashtra" }, "geometry": { "type": "Point", "coordinates": [ 73.9620897, 18.4797227 ] } },
{ "type": "Feature", "properties": { "ccd_name": "Other (Building Permission)", "com_location": "on public road at S No 258 2A Plot No 30 Lane No 19 Khese Park Lohegaon Pune. " }, "geometry": { "type": "Point", "coordinates": [ 73.91109, 18.5915981 ] } },
{ "type": "Feature", "properties": { "ccd_name": "Other (Building Permission)", "com_location": "Especiya Building, Plot No 37, Amchi colony, Above Lokamnya Society, NDA Road, Near SBI, Bavdhan, Pune, Maharashtra" }, "geometry": { "type": "Point", "coordinates": [ 73.7918041, 18.5070617 ] } },
{ "type": "Feature", "properties": { "ccd_name": "Other (Building Permission)", "com_location": "Shiv Samruddhi Wing B housing society Kondhwa budruk pune 411048" }, "geometry": { "type": "Point", "coordinates": [ 73.9244548, 18.4499015 ] } },
{ "type": "Feature", "properties": { "ccd_name": "Other (Building Permission)", "com_location": " brahmacorp sadhuvaswani road, Pune, Maharashtra" }, "geometry": { "type": "Point", "coordinates": [ 73.8762756, 18.5267409 ] } },
{ "type": "Feature", "properties": { "ccd_name": "Other (Building Permission)", "com_location": "1089 budhavAra peTha puNe nAshika ba.Nka shivAjI roDa puNe 411002\t" }, "geometry": { "type": "Point", "coordinates": [ 73.8574146, 18.5150047 ] } },
{ "type": "Feature", "properties": { "ccd_name": "Other (Building Permission)", "com_location": "Parihar chowk. Aundh , Pune, Maharashtra" }, "geometry": { "type": "Point", "coordinates": [ 73.8106464, 18.5665512 ] } },
{ "type": "Feature", "properties": { "ccd_name": "Other (Building Permission)", "com_location": "27 budhavAra peTha, appA baLavaMta chauka\r\n, Pune, Maharashtra" }, "geometry": { "type": "Point", "coordinates": [ 73.8542931, 18.5163565 ] } },
{ "type": "Feature", "properties": { "ccd_name": "Other (Building Permission)", "com_location": "Boat club road opposite le mirage building .pune 411001\r\n" }, "geometry": { "type": "Point", "coordinates": [ 73.8762254, 18.5387888 ] } },
{ "type": "Feature", "properties": { "ccd_name": "Unauthorised construction/development", "com_location": "bAlevADI posTa  phisa samorIla roDa,  nikamAra hosTela samorIla roDa,bAlevADI, puNe -41045 ." }, "geometry": { "type": "Point", "coordinates": [ 73.7706807, 18.5788913 ] } },
{ "type": "Feature", "properties": { "ccd_name": "Unauthorised construction/development", "com_location": "sarve naM .126 AkAshanagara pashchima raMga pheja- 2 samora sugamavishva ka lonI lena naM -2 vAraje junA jakAta nAkA\t, Pune, Maharashtra" }, "geometry": { "type": "Point", "coordinates": [ 73.9527066, 18.4835253 ] } },
{ "type": "Feature", "properties": { "ccd_name": "Unauthorised construction/development", "com_location": "Vridavanagar, Gokulnagar, Lane 3, Katraj Kondhwa Rd, 411048, Pune, Maharashtra" }, "geometry": { "type": "Point", "coordinates": [ 73.8781662, 18.4481074 ] } },
{ "type": "Feature", "properties": { "ccd_name": "Assessment of Additional construction", "com_location": "1a, Baner Rd, Sakal Nagar, Aundh, Pune, Maharashtra 411007, India" }, "geometry": { "type": "Point", "coordinates": [ 73.8204168, 18.5479919 ] } },
{ "type": "Feature", "properties": { "ccd_name": "Other (Building Permission)", "com_location": "Kothrud bus stand, Pune, Maharashtra" }, "geometry": { "type": "Point", "coordinates": [ 73.813755, 18.498622 ] } },
{ "type": "Feature", "properties": { "ccd_name": "Unauthorised construction/development", "com_location": "sarve naMbara 88/06 hiMgaNe mALA oDhyAlA chiTakUna hiMgaNe chALa grIna belTa jhona asUna, Pune, Maharashtra" }, "geometry": { "type": "Point", "coordinates": [ 73.9319407, 18.4956936 ] } },
{ "type": "Feature", "properties": { "ccd_name": "Unauthorised construction/development", "com_location": "Survey No 48, Chavan Industrial Estate, Benkar Wasti, Dhayari -411041, Pune, Maharashtra" }, "geometry": { "type": "Point", "coordinates": [ 73.8140157, 18.4442732 ] } },
{ "type": "Feature", "properties": { "ccd_name": "Other (Building Permission)", "com_location": "Add.  Laxmi Road 269A Ganesh peth Pune 2 " }, "geometry": { "type": "Point", "coordinates": [ 73.863342, 18.516068 ] } },
{ "type": "Feature", "properties": { "ccd_name": "Other (Building Permission)", "com_location": "Pandurang Krupa\", Sr. No. 48, plot no. 22, Gokul Nagar lane no. 3A, \r\nKatraj Kondhwa road, Pune 48" }, "geometry": { "type": "Point", "coordinates": [ 73.8752884, 18.4472865 ] } },
{ "type": "Feature", "properties": { "ccd_name": "Unauthorised construction/development", "com_location": "mArkeTayArDa shivanerI patha yevale chahA shejArI , Pune, Maharashtra" }, "geometry": { "type": "Point", "coordinates": [ 73.866753, 18.4891395 ] } },
{ "type": "Feature", "properties": { "ccd_name": "Other (Building Permission)", "com_location": "dattavADI bhAgAta ra yala bekarI te tapobhUmI sosAyaTI yA rastyAvara eka bAMdhakAma chAlU Ahe puNe mahAnagarapAlikechyA Arogya koThe samora.siMhagaDa roDa va rDa  phisa," }, "geometry": { "type": "Point", "coordinates": [ 73.9531189, 18.5646495 ] } },
{ "type": "Feature", "properties": { "ccd_name": "Unauthorised construction/development", "com_location": "sarvha naM 70, hoUsa naM 787, klAsika pUjA sosAyaTI javaLa,saMtoShanagara, kAtraja, puNe 411046" }, "geometry": { "type": "Point", "coordinates": [ 73.865238, 18.4529322 ] } },
{ "type": "Feature", "properties": { "ccd_name": "Unauthorised construction/development", "com_location": "547 koLIvADA mArutI maMdira javaLa vAnavaDI gAva puNe 411040" }, "geometry": { "type": "Point", "coordinates": [ 73.8968292, 18.492091 ] } },
{ "type": "Feature", "properties": { "ccd_name": "Unauthorised construction/development", "com_location": "vedant society ,SR NO 12/6/3 & 12/6/4 NIBM - CORINTHIAN ROAD - 411060, Pune, Maharashtra" }, "geometry": { "type": "Point", "coordinates": [ 73.9115184, 18.4628123 ] } },
{ "type": "Feature", "properties": { "ccd_name": "Other (Building Permission)", "com_location": "Address balewadj high street \r\nBuilder-Magistic \r\nProject name -Singnature \r\nPune.\r\nMy society name is park express. \r\nPls help" }, "geometry": { "type": "Point", "coordinates": [ 73.7706807, 18.5788913 ] } },
{ "type": "Feature", "properties": { "ccd_name": "Other (Building Permission)", "com_location": " Livience Eleenta Pashan , Pune, Maharashtra" }, "geometry": { "type": "Point", "coordinates": [ 73.7934175, 18.5471121 ] } },
{ "type": "Feature", "properties": { "ccd_name": "Unauthorised construction/development", "com_location": "Sr no -39 shinde wasti Keshavnagar Mundhawa pune 36" }, "geometry": { "type": "Point", "coordinates": [ 73.940549, 18.5289392 ] } },
{ "type": "Feature", "properties": { "ccd_name": "Unauthorised construction/development", "com_location": "Kumar Prithvi Achalnagar Co-op Hsg Society, \r\nS No:45-46, Sant Dnyaneshwar Nagar, Kondhwa Khurd, Pune" }, "geometry": { "type": "Point", "coordinates": [ 73.879961200000011, 18.4659069 ] } },
{ "type": "Feature", "properties": { "ccd_name": "Unauthorised construction/development", "com_location": "Keshavnagar bus stop., Pune, Maharashtra" }, "geometry": { "type": "Point", "coordinates": [ 73.9459274, 18.5348078 ] } },
{ "type": "Feature", "properties": { "ccd_name": "Other (Building Permission)", "com_location": "Sr no 37/15 tAnAjI nagara dhanakavaDI yethIla , Pune, Maharashtra" }, "geometry": { "type": "Point", "coordinates": [ 73.8492917, 18.462691 ] } },
{ "type": "Feature", "properties": { "ccd_name": "Unauthorised construction/development", "com_location": "156 Mangalwar Peth Ashirwad Society Parge Chowk Near Todkar Hospital Opposite Quality Fitness Club\t, Pune, Maharashtra" }, "geometry": { "type": "Point", "coordinates": [ 73.8644821, 18.5240639 ] } },
{ "type": "Feature", "properties": { "ccd_name": "Unauthorised construction/development", "com_location": " at Sr. No. 189 of Fursungi Pune 412308." }, "geometry": { "type": "Point", "coordinates": [ 73.9798256, 18.4652002 ] } },
{ "type": "Feature", "properties": { "ccd_name": "Unauthorised construction/development", "com_location": "Surekha Balasaheb Tilekar on Serve No. 161/1/3, Opp. Gandharva Capital, , Near PMC Ground, Bhosale Nagar, Magarpatta, Hadapsar, Pune-28." }, "geometry": { "type": "Point", "coordinates": [ 73.9308053, 18.5042218 ] } },
{ "type": "Feature", "properties": { "ccd_name": "Other (Building Permission)", "com_location": "Yashasree Phase 2 Katraj Kondhwa Road near to Paramount Gadren... PIN Code  411046, Pune, Maharashtra" }, "geometry": { "type": "Point", "coordinates": [ 73.8714787, 18.4524924 ] } },
{ "type": "Feature", "properties": { "ccd_name": "Unauthorised construction/development", "com_location": "A1 building, Flat nos 7 & 8,\r\nSuryaprabha Garden CHSL,\r\nBibvewadi-Kondhwa road,\r\nBibvewadi, Pune - 411037.\r\n" }, "geometry": { "type": "Point", "coordinates": [ 73.8640944, 18.4690213 ] } },
{ "type": "Feature", "properties": { "ccd_name": "Other (Building Permission)", "com_location": "P 40/34, Road No. 11, Shikshaknagar, Ramkrishna Paramhans Nagar, Kothrud, Pune, Maharashtra 411038" }, "geometry": { "type": "Point", "coordinates": [ 73.8041984, 18.5109846 ] } },
{ "type": "Feature", "properties": { "ccd_name": "Other (Building Permission)", "com_location": "Rabindranath Tagore school of excellence, Balewadi , Pune, Maharashtra" }, "geometry": { "type": "Point", "coordinates": [ 73.7722393, 18.5733869 ] } },
{ "type": "Feature", "properties": { "ccd_name": "Unauthorised construction/development", "com_location": " sarve naMbara 49/2/2, gujaravADI phATA, jAdhava nagara bhAga 1, kAtraja, puNe-411046" }, "geometry": { "type": "Point", "coordinates": [ 73.8597557, 18.4352271 ] } },
{ "type": "Feature", "properties": { "ccd_name": "Other (Building Permission)", "com_location": "Sadhu vaswani Road opposite Gulmohar hotel near Pune railway station." }, "geometry": { "type": "Point", "coordinates": [ 73.8660639, 18.5239543 ] } },
{ "type": "Feature", "properties": { "ccd_name": "Other (Building Permission)", "com_location": "1074 bhavni peth kamgar maidan javal PUNE 411002 " }, "geometry": { "type": "Point", "coordinates": [ 73.8682344, 18.5125931 ] } },
{ "type": "Feature", "properties": { "ccd_name": "Other (Building Permission)", "com_location": "SHASHINEEL 125/1A/B PLOT 14 PUNE 411038 IT JUST NEXT TO YOUR '\"AROUGHYA KOTHODI OFFICE " }, "geometry": { "type": "Point", "coordinates": [ 73.8168745, 18.513215 ] } },
{ "type": "Feature", "properties": { "ccd_name": "Unauthorised construction/development", "com_location": "bg shirke road, magarpatta, Pune, Maharashtra" }, "geometry": { "type": "Point", "coordinates": [ 73.9252052, 18.5217575 ] } },
{ "type": "Feature", "properties": { "ccd_name": "Unauthorised construction/development", "com_location": "shrImatI sumA dilIpa shahA , \r\nrA. bopoDI si. sa. na. 3398 va 3401, 33 muMbaI puNe roDa bopoDI puNe 03 \r\n" }, "geometry": { "type": "Point", "coordinates": [ 73.837735100000017, 18.5704378 ] } },
{ "type": "Feature", "properties": { "ccd_name": "Unauthorised construction/development", "com_location": "sa. naM. 2, sonaI nivAsa, bhairavanAtha maMdirAsamora, smashAnabhUmI roDa, dhAnorI, puNe-411015 " }, "geometry": { "type": "Point", "coordinates": [ 73.896851, 18.5967587 ] } },
{ "type": "Feature", "properties": { "ccd_name": "Other (Building Permission)", "com_location": "navajIvana mitra maMDaLa javaLa karvenagara puNe 41 10 52 " }, "geometry": { "type": "Point", "coordinates": [ 73.8301214, 18.4899548 ] } },
{ "type": "Feature", "properties": { "ccd_name": "Other (Building Permission)", "com_location": "Harmony Park, Pan Card Club Road, Baner, near Mauli- 411045\r\n, Pune, Maharashtra" }, "geometry": { "type": "Point", "coordinates": [ 73.7826465, 18.5604439 ] } },
{ "type": "Feature", "properties": { "ccd_name": "Other (Building Permission)", "com_location": "S. No. 35/1A/13, 35/1A/11, 35/1A/17 & 35, opp. VENKATESH GRAFFITI, 2B/16, Manjari Rd, Keshav Nagar, Pune, Maharashtra 411036" }, "geometry": { "type": "Point", "coordinates": [ 73.9431328, 18.530416 ] } },
{ "type": "Feature", "properties": { "ccd_name": "Unauthorised construction/development", "com_location": "119 nAnA peTha dIpaka TreDarsa javaLa puNe 411002" }, "geometry": { "type": "Point", "coordinates": [ 73.868067, 18.514162 ] } },
{ "type": "Feature", "properties": { "ccd_name": "Unauthorised construction/development", "com_location": "sarvhe naM 131, hissA 24/2A1, vAraje, puNe" }, "geometry": { "type": "Point", "coordinates": [ 73.7995183, 18.4852224 ] } },
{ "type": "Feature", "properties": { "ccd_name": "Unauthorised construction/development", "com_location": "Rohan Abhilasha 1 Wagholi , Pune, Maharashtra" }, "geometry": { "type": "Point", "coordinates": [ 73.9686644, 18.5956017 ] } },
{ "type": "Feature", "properties": { "ccd_name": "Unauthorised construction/development", "com_location": "janavADI bhAjI maMDaI yethe barobara bhAjI maMDaI chya madhomadha., Pune, Maharashtra" }, "geometry": { "type": "Point", "coordinates": [ 73.8562818, 18.5121301 ] } },
{ "type": "Feature", "properties": { "ccd_name": "Other (Building Permission)", "com_location": "baner pashan link road echelon building , Pune, Maharashtra" }, "geometry": { "type": "Point", "coordinates": [ 73.7927453, 18.5516058 ] } },
{ "type": "Feature", "properties": { "ccd_name": "Unauthorised construction/development", "com_location": "Sr No-206, Tukaidarshan, Lane No-9, Near Laxmi Super market, Fursungi, Pune-412308" }, "geometry": { "type": "Point", "coordinates": [ 73.9498164, 18.4871974 ] } },
{ "type": "Feature", "properties": { "ccd_name": "Unauthorised construction/development", "com_location": "sarve.naM.117/1 gokuLa pArka, jahAgIradAra goThA javaLa lohagAva puNe - 411047" }, "geometry": { "type": "Point", "coordinates": [ 73.9275889, 18.5944704 ] } },
{ "type": "Feature", "properties": { "ccd_name": "Other (Building Permission)", "com_location": " Gangotri developer in Paramhans nagar, Paud Road (behind Subway)., Pune, Maharashtra" }, "geometry": { "type": "Point", "coordinates": [ 73.8017451, 18.5110911 ] } },
{ "type": "Feature", "properties": { "ccd_name": "Other (Building Permission)", "com_location": "Tulshibagwale Colony, Parvati Paytha, Pune, Maharashtra 411009" }, "geometry": { "type": "Point", "coordinates": [ 73.8441118, 18.4877023 ] } },
{ "type": "Feature", "properties": { "ccd_name": "Unauthorised construction/development", "com_location": "sarve naMbara 50/3 ba kAtraja gujaravADI roDa varakhaDe nagara puNe 46\t" }, "geometry": { "type": "Point", "coordinates": [ 73.92752, 18.561329 ] } },
{ "type": "Feature", "properties": { "ccd_name": "Other (Building Permission)", "com_location": "Sr no 656/1 behind Matoshri sand saler kondhwa khurd  malik nagar pune 411048" }, "geometry": { "type": "Point", "coordinates": [ 73.8810718, 18.4661002 ] } },
{ "type": "Feature", "properties": { "ccd_name": "Other (Building Permission)", "com_location": "shrI rAma shivAlaya uttareshvara maMdira javaLa lohegAva puNe 411047" }, "geometry": { "type": "Point", "coordinates": [ 73.9477384, 18.6184468 ] } },
{ "type": "Feature", "properties": { "ccd_name": "Unauthorised construction/development", "com_location": "Tulip Building, Bhagwan Tatyasaheb Kawade Road, Ganesh Nagar, Ghorpadi, Pune" }, "geometry": { "type": "Point", "coordinates": [ 73.908021, 18.5215602 ] } },
{ "type": "Feature", "properties": { "ccd_name": "Unauthorised construction/development", "com_location": "Veerbhadra Nagar Baner Pune Maharashtra  India" }, "geometry": { "type": "Point", "coordinates": [ 73.7726628, 18.5624668 ] } },
{ "type": "Feature", "properties": { "ccd_name": "Other (Building Permission)", "com_location": "shiva samRRiddhI viMga bI hAusiMga sosAyaTI, sarvhe naMbara 56/11, dhArivAla shALesamora, kAtraja koMDhavA roDa, koMDhavA budruka, puNe 411048" }, "geometry": { "type": "Point", "coordinates": [ 73.865238, 18.4529322 ] } },
{ "type": "Feature", "properties": { "ccd_name": "Unauthorised construction/development", "com_location": "6/2/23 kharadi chulbul dhaba IT company k samne , Pune, Maharashtra" }, "geometry": { "type": "Point", "coordinates": [ 73.9425823, 18.5494098 ] } },
{ "type": "Feature", "properties": { "ccd_name": "Unauthorised construction/development", "com_location": "Veerbhadra Nagar Baner Pune Maharashtra  India" }, "geometry": { "type": "Point", "coordinates": [ 73.7726628, 18.5624668 ] } },
{ "type": "Feature", "properties": { "ccd_name": "Unauthorised construction/development", "com_location": "48, Jambhulwadi Rd, Shani Nagar, Ambegaon Budruk, Pune, Maharashtra 411046, India" }, "geometry": { "type": "Point", "coordinates": [ 73.8477139, 18.442546 ] } },
{ "type": "Feature", "properties": { "ccd_name": "Other (Building Permission)", "com_location": "Baner pashan link road region plaza near echelon building, Pune, Maharashtra" }, "geometry": { "type": "Point", "coordinates": [ 73.7912895, 18.5491346 ] } },
{ "type": "Feature", "properties": { "ccd_name": "Unauthorised construction/development", "com_location": "Sr No 211 Rupi Nagar,Bhekrai Nagar,Phursungi,412308, Pune, Maharashtra" }, "geometry": { "type": "Point", "coordinates": [ 73.9798256, 18.4652002 ] } },
{ "type": "Feature", "properties": { "ccd_name": "Other (Building Permission)", "com_location": "baner pashan link road regent plaza samor echelon building and capital building , Pune, Maharashtra" }, "geometry": { "type": "Point", "coordinates": [ 73.7930752, 18.5523154 ] } },
{ "type": "Feature", "properties": { "ccd_name": "Other (Building Permission)", "com_location": "by residents in B2 building in kumar prithvi,kondhwa pune" }, "geometry": { "type": "Point", "coordinates": [ 73.8796707, 18.467306 ] } },
{ "type": "Feature", "properties": { "ccd_name": "Other (Building Permission)", "com_location": "Dr Babasaheb Ambedkar Rd, Vitthal Nagar, Kharadi, Pune, Maharashtra 411014" }, "geometry": { "type": "Point", "coordinates": [ 73.9539696, 18.4954263 ] } },
{ "type": "Feature", "properties": { "ccd_name": "Unauthorised construction/development", "com_location": "A-4 Kothari Blocks, Nirant Society, Bibvewadi Pune- 411037" }, "geometry": { "type": "Point", "coordinates": [ 73.8608553, 18.4789148 ] } },
{ "type": "Feature", "properties": { "ccd_name": "Other (Building Permission)", "com_location": "Shop No.1 Sai Hotel Ganga Business Center near GangaDham Phase-1 Marketyard, Pune-37." }, "geometry": { "type": "Point", "coordinates": [ 73.8705157, 18.4608153 ] } },
{ "type": "Feature", "properties": { "ccd_name": "Other (Building Permission)", "com_location": "shivAjI hAUsiMga sosAyaTItIla bAburAva rAmajI bahiraTa rastA, (posTa  phisa chA rastA) puNe 411016 yethIla pla Ta kramAMka 16 " }, "geometry": { "type": "Point", "coordinates": [ 73.8274683, 18.5330146 ] } },
{ "type": "Feature", "properties": { "ccd_name": "Other (Building Permission)", "com_location": "vandan shri apartment rambaug colony kothrud , Pune, Maharashtra" }, "geometry": { "type": "Point", "coordinates": [ 73.8169099, 18.5162864 ] } },
{ "type": "Feature", "properties": { "ccd_name": "Other (Building Permission)", "com_location": "karvenagara hiMgaNe homa ka lanI yethIla jogaLekara baMgalyAchyA shejArIla oDhyAchyA lagata anIkA gokuLa nivAsa , sarve naMbara 19/1 +8B, pla Ta naMbara 41/2 , Pune, Maharashtra" }, "geometry": { "type": "Point", "coordinates": [ 73.8129989, 18.4556215 ] } },
{ "type": "Feature", "properties": { "ccd_name": "Other (Building Permission)", "com_location": "Lullanagar near cng petrol pump 411040, Pune, Maharashtra" }, "geometry": { "type": "Point", "coordinates": [ 73.88362, 18.4852672 ] } },
{ "type": "Feature", "properties": { "ccd_name": "Other (Building Permission)", "com_location": "sarve naMbara 131 pArTa, rAjayoga sosAyaTI, samrATa mitra maMDaLa, vAraje, puNe 411058. " }, "geometry": { "type": "Point", "coordinates": [ 73.7924186, 18.4890746 ] } },
{ "type": "Feature", "properties": { "ccd_name": "Unauthorised construction/development", "com_location": "SN 76 6a/ba, phla.cTa kra. bI903, shrI lakShmI vRRiMdAvana sosAyaTI, rAyakara maLA roDa, dhAyarI, puNe-41" }, "geometry": { "type": "Point", "coordinates": [ 73.8101999, 18.4471444 ] } },
{ "type": "Feature", "properties": { "ccd_name": "Unauthorised construction/development", "com_location": "shivadarshana chALa kramAMka 120 , puNe 09" }, "geometry": { "type": "Point", "coordinates": [ 73.8786239, 18.5246091 ] } },
{ "type": "Feature", "properties": { "ccd_name": "Other (Building Permission)", "com_location": "gajapeTha polisa chokI javaLa jaya mi~na maMDaLa lAIna, Pune, Maharashtra" }, "geometry": { "type": "Point", "coordinates": [ 73.8786239, 18.5246091 ] } },
{ "type": "Feature", "properties": { "ccd_name": "Unauthorised construction/development", "com_location": "Shiv Samruddhi\r\nKatraj Kondhwa Road, Near Iskcon Temple, Kondhwa BK\r\nPune - 411048" }, "geometry": { "type": "Point", "coordinates": [ 73.8719375, 18.4450625 ] } },
{ "type": "Feature", "properties": { "ccd_name": "Other (Building Permission)", "com_location": "sr.no.30/1/12 baner  near dhankude wasti\ncellers wine lane pune 411045 opp.tivona society" }, "geometry": { "type": "Point", "coordinates": [ 73.779233, 18.5591115 ] } },
{ "type": "Feature", "properties": { "ccd_name": "Other (Building Permission)", "com_location": "Koregaon park extension,poonawalla fincorp,pune 411036." }, "geometry": { "type": "Point", "coordinates": [ 73.9136317, 18.530315 ] } },
{ "type": "Feature", "properties": { "ccd_name": "Other (Building Permission)", "com_location": "nanak society Salunkhe vihar bliss cafe cababi hotel 411048, Pune, Maharashtra" }, "geometry": { "type": "Point", "coordinates": [ 73.9018942, 18.4787051 ] } },
{ "type": "Feature", "properties": { "ccd_name": "Other (Building Permission)", "com_location": "Row gouse 3/10\r\nGoodwill enclave \r\nRoad 9a\r\nKalyani nagar\r\nPune 6" }, "geometry": { "type": "Point", "coordinates": [ 73.8988815, 18.5482903 ] } },
{ "type": "Feature", "properties": { "ccd_name": "Unauthorised construction/development", "com_location": "Dreams estate Near JSPM college handewadi road Hadapsar pune. Flat owner of B1/ 102" }, "geometry": { "type": "Point", "coordinates": [ 73.9369881, 18.4712574 ] } },
{ "type": "Feature", "properties": { "ccd_name": "Other (Building Permission)", "com_location": "Kumar Paradise, BG Shirke road - Magarpatta City, Pune, Maharashtra" }, "geometry": { "type": "Point", "coordinates": [ 73.9274221, 18.5224644 ] } },
{ "type": "Feature", "properties": { "ccd_name": "Unauthorised construction/development", "com_location": "Gokul nagar gali no 4 A, near swami dham apartment kondhwa pune 48" }, "geometry": { "type": "Point", "coordinates": [ 73.8749514, 18.4512829 ] } },
{ "type": "Feature", "properties": { "ccd_name": "Other (Building Permission)", "com_location": "SNO 48/1/2/1 PUNE MUMBAI HIGHWAY SUS RD PHATA BANER Pin Code- 411045\t" }, "geometry": { "type": "Point", "coordinates": [ 73.7702683, 18.5481027 ] } },
{ "type": "Feature", "properties": { "ccd_name": "Other (Building Permission)", "com_location": "Building situated at Sr no 113 hissa number 1 Warje Tal haveli Pune" }, "geometry": { "type": "Point", "coordinates": [ 73.79589, 18.4859769 ] } },
{ "type": "Feature", "properties": { "ccd_name": "Unauthorised construction/development", "com_location": "somwar peth, pune 411001\t" }, "geometry": { "type": "Point", "coordinates": [ 73.867634700000011, 18.5214325 ] } },
{ "type": "Feature", "properties": { "ccd_name": "Other (Building Permission)", "com_location": "404 Raju Prasad ICS Colony Bhosale Nagar Pune 411007" }, "geometry": { "type": "Point", "coordinates": [ 73.8319817, 18.5424433 ] } },
{ "type": "Feature", "properties": { "ccd_name": "Unauthorised construction/development", "com_location": "1169, nr. Gopalkrishna temple, Niljyoti Society,\r\nGokhalenagar, Pune, Maharashtra 411016\r\n" }, "geometry": { "type": "Point", "coordinates": [ 73.8220565, 18.5318555 ] } },
{ "type": "Feature", "properties": { "ccd_name": "Other (Building Permission)", "com_location": "Mahalaxmi Apartment Pandurang Colony nal stop Erandwane Pune 411004" }, "geometry": { "type": "Point", "coordinates": [ 73.8313384, 18.5080971 ] } },
{ "type": "Feature", "properties": { "ccd_name": "Unauthorised construction/development", "com_location": " Narhe-dhayari road, near jhadavar college, Relience mart main road., Pune, Maharashtra" }, "geometry": { "type": "Point", "coordinates": [ 73.8216698, 18.4459988 ] } },
{ "type": "Feature", "properties": { "ccd_name": "Unauthorised construction/development", "com_location": "Adjacent to Satya Vihar Society No.1, Near SRPF gate 1, Wanowrie, Pune 411040" }, "geometry": { "type": "Point", "coordinates": [ 73.9019373, 18.489342 ] } },
{ "type": "Feature", "properties": { "ccd_name": "Unauthorised construction/development", "com_location": "vidyAnagara sarvhe naM  41/4ba yethe phArUkha ga.creja shejArI vaDagAva sherI \r\n, Pune, Maharashtra" }, "geometry": { "type": "Point", "coordinates": [ 73.8786239, 18.5246091 ] } },
{ "type": "Feature", "properties": { "ccd_name": "Other (Building Permission)", "com_location": "flat on 1st Floor of Cedar Court Building in Parmar Park 1 Society in Jambhulkar Chowk Wanowrie., Pune, Maharashtra" }, "geometry": { "type": "Point", "coordinates": [ 73.900686, 18.4930951 ] } },
{ "type": "Feature", "properties": { "ccd_name": "Other (Building Permission)", "com_location": "Behind Shantiniketan Society Pashan Baner Link Road pincode 411021\r\n, Pune, Maharashtra" }, "geometry": { "type": "Point", "coordinates": [ 73.7911009, 18.5480592 ] } },
{ "type": "Feature", "properties": { "ccd_name": "Unauthorised construction/development", "com_location": "Mamta Residency  beside Shewale Hospital , Aundh Road Khadki Pune 411020" }, "geometry": { "type": "Point", "coordinates": [ 73.8348652, 18.5621639 ] } },
{ "type": "Feature", "properties": { "ccd_name": "Unauthorised construction/development", "com_location": "KarveNagar, Pune, Maharashtra" }, "geometry": { "type": "Point", "coordinates": [ 73.821729, 18.4914883 ] } },
{ "type": "Feature", "properties": { "ccd_name": "Unauthorised construction/development", "com_location": "ASHIRWAD SOCIETY sarve na.49/2 Kondhw Khurd, puNe- 411048.\t" }, "geometry": { "type": "Point", "coordinates": [ 73.8925492, 18.4721819 ] } },
{ "type": "Feature", "properties": { "ccd_name": "Other (Building Permission)", "com_location": "Flat no. 301, 3rd floor front elevation, Survey No. 34/1, Plot No. 90, Vidyanagar (Tingre Nagar), Pune." }, "geometry": { "type": "Point", "coordinates": [ 73.895984, 18.580634 ] } },
{ "type": "Feature", "properties": { "ccd_name": "Unauthorised construction/development", "com_location": "Chlorophyll Rohan Seher Lane Samarth Colony Baner Pune Maharashtra India" }, "geometry": { "type": "Point", "coordinates": [ 73.773502, 18.5562109 ] } },
{ "type": "Feature", "properties": { "ccd_name": "Unauthorised construction/development", "com_location": " navrang plaza vishrantwadi tingre nagar pune - 411011\r\n" }, "geometry": { "type": "Point", "coordinates": [ 73.8845683, 18.5737599 ] } },
{ "type": "Feature", "properties": { "ccd_name": "Other (Building Permission)", "com_location": "https://goo.gl/maps/pNGcKu34wegisCa16, Pune, Maharashtra" }, "geometry": { "type": "Point", "coordinates": [ 73.8786239, 18.5246091 ] } },
{ "type": "Feature", "properties": { "ccd_name": "Other (Building Permission)", "com_location": "102, Ganesh Peth.pune-411002" }, "geometry": { "type": "Point", "coordinates": [ 73.8622251, 18.517372 ] } },
{ "type": "Feature", "properties": { "ccd_name": "Other (Building Permission)", "com_location": "baMDa gArDana  sasUna roDa ,kalekTara baMgalA samora ,AIna ksa   theTara javaLa   puNe 411001" }, "geometry": { "type": "Point", "coordinates": [ 73.8786239, 18.5246091 ] } },
{ "type": "Feature", "properties": { "ccd_name": "Other (Building Permission)", "com_location": "vasuMdharA sosAyaTI jAMbhuLavADI roDa,bAMdhakAma vibhAga jhona kramAMka 2 sarve naMbara 9 jAMbhULa vADI madhye,pune" }, "geometry": { "type": "Point", "coordinates": [ 73.8185255, 18.4469134 ] } },
{ "type": "Feature", "properties": { "ccd_name": "Other (Building Permission)", "com_location": "Malpani Agile, Baner - 411045\t, Pune, Maharashtra" }, "geometry": { "type": "Point", "coordinates": [ 73.7767246, 18.5557887 ] } },
{ "type": "Feature", "properties": { "ccd_name": "Other (Building Permission)", "com_location": "Baner, Veerbhardanagar, lane no.9, Pune, Maharashtra" }, "geometry": { "type": "Point", "coordinates": [ 73.7757278, 18.5640648 ] } },
{ "type": "Feature", "properties": { "ccd_name": "Unauthorised construction/development", "com_location": "HE KOPA ma lachyA mAge, koregAvapArka aneksa roDa, muMDhavA., Pune, Maharashtra" }, "geometry": { "type": "Point", "coordinates": [ 73.9077349, 18.5382903 ] } },
{ "type": "Feature", "properties": { "ccd_name": "Assessment of Additional construction", "com_location": "SIILC Media Center, 2nd, Floor, 82/1A & 83, 1A, Baner Rd, Sakal Nagar, Aundh, Pune, Maharashtra 411007, India" }, "geometry": { "type": "Point", "coordinates": [ 73.8204064, 18.5478878 ] } },
{ "type": "Feature", "properties": { "ccd_name": "Unauthorised construction/development", "com_location": " Srv kramAMka - 31/4, lena kramAMka - 14 , saba - lena kramAMka - 23, chaudharI nagara, dhAnorI, puNe - 411015." }, "geometry": { "type": "Point", "coordinates": [ 73.896841, 18.583688 ] } },
{ "type": "Feature", "properties": { "ccd_name": "Other (Building Permission)", "com_location": "maheshwari vidya pacharak mandal 1098 model colony pune 16 " }, "geometry": { "type": "Point", "coordinates": [ 73.8393594, 18.5281534 ] } },
{ "type": "Feature", "properties": { "ccd_name": "Unauthorised construction/development", "com_location": " lena kra. 18 yunivharsala sporTsa samora khese pArka lohegAva puNe 411032" }, "geometry": { "type": "Point", "coordinates": [ 73.9109977, 18.5907515 ] } },
{ "type": "Feature", "properties": { "ccd_name": "Other (Building Permission)", "com_location": "Behind Raviwar Peth City Survey No.980, Store Room No.1,, Pune, Maharashtra" }, "geometry": { "type": "Point", "coordinates": [ 73.8342401, 18.5205829 ] } },
{ "type": "Feature", "properties": { "ccd_name": "Other (Building Permission)", "com_location": "brahmacorp site sadhuvaswaniroad pune 411001" }, "geometry": { "type": "Point", "coordinates": [ 73.8762756, 18.5267409 ] } },
{ "type": "Feature", "properties": { "ccd_name": "Unauthorised construction/development", "com_location": " Raviwar Peth Road near Phadke Haud Chowk Budhwar Peth Pune Maharashtra India" }, "geometry": { "type": "Point", "coordinates": [ 73.8596101, 18.5182581 ] } },
{ "type": "Feature", "properties": { "ccd_name": "Other (Building Permission)", "com_location": "Baner pashan link road \r\ncapital building , Pune, Maharashtra" }, "geometry": { "type": "Point", "coordinates": [ 73.7912895, 18.5491346 ] } },
{ "type": "Feature", "properties": { "ccd_name": "Unauthorised construction/development", "com_location": "Newton homes ,handewadi road , next to Shriram chowk, Near ECP Vastu Hadapsar, Pune, " }, "geometry": { "type": "Point", "coordinates": [ 73.9309258, 18.4760906 ] } },
{ "type": "Feature", "properties": { "ccd_name": "Unauthorised construction/development", "com_location": " 6/1 eraMDavaNe guDavIla hAUsa eraMDavaNe agNIshAmaka keMMdrA samora, Pune, Maharashtra" }, "geometry": { "type": "Point", "coordinates": [ 73.8285714, 18.4990135 ] } },
{ "type": "Feature", "properties": { "ccd_name": "Other (Building Permission)", "com_location": "haDapasara vaidavADi yethIla gosAvI vastI yethIla shALA kramAMka 35/bI bhAga chyA mAga datta maMdira shejArI,pune.\t" }, "geometry": { "type": "Point", "coordinates": [ 73.9271644, 18.5158057 ] } },
{ "type": "Feature", "properties": { "ccd_name": "Other (Building Permission)", "com_location": "Sr. No. 39, Lane No.5 Mate Nagar,  near niramay hospital, Vadgaon Sheri, Pune - 411014" }, "geometry": { "type": "Point", "coordinates": [ 73.9233425, 18.5500232 ] } },
{ "type": "Feature", "properties": { "ccd_name": "Regularisation of plots/ constructions", "com_location": "SUNIL S. PATIL\r\nBUNGALOW NO.1, \r\nOPP MAHATMA PHULE SANSKRUTIK BHAVAN, \r\nV. SHIVARKAR ROAD\r\nWANOWRIE\r\nPUNE" }, "geometry": { "type": "Point", "coordinates": [ 73.899974, 18.4942508 ] } },
{ "type": "Feature", "properties": { "ccd_name": "Other (Building Permission)", "com_location": " ITI Road, Anand park and sanewadi . Pune 411007." }, "geometry": { "type": "Point", "coordinates": [ 73.809181, 18.5562621 ] } },
{ "type": "Feature", "properties": { "ccd_name": "Other (Building Permission)", "com_location": "puNe peTha shivAjInagara bhImadIpa hAUsiMga sosAyaTI gokhale nagara shejArI puNe 411016" }, "geometry": { "type": "Point", "coordinates": [ 73.82708550000001, 18.5291524 ] } },
{ "type": "Feature", "properties": { "ccd_name": "Other (Building Permission)", "com_location": " G D Madgulkar garden lane, next to Megh-Malhaar-Raga, Behind Maratha Mandir, Bavdhan, Pune, Maharashtra" }, "geometry": { "type": "Point", "coordinates": [ 73.7814985, 18.5117709 ] } },
{ "type": "Feature", "properties": { "ccd_name": "Other (Building Permission)", "com_location": "#brahmacorp sadhu vaswani road opp Gulmohar hotel, Pune, Maharashtra" }, "geometry": { "type": "Point", "coordinates": [ 73.8762756, 18.5267409 ] } },
{ "type": "Feature", "properties": { "ccd_name": "Other (Building Permission)", "com_location": " 401/501 flat  bAlAjI prAIDa bilDIMga AMbegAva daLavInagara  yethe , Pune, Maharashtra" }, "geometry": { "type": "Point", "coordinates": [ 73.8786239, 18.5246091 ] } },
{ "type": "Feature", "properties": { "ccd_name": "Other (Building Permission)", "com_location": "Footpath between Intervida School and Lunkad Abode Society, Viman Nagar, Pune-14" }, "geometry": { "type": "Point", "coordinates": [ 73.9209931, 18.5679593 ] } },
{ "type": "Feature", "properties": { "ccd_name": "Other (Building Permission)", "com_location": "Dorabjee Paradise Bldg. A & B Condominium\r\nNIBM Extn. Mohammad Wadi, Pune - 411 060." }, "geometry": { "type": "Point", "coordinates": [ 73.9011985, 18.4674694 ] } },
{ "type": "Feature", "properties": { "ccd_name": "Unauthorised construction/development", "com_location": "baner pashan link road,echelon parking region plaza, pashan ,pune 411021.\t" }, "geometry": { "type": "Point", "coordinates": [ 73.7911009, 18.5480592 ] } },
{ "type": "Feature", "properties": { "ccd_name": "Unauthorised construction/development", "com_location": "119 nAnA peTha, dIpaka TreDarsa javaLa, puNe 411002" }, "geometry": { "type": "Point", "coordinates": [ 73.868067, 18.514162 ] } },
{ "type": "Feature", "properties": { "ccd_name": "Other (Building Permission)", "com_location": " near Indian Oil Petrol Pump, Somwar Peth, Pune, Maharashtra 411011, India" }, "geometry": { "type": "Point", "coordinates": [ 73.8670475, 18.449716 ] } },
{ "type": "Feature", "properties": { "ccd_name": "Other (Building Permission)", "com_location": "Kondwa road, kamela, at Mahatma phule  slum, kondwa road.Opposite Fakhri hill\r\nKondhwa .pune 411048" }, "geometry": { "type": "Point", "coordinates": [ 73.8827742, 18.4667775 ] } },
{ "type": "Feature", "properties": { "ccd_name": "Unauthorised construction/development", "com_location": "sarve naM 3/16 goviMdarAva pATIla nagara bhAU parAMDe chALa tuLajAbhavAnI maMdirA samora dhanakavaDI puNe 411043." }, "geometry": { "type": "Point", "coordinates": [ 73.8485678, 18.4661751 ] } },
{ "type": "Feature", "properties": { "ccd_name": "Unauthorised construction/development", "com_location": "C.T.S.No.3145, Survey No.103, Sub-Plot No.56, SHivaji Housing Society, Shivajinagar, Bhambhurda, Pun, Pune, Maharashtra" }, "geometry": { "type": "Point", "coordinates": [ 73.8282577, 18.531141 ] } },
{ "type": "Feature", "properties": { "ccd_name": "Other (Building Permission)", "com_location": "Krishna Chambers basement, Pune -Satara Road Opp Laxmi Narayan Theatre swargate Pune 411037" }, "geometry": { "type": "Point", "coordinates": [ 73.8583085, 18.4954636 ] } },
{ "type": "Feature", "properties": { "ccd_name": "Other (Building Permission)", "com_location": "shrImatI sumA dilIpa shahA , \r\nrA. bopoDI si. sa. na. 3398 va 3401, 33 muMbaI puNe roDa bopoDI puNe 03 \r\n" }, "geometry": { "type": "Point", "coordinates": [ 73.837735100000017, 18.5704378 ] } },
{ "type": "Feature", "properties": { "ccd_name": "Unauthorised construction/development", "com_location": "S.No:34A/16 , Shree Balaji PG,Kargil Vijay nagar ,near VTP house / Shakti sports,Nagar road,pune-411014\t" }, "geometry": { "type": "Point", "coordinates": [ 73.9198572, 18.5609151 ] } },
{ "type": "Feature", "properties": { "ccd_name": "Unauthorised construction/development", "com_location": "Bonjour Soc., shobhapuram, near shell petrol pump, warje highway, Pune. " }, "geometry": { "type": "Point", "coordinates": [ 73.7954104, 18.4880778 ] } },
{ "type": "Feature", "properties": { "ccd_name": "Other (Building Permission)", "com_location": "Bhintade nagar bridge opposite Boston school, Pune, Maharashtra" }, "geometry": { "type": "Point", "coordinates": [ 73.8369362, 18.4580681 ] } },
{ "type": "Feature", "properties": { "ccd_name": "Other (Building Permission)", "com_location": "budhwar peth nr jogeshwari mandir swami samartha Society , Pune, Maharashtra" }, "geometry": { "type": "Point", "coordinates": [ 73.8547939, 18.5165556 ] } },
{ "type": "Feature", "properties": { "ccd_name": "Unauthorised construction/development", "com_location": "S No. 213/2/1, Lane 18, Rajiv Nagar North, Lohegaon, Viman Nagar, Pune-411014" }, "geometry": { "type": "Point", "coordinates": [ 73.9128539, 18.5735966 ] } },
{ "type": "Feature", "properties": { "ccd_name": "Other (Building Permission)", "com_location": "Mayuri infinity co housing society undri pune 28" }, "geometry": { "type": "Point", "coordinates": [ 73.9249011, 18.4520176 ] } },
{ "type": "Feature", "properties": { "ccd_name": "Other (Building Permission)", "com_location": "Sinhgad road hingne khurd suncity road, medical lane, opp of apurva, ekta nagari, Pune, Maharashtra " }, "geometry": { "type": "Point", "coordinates": [ 73.8238724, 18.4784087 ] } },
{ "type": "Feature", "properties": { "ccd_name": "Other (Building Permission)", "com_location": "Survey No. 136 Opposite Maharashtra Footwear Behind Samarth Ladies Shop Ashtavinayak Chowk Warje Malwadi Pune 411058" }, "geometry": { "type": "Point", "coordinates": [ 73.8003815, 18.4796888 ] } },
{ "type": "Feature", "properties": { "ccd_name": "Unauthorised construction/development", "com_location": "Deron Heights Baner Road opp hotel mahabaleshwar Varsha Park Society Baner Pune Maharashtra India" }, "geometry": { "type": "Point", "coordinates": [ 73.7983221, 18.5545317 ] } },
{ "type": "Feature", "properties": { "ccd_name": "Unauthorised construction/development", "com_location": "kALe ALI ,lohagAva roDa, vAgholI (gAvaThANa). Aryana TreDarsa chyA mAge  , Pune, Maharashtra" }, "geometry": { "type": "Point", "coordinates": [ 73.8028276, 18.5642859 ] } },
{ "type": "Feature", "properties": { "ccd_name": "Other (Building Permission)", "com_location": "Shop No.1 Sai Hotel Ganga Business Center near GangaDham Phase-1 Marketyard, Pune-37" }, "geometry": { "type": "Point", "coordinates": [ 73.8767524, 18.466156 ] } },
{ "type": "Feature", "properties": { "ccd_name": "Other (Building Permission)", "com_location": "Satyavihar no 1 CHS, \r\nWanawadi, Pune 411040" }, "geometry": { "type": "Point", "coordinates": [ 73.9033408, 18.4946842 ] } },
{ "type": "Feature", "properties": { "ccd_name": "Other (Building Permission)", "com_location": "haDapasara vaidavADi yethIla gosAvI vastI yethIla shALA kramAMka 35/bI bhAga chyA mAga datta maMdira shejArI,pune." }, "geometry": { "type": "Point", "coordinates": [ 73.9271644, 18.5158057 ] } },
{ "type": "Feature", "properties": { "ccd_name": "Unauthorised construction/development", "com_location": " gurukRRipA apArTameMTa bAlAjI nagara\r\n, Pune, Maharashtra" }, "geometry": { "type": "Point", "coordinates": [ 73.86633, 18.4687427 ] } },
{ "type": "Feature", "properties": { "ccd_name": "Other (Building Permission)", "com_location": " kuNAla aspAyara,ANP CORP (projekTa: ANP UNIVERSE),pune." }, "geometry": { "type": "Point", "coordinates": [ 73.777983, 18.5792063 ] } },
{ "type": "Feature", "properties": { "ccd_name": "Other (Building Permission)", "com_location": "lane 17 Bhandarkar road, Pune, Maharashtra" }, "geometry": { "type": "Point", "coordinates": [ 73.8363269, 18.5180733 ] } },
{ "type": "Feature", "properties": { "ccd_name": "Other (Building Permission)", "com_location": "10 no. PMC colony,wakdewadi,arogya kothi front side,pune 411003." }, "geometry": { "type": "Point", "coordinates": [ 73.8520533, 18.5384519 ] } },
{ "type": "Feature", "properties": { "ccd_name": "Unauthorised construction/development", "com_location": "Location The tenth floor resturant, Baner road, Above Ranka jewellers\r\n, Pune, Maharashtra" }, "geometry": { "type": "Point", "coordinates": [ 73.798387, 18.5543276 ] } },
{ "type": "Feature", "properties": { "ccd_name": "Other (Building Permission)", "com_location": "gujarwadi brook side aprtment pune 43 parkash building shejari varkhede nagar " }, "geometry": { "type": "Point", "coordinates": [ 73.865392, 18.4408767 ] } },
{ "type": "Feature", "properties": { "ccd_name": "Other (Building Permission)", "com_location": "Regency classic society in baner\t, Pune, Maharashtra" }, "geometry": { "type": "Point", "coordinates": [ 73.7692786, 18.5548126 ] } },
{ "type": "Feature", "properties": { "ccd_name": "Unauthorised construction/development", "com_location": "55/2, janakabAbA dargA, tuLajAbhavAnI nagara, lena naMbara sAta, pATIla klinika chyA shejArI, kharADI, puNe 14." }, "geometry": { "type": "Point", "coordinates": [ 73.9437385, 18.5655008 ] } },
{ "type": "Feature", "properties": { "ccd_name": "Unauthorised construction/development", "com_location": "Bharat Petroleum Petrol pump Baner main road near Pallod farms, Pune, Maharashtra" }, "geometry": { "type": "Point", "coordinates": [ 73.7925792, 18.5581625 ] } },
{ "type": "Feature", "properties": { "ccd_name": "Other (Building Permission)", "com_location": " sa.na 33 shiva durgA nivAsa dattanagara\r\n                       yuvarAja ka.csTela bilDiMga javaLa\r\n                       vAraje mALavADI puNe-58" }, "geometry": { "type": "Point", "coordinates": [ 73.796834, 18.4864727 ] } },
{ "type": "Feature", "properties": { "ccd_name": "Unauthorised construction/development", "com_location": "Suresh Desarda & Kiran Mistry\r\nFlat No. 201&301\r\nKubix Papillon \r\nPlot No.167, Lane No.3\r\nLullanagar, Pune - 40." }, "geometry": { "type": "Point", "coordinates": [ 73.884586, 18.4876688 ] } },
{ "type": "Feature", "properties": { "ccd_name": "Other (Building Permission)", "com_location": "Kul Utsav Society \r\nKhadi Machine Chowk,\r\nKondhwa Pune, 48\r\n" }, "geometry": { "type": "Point", "coordinates": [ 73.8928977, 18.4531735 ] } },
{ "type": "Feature", "properties": { "ccd_name": "Other (Building Permission)", "com_location": "Sahaney Sujan Park, Kondhwa, Pune, Maharashtra 411040" }, "geometry": { "type": "Point", "coordinates": [ 73.8885824, 18.4847307 ] } },
{ "type": "Feature", "properties": { "ccd_name": "Unauthorised construction/development", "com_location": "Sr No 53, Sarsan Developers LLP, Regency Aawishkar, near Regency Orion, Mohan Nagar Co-Op Society, Baner, Pune, Maharashtra 411045" }, "geometry": { "type": "Point", "coordinates": [ 73.7685622, 18.5518263 ] } },
{ "type": "Feature", "properties": { "ccd_name": "Unauthorised construction/development", "com_location": " sarve naMbara 19/1 +8B, naMbara 41/2  anIkA gokuLa nivAsa , pla Ta karvenagara hiMgaNe homa ka lanI, Pune, Maharashtra" }, "geometry": { "type": "Point", "coordinates": [ 73.9329082, 18.5259337 ] } },
{ "type": "Feature", "properties": { "ccd_name": "Unauthorised construction/development", "com_location": "Behind Raviwar Peth City Survey No.980, Store Room No.1,, Pune, Maharashtra" }, "geometry": { "type": "Point", "coordinates": [ 73.8342401, 18.5205829 ] } },
{ "type": "Feature", "properties": { "ccd_name": "Other (Building Permission)", "com_location": "bANera yethIla sarve naM 33 yethIla Ashraya baMgalyAta,pun, Pune, Maharashtra" }, "geometry": { "type": "Point", "coordinates": [ 73.8808722, 18.4687913 ] } },
{ "type": "Feature", "properties": { "ccd_name": "Unauthorised construction/development", "com_location": "Venkatesh Flora Phase II, Mundhwa, Pune" }, "geometry": { "type": "Point", "coordinates": [ 73.9295526, 18.5284373 ] } },
{ "type": "Feature", "properties": { "ccd_name": "Other (Building Permission)", "com_location": "Kesari Poonam park society,PUNE." }, "geometry": { "type": "Point", "coordinates": [ 73.9204356, 18.5651173 ] } },
{ "type": "Feature", "properties": { "ccd_name": "Unauthorised construction/development", "com_location": "1050/51 shukravAra peTha TiLaka roDa , Pune, Maharashtra" }, "geometry": { "type": "Point", "coordinates": [ 73.8561114, 18.5032326 ] } },
{ "type": "Feature", "properties": { "ccd_name": "Other (Building Permission)", "com_location": "Newton homes Hadapsar,handewadi road ,\r\nnext to Shriram chowk, Sai Colony, Hadapsar, Pune, Maharash" }, "geometry": { "type": "Point", "coordinates": [ 73.9313468, 18.4799206 ] } },
{ "type": "Feature", "properties": { "ccd_name": "Unauthorised construction/development", "com_location": "Sr No:46/5  B T Kawade Road Pawar Baug Pune 411036 .\r\n" }, "geometry": { "type": "Point", "coordinates": [ 73.9073997, 18.5280107 ] } },
{ "type": "Feature", "properties": { "ccd_name": "Other (Building Permission)", "com_location": "156 Mangalwar Peth Ashirwad Society Parge Chowk Near Todkar Hospital Opposite Quality Fitness Club, Pune, Maharashtra" }, "geometry": { "type": "Point", "coordinates": [ 73.8644821, 18.5240639 ] } },
{ "type": "Feature", "properties": { "ccd_name": "Unauthorised construction/development", "com_location": "Sr. No 42/2/2 Shree Ganesh Park, near Atharva Garden,Chaudhari wasti, behind Rakshak nagar phase-2 , Kharadi, Pune-411014" }, "geometry": { "type": "Point", "coordinates": [ 73.9416492, 18.5571141 ] } },
{ "type": "Feature", "properties": { "ccd_name": "Unauthorised construction/development", "com_location": "kasturabA hausiMga sosA. pla Ta naM. 11,12,13, ALaMdI roDa, vishrAMtavADI, Pune, Maharashtra" }, "geometry": { "type": "Point", "coordinates": [ 73.8764138, 18.5775536 ] } },
{ "type": "Feature", "properties": { "ccd_name": "Other (Building Permission)", "com_location": "First Floor, Dnyandeep Building, 2, Manjari Rd, opposite Krb Engineering Company, near Prestige Panorama Apartments, Mhasoba Nagar, Keshav Nagar, Mundhwa, Pune, Maharashtra 411036" }, "geometry": { "type": "Point", "coordinates": [ 73.9439229, 18.5307975 ] } },
{ "type": "Feature", "properties": { "ccd_name": "Unauthorised construction/development", "com_location": "Khese Park lane no 10 plot no 6 survey number 257, Pune, Maharashtra" }, "geometry": { "type": "Point", "coordinates": [ 73.9117355, 18.5944074 ] } },
{ "type": "Feature", "properties": { "ccd_name": "Other (Building Permission)", "com_location": "415shanivAra peTha , Pune, Maharashtra" }, "geometry": { "type": "Point", "coordinates": [ 73.8519337, 18.5195427 ] } },
{ "type": "Feature", "properties": { "ccd_name": "Unauthorised construction/development", "com_location": "bAnera roDa, serila.naM . -114/2/2/3, ashTagandhA pheza -3 lena , nIara DeDikeTeDa kovida ha spiTala lena, rasala nes, Pune, Maharashtra" }, "geometry": { "type": "Point", "coordinates": [ 73.8786239, 18.5246091 ] } },
{ "type": "Feature", "properties": { "ccd_name": "Unauthorised construction/development", "com_location": "Sr No 100, Aryan Green Park, Raykar Mala, Dhayari, Pune" }, "geometry": { "type": "Point", "coordinates": [ 73.8105186, 18.4262541 ] } },
{ "type": "Feature", "properties": { "ccd_name": "Unauthorised construction/development", "com_location": "pla Ta naMbara c101 archanA hila TAuna koMDhavA khurda\t, Pune, Maharashtra" }, "geometry": { "type": "Point", "coordinates": [ 73.8117682, 18.4757817 ] } },
{ "type": "Feature", "properties": { "ccd_name": "Other (Building Permission)", "com_location": "Landna court, ghole patil road, NIBM anex mohamdhwadi pune " }, "geometry": { "type": "Point", "coordinates": [ 73.9098724, 18.4718839 ] } },
{ "type": "Feature", "properties": { "ccd_name": "Other (Building Permission)", "com_location": "jIvanaraMga apArTameMTsa, prabhAta roDa, gallI kra. 14, kirloskara patha, inakama Ta.cksa  phisa samora , Pune, Maharashtra" }, "geometry": { "type": "Point", "coordinates": [ 73.8786239, 18.5246091 ] } },
{ "type": "Feature", "properties": { "ccd_name": "Other (Building Permission)", "com_location": "EStrella 45, Baner road,behind shakti sports ,baner , pune 411045" }, "geometry": { "type": "Point", "coordinates": [ 73.7813491, 18.5650927 ] } },
{ "type": "Feature", "properties": { "ccd_name": "Other (Building Permission)", "com_location": " Park Express Balewadi High Street, Pune, Maharashtra" }, "geometry": { "type": "Point", "coordinates": [ 73.7771795, 18.5717947 ] } },
{ "type": "Feature", "properties": { "ccd_name": "Other (Building Permission)", "com_location": "in near housing society in  Kad Nagar undri,Pune," }, "geometry": { "type": "Point", "coordinates": [ 73.9132023, 18.4605837 ] } },
{ "type": "Feature", "properties": { "ccd_name": "Other (Building Permission)", "com_location": "PMC  colony  bilDiMga naMbara 2 shivAjI nagara vAkaDevADI puNe 411003" }, "geometry": { "type": "Point", "coordinates": [ 73.8520533, 18.5384519 ] } },
{ "type": "Feature", "properties": { "ccd_name": "Other (Building Permission)", "com_location": "Location:Lane no 21, Sr.No. 253, Khese park, Lohegaon, Pune 411032" }, "geometry": { "type": "Point", "coordinates": [ 73.9085054, 18.5913331 ] } },
{ "type": "Feature", "properties": { "ccd_name": "Other (Building Permission)", "com_location": "navasahyAdrI sosAyaTI  sAketa sosAyaTI Ta.Nkara pa IMTa samora  puNe 411052" }, "geometry": { "type": "Point", "coordinates": [ 73.824976, 18.4946585 ] } },
{ "type": "Feature", "properties": { "ccd_name": "Unauthorised construction/development", "com_location": "balewadi high street, Pune, Maharashtra" }, "geometry": { "type": "Point", "coordinates": [ 73.7752435, 18.5687114 ] } },
{ "type": "Feature", "properties": { "ccd_name": "Other (Building Permission)", "com_location": "pattA  kondwe dhaavde, NDA GATE No 10 javal\r\n, Pune, Maharashtra" }, "geometry": { "type": "Point", "coordinates": [ 73.7669625, 18.4543305 ] } },
{ "type": "Feature", "properties": { "ccd_name": "Unauthorised construction/development", "com_location": "sarve naM.122 chunAbhaTTI gaNeshamaLayA shejArI sihaMgaDa roDa puNe, 411030" }, "geometry": { "type": "Point", "coordinates": [ 73.8467105, 18.510216 ] } },
{ "type": "Feature", "properties": { "ccd_name": "Other (Building Permission)", "com_location": "Lane No. 4, Sopan Nagar, Someshwar Nagar, Wadgaon Sheri, Pune, Maharashtra 411014" }, "geometry": { "type": "Point", "coordinates": [ 73.9186362, 18.5574454 ] } },
{ "type": "Feature", "properties": { "ccd_name": "Unauthorised construction/development", "com_location": "modi tower, shukravar peth tilak road, nanumal bhojnalay samor,tilak road petrol pump shejari pune " }, "geometry": { "type": "Point", "coordinates": [ 73.8577838, 18.5014954 ] } },
{ "type": "Feature", "properties": { "ccd_name": "Unauthorised construction/development", "com_location": "sthaLa :- piMka lilI kapaDyAche dukAna\r\ndukAna naMbara.3,rAjahaMsa bilDiMga,Ta yana.cshana samora  bANeragAva,puNe " }, "geometry": { "type": "Point", "coordinates": [ 73.8786239, 18.5246091 ] } },
{ "type": "Feature", "properties": { "ccd_name": "Unauthorised construction/development", "com_location": "Bungalow No A35, Nirmal Township Phase 2, S,No.42, Kale Padal Hadapsar Pune 411028." }, "geometry": { "type": "Point", "coordinates": [ 73.937199, 18.4864209 ] } },
{ "type": "Feature", "properties": { "ccd_name": "Other (Building Permission)", "com_location": "sadAshiva peTheta svAmI samartha maTha TiLaka roDa , Pune, Maharashtra" }, "geometry": { "type": "Point", "coordinates": [ 73.8090532, 18.4435365 ] } },
{ "type": "Feature", "properties": { "ccd_name": "Unauthorised construction/development", "com_location": "pattA - budhavAra peTha, sI. TI .sa. na. 27/ka/2,puNe 411002" }, "geometry": { "type": "Point", "coordinates": [ 73.8583866, 18.5155945 ] } },
{ "type": "Feature", "properties": { "ccd_name": "Other (Building Permission)", "com_location": "Address-88/1, Near BjP office , Parvati Darshan,Pune-41100\r\n " }, "geometry": { "type": "Point", "coordinates": [ 73.8543083, 18.4923011 ] } },
{ "type": "Feature", "properties": { "ccd_name": "Unauthorised construction/development", "com_location": "SHIV NAGAR CO-OP HOUSING SOCIETY.  UNDRI SR.NO 19/1/2/2 PUNE-411060." }, "geometry": { "type": "Point", "coordinates": [ 73.8596753, 18.4946938 ] } },
{ "type": "Feature", "properties": { "ccd_name": "Unauthorised construction/development", "com_location": "Plot No. c 101, Archana Hill Town, Kondhwa Khurd, Pune 4110048." }, "geometry": { "type": "Point", "coordinates": [ 73.8950714, 18.4747844 ] } },
{ "type": "Feature", "properties": { "ccd_name": "Unauthorised construction/development", "com_location": "sAI nagara koMDhavA bI ke lena kra 20 balurgI  mulIMche vasatigRRiha javaLa, Pune, Maharashtra" }, "geometry": { "type": "Point", "coordinates": [ 73.8753525, 18.4547815 ] } },
{ "type": "Feature", "properties": { "ccd_name": "Other (Building Permission)", "com_location": "Karan Arcade, Somnath Nagar Rd, Nilesh Aagan, Wadgaon Sheri, Pune, Maharashtra 411014\t" }, "geometry": { "type": "Point", "coordinates": [ 73.9210561, 18.5550252 ] } },
{ "type": "Feature", "properties": { "ccd_name": "Unauthorised construction/development", "com_location": "  at NM Wadia Hospital 283 Shukarwar peth pune-411002" }, "geometry": { "type": "Point", "coordinates": [ 73.854923, 18.5068674 ] } },
{ "type": "Feature", "properties": { "ccd_name": "Other (Building Permission)", "com_location": "Lunkad Sky Belvedere Society, Viman Nagar, Pune MH, India" }, "geometry": { "type": "Point", "coordinates": [ 73.9117325, 18.5670445 ] } },
{ "type": "Feature", "properties": { "ccd_name": "Unauthorised construction/development", "com_location": "Sr No 27/1 kharadi, Near Borate Vasti, Tukaram Nagar, Kharadi, Pune, Maharashtra 411014" }, "geometry": { "type": "Point", "coordinates": [ 73.9326803, 18.5570763 ] } },
{ "type": "Feature", "properties": { "ccd_name": "Unauthorised construction/development", "com_location": " bldg f-201,ashoka mews , pune-411048," }, "geometry": { "type": "Point", "coordinates": [ 73.8913715, 18.4518325 ] } },
{ "type": "Feature", "properties": { "ccd_name": "Other (Building Permission)", "com_location": "vimAna nagara C.C.D chauka, Pune, Maharashtra" }, "geometry": { "type": "Point", "coordinates": [ 73.9143637, 18.5678553 ] } },
{ "type": "Feature", "properties": { "ccd_name": "Other (Building Permission)", "com_location": "Rajmudra society,Dhanakawadi, 411043., Pune, Maharashtra" }, "geometry": { "type": "Point", "coordinates": [ 73.8520863, 18.4624035 ] } },
{ "type": "Feature", "properties": { "ccd_name": "Other (Building Permission)", "com_location": "brahmA hAiTsa, brahmA ha Tela javaLa, AMbegAva budruka yethIla,pune." }, "geometry": { "type": "Point", "coordinates": [ 73.8306278, 18.456677 ] } },
{ "type": "Feature", "properties": { "ccd_name": "Other (Building Permission)", "com_location": "Kunal Aspiree, balewadi. , Pune, Maharashtra" }, "geometry": { "type": "Point", "coordinates": [ 73.7762839, 18.579502 ] } },
{ "type": "Feature", "properties": { "ccd_name": "Other (Building Permission)", "com_location": "sa.naM 33 shiva    durgA nivAsa dattanagara\r\n    yuvarAja ka.csTela bilDiMga javaLa\r\n      vAraje mALavADI puNe-58   " }, "geometry": { "type": "Point", "coordinates": [ 73.796834, 18.4864727 ] } },
{ "type": "Feature", "properties": { "ccd_name": "Unauthorised construction/development", "com_location": "Malpani group, Near Megha Centre, Pune -Solapur Road, Hadapsar, Pune 411013" }, "geometry": { "type": "Point", "coordinates": [ 73.9212169, 18.5064445 ] } },
{ "type": "Feature", "properties": { "ccd_name": "Unauthorised construction/development", "com_location": "gra.NDa Ayaka na sahakArI gRRiharachanA saMthA maryA.AMbegAva bu|| sarvhe kra. 32 hisA naM.-3/1/3/2 , , Pune, Maharashtra" }, "geometry": { "type": "Point", "coordinates": [ 73.8306278, 18.456677 ] } },
{ "type": "Feature", "properties": { "ccd_name": "Other (Building Permission)", "com_location": "Bombay Creamery\r\n beside IDBI Bank, Baner, Pune, Maharashtra 411045" }, "geometry": { "type": "Point", "coordinates": [ 73.7937132, 18.5571089 ] } },
{ "type": "Feature", "properties": { "ccd_name": "Other (Building Permission)", "com_location": "Next to Shinde Dairy in Kharadi, Pune 411014" }, "geometry": { "type": "Point", "coordinates": [ 73.9462093, 18.5586385 ] } },
{ "type": "Feature", "properties": { "ccd_name": "Unauthorised construction/development", "com_location": "Manasi, Plot No. 28, Sr. No 30, Utkarsh Sahkari Gruharachna Sanstha Maryadit, Katraj, Pune 411046." }, "geometry": { "type": "Point", "coordinates": [ 73.865238, 18.4529322 ] } },
{ "type": "Feature", "properties": { "ccd_name": "Unauthorised construction/development", "com_location": "vaDAra ko- pareTiva hAusiMga sosAiTI gokhalenagara shivAjI nagara puNe" }, "geometry": { "type": "Point", "coordinates": [ 73.82708550000001, 18.5291524 ] } },
{ "type": "Feature", "properties": { "ccd_name": "Other (Building Permission)", "com_location": "gaMgAdhAma te koMDhavA kAtraja kaDe jANArA rastA pIjI ke ema skUla javaLa, Pune, Maharashtra" }, "geometry": { "type": "Point", "coordinates": [ 73.865238, 18.4529322 ] } },
{ "type": "Feature", "properties": { "ccd_name": "Other (Building Permission)", "com_location": "Western Hills Phase 1 Housing Society,  Baner-Sus Road, Baner Pune" }, "geometry": { "type": "Point", "coordinates": [ 73.7621273, 18.5543206 ] } },
{ "type": "Feature", "properties": { "ccd_name": "Unauthorised construction/development", "com_location": "bhekarAInagara - esapI inphosiTI samora,pune." }, "geometry": { "type": "Point", "coordinates": [ 73.8786239, 18.5246091 ] } },
{ "type": "Feature", "properties": { "ccd_name": "Unauthorised construction/development", "com_location": "Katraj sacchai Mata Mandir rangashet chowk contact 93719 94768  Ambegaon kh pin code  411046 Maharashtra  pune " }, "geometry": { "type": "Point", "coordinates": [ 73.8531165, 18.4423325 ] } },
{ "type": "Feature", "properties": { "ccd_name": "Unauthorised construction/development", "com_location": "building c2, mont vert strin khadki raileway station mage hp petro pump pudhe chikhalwadi pune 20 " }, "geometry": { "type": "Point", "coordinates": [ 73.8389827, 18.5645237 ] } },
{ "type": "Feature", "properties": { "ccd_name": "Unauthorised construction/development", "com_location": "Location --> O-902 Dushyant Hemant Betharia  S.No. 89, Lane No. 11, near Veerbhadra Nagar, Shreenath Society, Veerbhadra Nagar, Baner, Pune, Maharashtra 411045" }, "geometry": { "type": "Point", "coordinates": [ 73.7720525, 18.5643295 ] } },
{ "type": "Feature", "properties": { "ccd_name": "Other (Building Permission)", "com_location": "on Baner Pashan Link Road and Wakeshwar Road,pune." }, "geometry": { "type": "Point", "coordinates": [ 73.7923637, 18.541392 ] } },
{ "type": "Feature", "properties": { "ccd_name": "Unauthorised construction/development", "com_location": "517, ravivAra peTha, AmadAra raviMdra ghaMgekara yAMchI kAryAlayAsamora,, Pune, Maharashtra" }, "geometry": { "type": "Point", "coordinates": [ 73.8786239, 18.5246091 ] } },
{ "type": "Feature", "properties": { "ccd_name": "Other (Building Permission)", "com_location": "Survey No.604/01,605,608 of CTS 3438,Plot No.99 in Lullanagar., Pune, Maharashtra" }, "geometry": { "type": "Point", "coordinates": [ 73.8846543, 18.4825343 ] } },
{ "type": "Feature", "properties": { "ccd_name": "Unauthorised construction/development", "com_location": "Sr. No.  46/6, Pawar Baug, B.T.Kawade Road, Ghorpadi, Pune -411001" }, "geometry": { "type": "Point", "coordinates": [ 73.9065404, 18.5261915 ] } },
{ "type": "Feature", "properties": { "ccd_name": "Other (Building Permission)", "com_location": "AnaMda nagara signala pauDa roDa  harShala ha Tela, Pune, Maharashtra" }, "geometry": { "type": "Point", "coordinates": [ 73.8786239, 18.5246091 ] } },
{ "type": "Feature", "properties": { "ccd_name": "Other (Building Permission)", "com_location": "367somavAra peTha nArapata girI chauka , Pune, Maharashtra" }, "geometry": { "type": "Point", "coordinates": [ 73.8786239, 18.5246091 ] } },
{ "type": "Feature", "properties": { "ccd_name": "Other (Building Permission)", "com_location": "bANera pAShANa liMka roDa parisara, Pune, Maharashtra" }, "geometry": { "type": "Point", "coordinates": [ 73.8325882, 18.5430169 ] } },
{ "type": "Feature", "properties": { "ccd_name": "Unauthorised construction/development", "com_location": "Kumar Prospera (Neighbouring Society)  Hadapsar Pune\r\n" }, "geometry": { "type": "Point", "coordinates": [ 73.9341451, 18.5167714 ] } },
{ "type": "Feature", "properties": { "ccd_name": "Unauthorised construction/development", "com_location": "Ganga Platino Next to Eon IT Park And world trade centre, Kharadi, Pune, Maharashtra 411014" }, "geometry": { "type": "Point", "coordinates": [ 73.9485287, 18.5526296 ] } },
{ "type": "Feature", "properties": { "ccd_name": "Other (Building Permission)", "com_location": "plA.cTa naMbara 21/1, sarvhe naMbara 37/1, rAma maMdirAjavaLa, TiMgarenagara, puNe 411015" }, "geometry": { "type": "Point", "coordinates": [ 73.8834579, 18.5817875 ] } },
{ "type": "Feature", "properties": { "ccd_name": "Unauthorised construction/development", "com_location": "Baner Pune Maharashtra India" }, "geometry": { "type": "Point", "coordinates": [ 73.7768511, 18.5642452 ] } },
{ "type": "Feature", "properties": { "ccd_name": "Other (Building Permission)", "com_location": "Sambhaji Khopde Plot no 28A, Utkarsh Society Kataj,Pune 411046." }, "geometry": { "type": "Point", "coordinates": [ 73.8658315, 18.4581956 ] } },
{ "type": "Feature", "properties": { "ccd_name": "Assessment of Additional construction", "com_location": "Rohan Mithila 3 upper parijat , Pune, Maharashtra" }, "geometry": { "type": "Point", "coordinates": [ 73.910780700000018, 18.5749668 ] } },
{ "type": "Feature", "properties": { "ccd_name": "Other (Building Permission)", "com_location": "shiMde vastI,silvara jublI moTarsa samora ,haDapasara 4110013 yethe., Pune, Maharashtra" }, "geometry": { "type": "Point", "coordinates": [ 73.914672, 18.516882 ] } },
{ "type": "Feature", "properties": { "ccd_name": "Other (Building Permission)", "com_location": "294 guruwar peth Raja tower society ke baju kachi Ali pin code 411042 swargate, Pune, Maharashtra" }, "geometry": { "type": "Point", "coordinates": [ 73.8617083, 18.50611 ] } },
{ "type": "Feature", "properties": { "ccd_name": "Unauthorised construction/development", "com_location": "Sr. No. 41/1 , Vidya Nagar Society , Plot no. 8 , Wadgaonsheri , Pune 411014. " }, "geometry": { "type": "Point", "coordinates": [ 73.9217419, 18.5536992 ] } },
{ "type": "Feature", "properties": { "ccd_name": "Unauthorised construction/development", "com_location": "A.K.SURANA DEVELOPERS-G, Site at RUTURANG SHRAVAN BUILDING G ,S no.49/1,C.T.S. No.3701 , Pune, Maharashtra" }, "geometry": { "type": "Point", "coordinates": [ 73.8566371, 18.4854554 ] } },
{ "type": "Feature", "properties": { "ccd_name": "Other (Building Permission)", "com_location": "sarvhe naMbara 41/2/3, mAnAjInagara, naRhe , puNe 411041, monikA sahakArI gRRiha. saMsthA maryA. rahivAshI bhAgAta" }, "geometry": { "type": "Point", "coordinates": [ 73.823184700000013, 18.449906 ] } },
{ "type": "Feature", "properties": { "ccd_name": "Other (Building Permission)", "com_location": " from Market Yard to Maharshinagar, Pune, Maharashtra" }, "geometry": { "type": "Point", "coordinates": [ 73.8610191, 18.4855746 ] } },
{ "type": "Feature", "properties": { "ccd_name": "Unauthorised construction/development", "com_location": "Shree Nagar Society, Sr no 41/ 3, near markandey temple, Anand Park, Wadgaon Sheri, Pune, Maharashtra 14" }, "geometry": { "type": "Point", "coordinates": [ 73.9231229, 18.5532691 ] } },
{ "type": "Feature", "properties": { "ccd_name": "Other (Building Permission)", "com_location": "35 Shukrawar Peth Bhau Maharaj Bol, Opposite Bansal Dairy Pune 411002" }, "geometry": { "type": "Point", "coordinates": [ 73.8579641, 18.5138004 ] } },
{ "type": "Feature", "properties": { "ccd_name": "Unauthorised construction/development", "com_location": "dIyA presTija sosAyaTI, sarve naMbara 47 /1, sunitA nagara lena naMbara 7 dvArakA gArDanachyA pAThImAge vaDagAva  sherI puNe " }, "geometry": { "type": "Point", "coordinates": [ 73.9252132, 18.5596339 ] } },
{ "type": "Feature", "properties": { "ccd_name": "Unauthorised construction/development", "com_location": "Shrikrishna Jwellers, Magar Ali, Near Meghashree Lodge, Gandhi Chowk, Hadapsar, Pune - 411028" }, "geometry": { "type": "Point", "coordinates": [ 73.9333053, 18.5002365 ] } },
{ "type": "Feature", "properties": { "ccd_name": "Unauthorised construction/development", "com_location": " ganga Bhagoyday society , Manik Baug, Pune, Maharashtra" }, "geometry": { "type": "Point", "coordinates": [ 73.8218445, 18.4703077 ] } },
{ "type": "Feature", "properties": { "ccd_name": "Unauthorised construction/development", "com_location": "Lane no 2 and Lane no.7 Veerbhadra Nagar Baner, Pune, Maharashtra" }, "geometry": { "type": "Point", "coordinates": [ 73.775304, 18.5630034 ] } },
{ "type": "Feature", "properties": { "ccd_name": "Unauthorised construction/development", "com_location": "Rohan Abhilasha Wagholi Pune " }, "geometry": { "type": "Point", "coordinates": [ 73.9686644, 18.5956017 ] } },
{ "type": "Feature", "properties": { "ccd_name": "Unauthorised construction/development", "com_location": "PMT Colony 638 /2  /2A  Bibwewadi lane no 6 Sr np 638 Left Side G+3 , Pune, Maharashtra" }, "geometry": { "type": "Point", "coordinates": [ 73.8717355, 18.4682241 ] } },
{ "type": "Feature", "properties": { "ccd_name": "Unauthorised construction/development", "com_location": "hiMgaNe khurda siMhagaDa roDa, puNe. 51     \r\n" }, "geometry": { "type": "Point", "coordinates": [ 73.8332731, 18.4758052 ] } },
{ "type": "Feature", "properties": { "ccd_name": "Other (Building Permission)", "com_location": "Baner Pashan link road, besides Orange County building. Pin code: 411021\r\n, Pune, Maharashtra" }, "geometry": { "type": "Point", "coordinates": [ 73.7911009, 18.5480592 ] } },
{ "type": "Feature", "properties": { "ccd_name": "Unauthorised construction/development", "com_location": "aMDe kA phaMDA navI peTha mate biMlDIga, Pune, Maharashtra" }, "geometry": { "type": "Point", "coordinates": [ 73.8403511, 18.5059151 ] } },
{ "type": "Feature", "properties": { "ccd_name": "Unauthorised construction/development", "com_location": "Little Millenium Schhol ANIL Bababsaheb Pawar p no 15 B, Utkarsh Society Katraj,Pune 411046" }, "geometry": { "type": "Point", "coordinates": [ 73.8674739, 18.4462907 ] } },
{ "type": "Feature", "properties": { "ccd_name": "Unauthorised construction/development", "com_location": "tAMboLI mashIda javaLa, Pune, Maharashtra" }, "geometry": { "type": "Point", "coordinates": [ 73.8786239, 18.5246091 ] } },
{ "type": "Feature", "properties": { "ccd_name": "Other (Building Permission)", "com_location": " opposite Nyati Eternity in Undri, Pune, Maharashtra" }, "geometry": { "type": "Point", "coordinates": [ 73.919862, 18.4530144 ] } },
{ "type": "Feature", "properties": { "ccd_name": "Other (Building Permission)", "com_location": "Shop No 3, Vittal Mandir, Lantana Gardens, Bavdhan, Pune, Maharashtra 411021" }, "geometry": { "type": "Point", "coordinates": [ 73.7771342, 18.5174175 ] } },
{ "type": "Feature", "properties": { "ccd_name": "Other (Building Permission)", "com_location": "402 flat in Rohan Mithila (A to Y), Viman Nagar, Pune - 411014 . " }, "geometry": { "type": "Point", "coordinates": [ 73.9077814, 18.5732245 ] } },
{ "type": "Feature", "properties": { "ccd_name": "Other (Building Permission)", "com_location": "siMhagaDa roDa ,varShAnaMda society sarve naMbara 28/4a yethe , Pune, Maharashtra" }, "geometry": { "type": "Point", "coordinates": [ 73.8231563, 18.4763133 ] } },
{ "type": "Feature", "properties": { "ccd_name": "Other (Building Permission)", "com_location": "Opp nagar wala school next to telera park saniya apartment kalyani nagar , Pune, Maharashtra" }, "geometry": { "type": "Point", "coordinates": [ 73.8984572, 18.5479085 ] } },
{ "type": "Feature", "properties": { "ccd_name": "Unauthorised construction/development", "com_location": "sun sapphire co-opp housing society, hadapsar industrial estate pune-411013" }, "geometry": { "type": "Point", "coordinates": [ 73.9156072, 18.5175988 ] } },
{ "type": "Feature", "properties": { "ccd_name": "Unauthorised construction/development", "com_location": "Plot No. 2 A, Sr. No 30, Utkarsh Sahkari Gruharachna Sanstha Maryadit, Katraj, Pune 411046." }, "geometry": { "type": "Point", "coordinates": [ 73.865238, 18.4529322 ] } },
{ "type": "Feature", "properties": { "ccd_name": "Other (Building Permission)", "com_location": "Sr No 3/7/1/1, Navratna Housing Society. \r\nNear Ganpati Mandir, Pune, Maharashtra" }, "geometry": { "type": "Point", "coordinates": [ 73.9198797, 18.543079 ] } },
{ "type": "Feature", "properties": { "ccd_name": "Other (Building Permission)", "com_location": "This is at Balewadi, next wo willows society, Pune, Maharashtra" }, "geometry": { "type": "Point", "coordinates": [ 73.7706807, 18.5788913 ] } },
{ "type": "Feature", "properties": { "ccd_name": "Unauthorised construction/development", "com_location": "saMjaya thorAta, phla.cTa kra. 32 bI viMga ANi (ii)esaena surI taLamajalA bI viMga, pattA keshava gArDana sosAyaTI bI viMga, sarvhe naM. 168/13 sADesatarAnaLI,haDapasara, puNe-411 028." }, "geometry": { "type": "Point", "coordinates": [ 73.9531189, 18.5646495 ] } },
{ "type": "Feature", "properties": { "ccd_name": "Other (Building Permission)", "com_location": " 1572 sadAshiva peTha chimaNa bAga sosAyaTI rAva bahAddara gaDakarI patha puNe 411030," }, "geometry": { "type": "Point", "coordinates": [ 73.8468682, 18.5091348 ] } },
{ "type": "Feature", "properties": { "ccd_name": "Other (Building Permission)", "com_location": "sana siTI roDa phAyara brigeDa kamala hausiMga Pune " }, "geometry": { "type": "Point", "coordinates": [ 73.8916141, 18.4825638 ] } },
{ "type": "Feature", "properties": { "ccd_name": "Other (Building Permission)", "com_location": "Shri Balaji Associates Pune L.L.P, Builder named Shri Subhash Sitaram Goyal, at Kalas Gaon, Taluka Haveli, Survey No.117, City Sr.No.2799. Pune 411015\r\n" }, "geometry": { "type": "Point", "coordinates": [ 73.872768400000012, 18.5805177 ] } },
{ "type": "Feature", "properties": { "ccd_name": "Unauthorised construction/development", "com_location": "dhAnorI jakAta nAkA dp road,new porwal road, Pune, Maharashtra" }, "geometry": { "type": "Point", "coordinates": [ 73.907548, 18.597132 ] } },
{ "type": "Feature", "properties": { "ccd_name": "Other (Building Permission)", "com_location": "kAMchanapurama sosAyaTI gaTa naMbara 1210 bAyapha roDa moje ka leja vAgholI javaLa\t, Pune, Maharashtra" }, "geometry": { "type": "Point", "coordinates": [ 73.9531189, 18.5646495 ] } },
{ "type": "Feature", "properties": { "ccd_name": "Unauthorised construction/development", "com_location": "sr naMbara 2,sonaI nivAsa roDa,shrI vuDa sosAyaTI javaLa, smashAnabhUmI roDa, dhAnorI puNe-411015" }, "geometry": { "type": "Point", "coordinates": [ 73.896851, 18.5967587 ] } },
{ "type": "Feature", "properties": { "ccd_name": "Unauthorised construction/development", "com_location": "vihirIche grAuMDa tuLashIbAgavAle ka lanI dashabhujA gaNapatI javaLa, Pune, Maharashtra" }, "geometry": { "type": "Point", "coordinates": [ 73.8258388, 18.505765 ] } },
{ "type": "Feature", "properties": { "ccd_name": "Unauthorised construction/development", "com_location": "Unauthorized construction shop in front of our society gate. Sanskriti homes balewadi, Pune, Maharashtra" }, "geometry": { "type": "Point", "coordinates": [ 73.7744225, 18.5740512 ] } },
{ "type": "Feature", "properties": { "ccd_name": "Regularisation of plots/ constructions", "com_location": "75, Lane Number 13, Vidyanagar, Dhanori, Pune, Maharashtra 411032, India" }, "geometry": { "type": "Point", "coordinates": [ 73.8953365, 18.5792035 ] } },
{ "type": "Feature", "properties": { "ccd_name": "Other (Building Permission)", "com_location": "mAMjarI budruka mALavADI, padmAvatI klAsika bilDiMga (sanarAIja Devhalaparsa) puNe, mahArAShTra 412307. " }, "geometry": { "type": "Point", "coordinates": [ 73.9719549, 18.5121611 ] } },
{ "type": "Feature", "properties": { "ccd_name": "Unauthorised construction/development", "com_location": "Tukaramnagar lane no 6 kharadi pune 14" }, "geometry": { "type": "Point", "coordinates": [ 73.937421, 18.5439511 ] } },
{ "type": "Feature", "properties": { "ccd_name": "Other (Building Permission)", "com_location": "H.V.Desai college on the adjoining Wall between 595 BUDHWAR PETH, Biniwale Wada and H.V.Desai college Pune" }, "geometry": { "type": "Point", "coordinates": [ 73.8555207, 18.5181097 ] } },
{ "type": "Feature", "properties": { "ccd_name": "Unauthorised construction/development", "com_location": "101 - Jagdish Shirke.\r\nBhagwati Ashiyana, A wing, Sr No 114, Sutarwadi Road, Pashan  \r\nPune 411021" }, "geometry": { "type": "Point", "coordinates": [ 73.7852966, 18.5380686 ] } },
{ "type": "Feature", "properties": { "ccd_name": "Other (Building Permission)", "com_location": "Marigold Banquets behind our society 24k stargaze. pune" }, "geometry": { "type": "Point", "coordinates": [ 73.7636897, 18.5075308 ] } },
{ "type": "Feature", "properties": { "ccd_name": "Unauthorised construction/development", "com_location": "Address : 386 Bhawani Peth Overa Enclave Opp Sunshine Bakery.\r\n, Pune, Maharashtra" }, "geometry": { "type": "Point", "coordinates": [ 73.8748179, 18.5082777 ] } },
{ "type": "Feature", "properties": { "ccd_name": "Unauthorised construction/development", "com_location": "1180 budhwar peth, shrikrishna arcade, tulsibaug , pune" }, "geometry": { "type": "Point", "coordinates": [ 73.8574146, 18.5150047 ] } },
{ "type": "Feature", "properties": { "ccd_name": "Unauthorised construction/development", "com_location": "sarvhe na 108,109 AnaMda nagara rAmaTekaDI haDapasara puNe 13" }, "geometry": { "type": "Point", "coordinates": [ 73.9171863, 18.502085 ] } },
{ "type": "Feature", "properties": { "ccd_name": "Unauthorised construction/development", "com_location": "yeravaDA kShetriyAkAryAlaya puNe " }, "geometry": { "type": "Point", "coordinates": [ 73.8875732, 18.5453524 ] } },
{ "type": "Feature", "properties": { "ccd_name": "Other (Building Permission)", "com_location": "Survey no. 18, Ambedkar Chouk, Warje Jakat Naka, Pune 411058" }, "geometry": { "type": "Point", "coordinates": [ 73.810334, 18.484644 ] } },
{ "type": "Feature", "properties": { "ccd_name": "Other (Building Permission)", "com_location": "MIT WPU college\t, Pune, Maharashtra" }, "geometry": { "type": "Point", "coordinates": [ 73.8151112, 18.5177559 ] } },
{ "type": "Feature", "properties": { "ccd_name": "Other (Building Permission)", "com_location": "mauje karvenagara, tA. havelI, jilhA puNe yethIla sa. naM.15 hissA na. 1/1  kShetra 1800 chaurasa phUTa yA jaminIvara " }, "geometry": { "type": "Point", "coordinates": [ 73.8786239, 18.5246091 ] } },
{ "type": "Feature", "properties": { "ccd_name": "Other (Building Permission)", "com_location": "Mundhwa Pune 36" }, "geometry": { "type": "Point", "coordinates": [ 73.933003, 18.5330323 ] } },
{ "type": "Feature", "properties": { "ccd_name": "Other (Building Permission)", "com_location": "Dhayeri garmala jijau socity , Pune, Maharashtra" }, "geometry": { "type": "Point", "coordinates": [ 73.8117632, 18.457528 ] } },
{ "type": "Feature", "properties": { "ccd_name": "Unauthorised construction/development", "com_location": "lena kra. 21 khese pArka lohegAva puNe 411032" }, "geometry": { "type": "Point", "coordinates": [ 73.9129251, 18.590662 ] } },
{ "type": "Feature", "properties": { "ccd_name": "Other (Building Permission)", "com_location": "Near karishma Hotel \r\nRasta peth pune  411011" }, "geometry": { "type": "Point", "coordinates": [ 73.866401, 18.518964 ] } },
{ "type": "Feature", "properties": { "ccd_name": "Unauthorised construction/development", "com_location": " gaTa kra 1424 ,shivarakara vastI, yUrokIDa shALechyA mAge kedAranAtha meDikala bAjUchA rAstA, Pune, Maharashtra" }, "geometry": { "type": "Point", "coordinates": [ 73.8786239, 18.5246091 ] } },
{ "type": "Feature", "properties": { "ccd_name": "Unauthorised construction/development", "com_location": "Baner  Pashan Link Road Pashan Pune Maharashtra India" }, "geometry": { "type": "Point", "coordinates": [ 73.7912815, 18.5491105 ] } },
{ "type": "Feature", "properties": { "ccd_name": "Other (Building Permission)", "com_location": " ARV ROYALE society C wing , Pune, Maharashtra" }, "geometry": { "type": "Point", "coordinates": [ 73.8243907, 18.4547976 ] } },
{ "type": "Feature", "properties": { "ccd_name": "Unauthorised construction/development", "com_location": "383 bhawani peth Pudumji paradise A1 building, Pune, Maharashtra" }, "geometry": { "type": "Point", "coordinates": [ 73.873792, 18.5086348 ] } },
{ "type": "Feature", "properties": { "ccd_name": "Other (Building Permission)", "com_location": "BDP zone of Bawdhan Tekdi., Pune, Maharashtra" }, "geometry": { "type": "Point", "coordinates": [ 73.7803974, 18.5190322 ] } },
{ "type": "Feature", "properties": { "ccd_name": "Other (Building Permission)", "com_location": "sa.na 16,19,51,53 ,kAkaDe siTI prakalpAshejArI , kAkaDe plAjhA karve nagara hiMgaNe budruka puNe " }, "geometry": { "type": "Point", "coordinates": [ 73.812887, 18.486967 ] } },
{ "type": "Feature", "properties": { "ccd_name": "Other (Building Permission)", "com_location": "Supreme Amadore Housing Society on Pancard Club Road, Baner, Pune 411045." }, "geometry": { "type": "Point", "coordinates": [ 73.7828104, 18.5551467 ] } },
{ "type": "Feature", "properties": { "ccd_name": "Other (Building Permission)", "com_location": "Konark virtue keshav nagar mundhwa, \r\nflorida estate., Pune, Maharashtra" }, "geometry": { "type": "Point", "coordinates": [ 73.9396855, 18.5314406 ] } },
{ "type": "Feature", "properties": { "ccd_name": "Unauthorised construction/development", "com_location": "81/A, Chandragiri Apartments, Baner Road, Next to Sakal Nagar, Pune 411007" }, "geometry": { "type": "Point", "coordinates": [ 73.7925792, 18.5581625 ] } },
{ "type": "Feature", "properties": { "ccd_name": "Other (Building Permission)", "com_location": "Regency Astra Sr No 53, Sarsan Developers LLP, Regency Aawishkar, near Regency Orion, Mohan Nagar Co-Op Society, Baner, Pune, Maharashtra 411045" }, "geometry": { "type": "Point", "coordinates": [ 73.7672933, 18.5529456 ] } },
{ "type": "Feature", "properties": { "ccd_name": "Unauthorised construction/development", "com_location": "sarvhe naM 15,viThThala nagara,junyA ka.cna la shejArI, gaNapatI maMdira javaLa,vhespA shorUma chyA pAThImAge, haDapasara, puNe 411028" }, "geometry": { "type": "Point", "coordinates": [ 73.9348307, 18.5084219 ] } },
{ "type": "Feature", "properties": { "ccd_name": "Unauthorised construction/development", "com_location": "rA sa.naM.19/A, goMdhaLe nagara haDapasara puNe 411028 " }, "geometry": { "type": "Point", "coordinates": [ 73.9427906, 18.4870377 ] } },
{ "type": "Feature", "properties": { "ccd_name": "Unauthorised construction/development", "com_location": "Sr no. 6 section 2/2/4/2/3 Kondhwa Budruk, Pune, Maharashtra" }, "geometry": { "type": "Point", "coordinates": [ 73.890687, 18.477091 ] } },
{ "type": "Feature", "properties": { "ccd_name": "Other (Building Permission)", "com_location": "kuDale piThAchI giraNI mAge tirupatI nagara,vAraje jakAta nAkA,puNe-58" }, "geometry": { "type": "Point", "coordinates": [ 73.8071678, 18.4864596 ] } },
{ "type": "Feature", "properties": { "ccd_name": "Other (Building Permission)", "com_location": "sa.na 16,19,51,53 ,leka skAyalArka imArata karve nagara puNe " }, "geometry": { "type": "Point", "coordinates": [ 73.821729, 18.4914883 ] } },
{ "type": "Feature", "properties": { "ccd_name": "Other (Building Permission)", "com_location": "Slope towards cloud 9, NIBM road. Mohammedwadi, Pune, Maharashtra" }, "geometry": { "type": "Point", "coordinates": [ 73.904164, 18.463669 ] } },
{ "type": "Feature", "properties": { "ccd_name": "Unauthorised construction/development", "com_location": "puNe sAtArA roDavara padmAvatI yA ThikANI chaMdra vilAsa ha Tela " }, "geometry": { "type": "Point", "coordinates": [ 73.856401, 18.4744696 ] } },
{ "type": "Feature", "properties": { "ccd_name": "Unauthorised construction/development", "com_location": " sarvha naM 134/2/1,4/5 tuLajAbhavAnI nagara lena naM. gaurava resiDensI chyA sAmora bAMdhaNyAta AlelI ardhavaTa sthi, Pune, Maharashtra" }, "geometry": { "type": "Point", "coordinates": [ 73.8774415, 18.464805 ] } },
{ "type": "Feature", "properties": { "ccd_name": "Other (Building Permission)", "com_location": "in Sanewadi area of Aundh, Pune, Maharashtra" }, "geometry": { "type": "Point", "coordinates": [ 73.806984, 18.5546562 ] } },
{ "type": "Feature", "properties": { "ccd_name": "Unauthorised construction/development", "com_location": "chaMdananagara kharADI dinakara paThAre nagara sarva naMbara 50/1lena naMbara 3 , Pune, Maharashtra" }, "geometry": { "type": "Point", "coordinates": [ 73.9302936, 18.5541987 ] } },
{ "type": "Feature", "properties": { "ccd_name": "Other (Building Permission)", "com_location": "gomatI bilDIMgachyA mAgila rAdhA AnaMda bilDIMga , nagara rachanA vibhAgAchyA kalyANanidhI sAskRRitika bhavana chyA samoracha Ahe ., Pune, Maharashtra" }, "geometry": { "type": "Point", "coordinates": [ 73.861181, 18.512489 ] } },
{ "type": "Feature", "properties": { "ccd_name": "Other (Building Permission)", "com_location": "Land Squarebuilding, Fergusson College Rd, right side building after wadeshwar hotel and before rupali hotel deccan gymkhana Shivajinagar, Pune, 411004" }, "geometry": { "type": "Point", "coordinates": [ 73.8413827, 18.5194149 ] } },
{ "type": "Feature", "properties": { "ccd_name": "Other (Building Permission)", "com_location": "This at Balewadi, vascon willows society., Pune, Maharashtra" }, "geometry": { "type": "Point", "coordinates": [ 73.7839045, 18.5707789 ] } },
{ "type": "Feature", "properties": { "ccd_name": "Other (Building Permission)", "com_location": "A-4, Nirant Society, Kothari Blocks, Bibvewadi, Pune, Maharashtra" }, "geometry": { "type": "Point", "coordinates": [ 73.8608553, 18.4789148 ] } },
{ "type": "Feature", "properties": { "ccd_name": "Unauthorised construction/development", "com_location": "muMjAbAvastI roDa na 10 ANi 11,muMjabAvastI dhAnorI puNe 411015" }, "geometry": { "type": "Point", "coordinates": [ 73.8982357, 18.6036695 ] } },
{ "type": "Feature", "properties": { "ccd_name": "Unauthorised construction/development", "com_location": "sarve naMbara 31 muMjAbAvastI chaudharI nagara roDa naMbara 14 lena naMbara 21\t, Pune, Maharashtra" }, "geometry": { "type": "Point", "coordinates": [ 73.896598, 18.5849715 ] } },
{ "type": "Feature", "properties": { "ccd_name": "Other (Building Permission)", "com_location": "232/B, Shukrawar Peth, Jashoda Residency, Opp. Bafna Petrol Pump Lane, Pune 411002" }, "geometry": { "type": "Point", "coordinates": [ 73.8559252, 18.5090816 ] } },
{ "type": "Feature", "properties": { "ccd_name": "Other (Building Permission)", "com_location": "306, 38 pArka ma.cjesTika, vaDAchIvADI roDa, uMDrI, puNe-411060" }, "geometry": { "type": "Point", "coordinates": [ 73.9168766, 18.4385801 ] } },
{ "type": "Feature", "properties": { "ccd_name": "Unauthorised construction/development", "com_location": "Karve Nagar ( Kakade City), Pune, Maharashtra" }, "geometry": { "type": "Point", "coordinates": [ 73.8117634, 18.4865096 ] } },
{ "type": "Feature", "properties": { "ccd_name": "Other (Building Permission)", "com_location": "ground floor flat D1/002 in Natasha Enclave Society at NIBM,pune.\t" }, "geometry": { "type": "Point", "coordinates": [ 73.9006405, 18.4765003 ] } },
{ "type": "Feature", "properties": { "ccd_name": "Unauthorised construction/development", "com_location": "Sr no 39 Shinde Wasti Keshavnagar Mundhawa pune 36" }, "geometry": { "type": "Point", "coordinates": [ 73.940549, 18.5289392 ] } },
{ "type": "Feature", "properties": { "ccd_name": "Other (Building Permission)", "com_location": "phla.cTa naMbara 15, pAchavA phlora, sarve naMbara 52/2/1, lAIna naMbara 31, hayAta ha Tela shejArI. jahA.Nna pa.clesa. navAjIsha chauka. bhAgyodaya nagara koMDhavA 48., Pune, Maharashtra" }, "geometry": { "type": "Point", "coordinates": [ 73.8786239, 18.5246091 ] } },
{ "type": "Feature", "properties": { "ccd_name": "Unauthorised construction/development", "com_location": "Flat No. 101, F Building, 38 Park Majestique, Wadachiwadi road, Undri Chowk, Undri, Pune" }, "geometry": { "type": "Point", "coordinates": [ 73.9183706, 18.4463735 ] } },
{ "type": "Feature", "properties": { "ccd_name": "Unauthorised construction/development", "com_location": "Netaji subhash society B1 opp A.m college sr no 215 hadapsar manjari road , Pune, Maharashtra" }, "geometry": { "type": "Point", "coordinates": [ 73.9534806, 18.5043201 ] } },
{ "type": "Feature", "properties": { "ccd_name": "Unauthorised construction/development", "com_location": " vaDagAvasherI\r\nsa.na. 11/1ba vidyAnagara vaDagAvasherI puNe 14 " }, "geometry": { "type": "Point", "coordinates": [ 73.918503, 18.5491477 ] } },
{ "type": "Feature", "properties": { "ccd_name": "Unauthorised construction/development", "com_location": "71 A Rasta Peth Narsingh Apartment 3rd floor near shiralsheth chowk Pune 11" }, "geometry": { "type": "Point", "coordinates": [ 73.867979100000014, 18.5189632 ] } },
{ "type": "Feature", "properties": { "ccd_name": "Regularisation of plots/ constructions", "com_location": "Swapnashilp society, Ganeshnagar, Kothrud, Pune - 38" }, "geometry": { "type": "Point", "coordinates": [ 73.8237098, 18.4991594 ] } },