{
"type": "FeatureCollection",
"name": "2023_Solid_Waste_Management",
"crs": { "type": "name", "properties": { "name": "urn:ogc:def:crs:OGC:1.3:CRS84" } },
"features": [
{ "type": "Feature", "properties": { "ccd_name": "Burning of Garbage/Plastic waste", "com_location": "Dr Swapnil kubal\r\nB/603 Prayeja pear\r\nSinhgad road, Vadgaon Bk\r\nOpp fun time cinema, Pune, Maharashtra" }, "geometry": { "type": "Point", "coordinates": [ 73.819725, 18.4682297 ] } },
{ "type": "Feature", "properties": { "ccd_name": "Others (SWM )", "com_location": "Location: Dhayari-Narhe road, near pari company., Pune, Maharashtra" }, "geometry": { "type": "Point", "coordinates": [ 73.8216698, 18.4459988 ] } },
{ "type": "Feature", "properties": { "ccd_name": "Dog Nuisance", "com_location": "Sakal Nagar, Aundh, Pune, Maharashtra 411007, India" }, "geometry": { "type": "Point", "coordinates": [ 73.8202184, 18.5471748 ] } },
{ "type": "Feature", "properties": { "ccd_name": "Burning of Garbage/Plastic waste", "com_location": "behind Amar Serenity Baner Pashan link Road, Pune, Maharashtra" }, "geometry": { "type": "Point", "coordinates": [ 73.7932013, 18.5446384 ] } },
{ "type": "Feature", "properties": { "ccd_name": "Burning of Garbage/Plastic waste", "com_location": "sai nagar lane mathura soc compound lagat near sangharsh chowk chandan nagar pune." }, "geometry": { "type": "Point", "coordinates": [ 73.9297363, 18.5617676 ] } },
{ "type": "Feature", "properties": { "ccd_name": "Odour(Foul smell) from Garbage Depot", "com_location": "Sai Krupa Apartment, DP Rd, Paud Road, Bhusari Colony, Kothrud, Pune, Maharashtra 411038, India" }, "geometry": { "type": "Point", "coordinates": [ 73.7939429, 18.5051887 ] } },
{ "type": "Feature", "properties": { "ccd_name": "Burning of Garbage/Plastic waste", "com_location": "backside of chand tara masjid shyam rao pawar seat cover shop 411002, Pune, Maharashtra" }, "geometry": { "type": "Point", "coordinates": [ 73.8647229, 18.5166898 ] } },
{ "type": "Feature", "properties": { "ccd_name": "Garbage vehicle not arrived", "com_location": "Shell petrol pump Sr no 52 Near hadapsar bypass road pune nagar road kharadi pune 411014" }, "geometry": { "type": "Point", "coordinates": [ 73.93982, 18.56282 ] } },
{ "type": "Feature", "properties": { "ccd_name": "Others (SWM )", "com_location": "mAMjarI grIna emarAlDa grIna pheja 2 , Pune, Maharashtra" }, "geometry": { "type": "Point", "coordinates": [ 73.9853801, 18.5234503 ] } },
{ "type": "Feature", "properties": { "ccd_name": "Others (SWM )", "com_location": "office 27 ranakpur Darshan tank rd yerawada Pune 6" }, "geometry": { "type": "Point", "coordinates": [ 73.8756626, 18.5685035 ] } },
{ "type": "Feature", "properties": { "ccd_name": "Garbage not lifted from co-authorised collection point / House gully", "com_location": "Near Laxmi Mata Mandir, Symbiosis College Road, Vimannagar , Pune, Maharashtra" }, "geometry": { "type": "Point", "coordinates": [ 73.9094029, 18.5654789 ] } },
{ "type": "Feature", "properties": { "ccd_name": "Others (SWM )", "com_location": "Shop No 4, Royal Chambers, Siddhi Prasad Society, S.NO 47,  Paud Road,  \r\nPune :- 411038" }, "geometry": { "type": "Point", "coordinates": [ 73.7828521, 18.5142569 ] } },
{ "type": "Feature", "properties": { "ccd_name": "Others (SWM )", "com_location": "6, Aundh - Baner Link Rd, Baner, Pune, Maharashtra 411007" }, "geometry": { "type": "Point", "coordinates": [ 73.7904832, 18.5621607 ] } },
{ "type": "Feature", "properties": { "ccd_name": "Others (SWM )", "com_location": "dhomakara patha, sahakAra nagara na.2, shraddhA ha spiTala javaLa, Pune, Maharashtra" }, "geometry": { "type": "Point", "coordinates": [ 73.822121, 18.6325898 ] } },
{ "type": "Feature", "properties": { "ccd_name": "Others (SWM )", "com_location": "Bara imam kabristan guruwar peth, Pune, Maharashtra" }, "geometry": { "type": "Point", "coordinates": [ 73.8589614, 18.5067143 ] } },
{ "type": "Feature", "properties": { "ccd_name": "Burning of Garbage/Plastic waste", "com_location": "ddress- Behind prayeja pearl, near serene county back gate, wadgaon bk, pune" }, "geometry": { "type": "Point", "coordinates": [ 73.8075211, 18.4634947 ] } },
{ "type": "Feature", "properties": { "ccd_name": "Huge littering in open plot / Garbage Dump", "com_location": "pune" }, "geometry": { "type": "Point", "coordinates": [ 73.8428395, 18.5060964 ] } },
{ "type": "Feature", "properties": { "ccd_name": "Mosquito nuisance/Fogging", "com_location": "Kumar Park Infinia Park Infinia Gurudatta Nagar Phursungi Maharashtra India, Pune, Maharashtra" }, "geometry": { "type": "Point", "coordinates": [ 73.9573723, 18.4855986 ] } },
{ "type": "Feature", "properties": { "ccd_name": "Others (SWM )", "com_location": "702, sadAshiva peTha, joMdhaLe chauka, kumaThekara roDa,, Pune, Maharashtra" }, "geometry": { "type": "Point", "coordinates": [ 73.8786239, 18.5246091 ] } },
{ "type": "Feature", "properties": { "ccd_name": "Huge littering in open plot / Garbage Dump", "com_location": "Baner hills road , Pune, Maharashtra" }, "geometry": { "type": "Point", "coordinates": [ 73.7777764, 18.5503315 ] } },
{ "type": "Feature", "properties": { "ccd_name": "Others (SWM )", "com_location": "Bhairavnath Udyan, Wadgaon Sheri, , Pune, Maharashtra" }, "geometry": { "type": "Point", "coordinates": [ 73.9257815, 18.5432743 ] } },
{ "type": "Feature", "properties": { "ccd_name": "Garbage not lifted from co-authorised collection point / House gully", "com_location": "Santosh Hall Sinhgad Road Arvind Society Anand Nagar Pune Maharashtra India" }, "geometry": { "type": "Point", "coordinates": [ 73.8243008, 18.4783489 ] } },
{ "type": "Feature", "properties": { "ccd_name": "Burning of Garbage/Plastic waste", "com_location": "Chatuhshrungi Rd, Model Colony, Shivajinagar, Pune, Maharashtra 411016" }, "geometry": { "type": "Point", "coordinates": [ 73.8338579, 18.5337687 ] } },
{ "type": "Feature", "properties": { "ccd_name": "Other Animals Nuisance", "com_location": "Goodwill Orchids, Lohgaon Road, Dhanori, Pune 411015" }, "geometry": { "type": "Point", "coordinates": [ 73.9056469, 18.5969442 ] } },
{ "type": "Feature", "properties": { "ccd_name": "Others (SWM )", "com_location": "gaurAMga sosAyaTI karve nagara. 411052., Pune, Maharashtra" }, "geometry": { "type": "Point", "coordinates": [ 73.821729, 18.4914883 ] } },
{ "type": "Feature", "properties": { "ccd_name": "Others (SWM )", "com_location": " shrI dashabhujA sahakArI gRRiharachanA saMsthA maryAdita esa.Ara.e. \r\n sarve kra. 42/2 eraMDavaNe, karve roDa, pauDa phATA, dashabhujA gaNapatI maMdira javaLa, puNe 411038" }, "geometry": { "type": "Point", "coordinates": [ 73.8786239, 18.5246091 ] } },
{ "type": "Feature", "properties": { "ccd_name": "Mosquito nuisance/Fogging", "com_location": "Grandeur co-operative housing society ltd. Sr. No. 58, Ambegaon (BK), Pune   411046\r\n" }, "geometry": { "type": "Point", "coordinates": [ 73.843511, 18.4490209 ] } },
{ "type": "Feature", "properties": { "ccd_name": "Others (SWM )", "com_location": "Satyam Industrial Estate, 163/164, Erandwane, Pune- 38" }, "geometry": { "type": "Point", "coordinates": [ 73.8278093, 18.5048312 ] } },
{ "type": "Feature", "properties": { "ccd_name": "Others (SWM )", "com_location": "Erandwane Bharatkunj no 1 near rp Vaidya  .., Pune, Maharashtra" }, "geometry": { "type": "Point", "coordinates": [ 73.8236429, 18.5037794 ] } },
{ "type": "Feature", "properties": { "ccd_name": "Burning of Garbage/Plastic waste", "com_location": "Warje, Shivane, Uttam Nagar,, Pune, Maharashtra" }, "geometry": { "type": "Point", "coordinates": [ 73.8016531, 18.4821173 ] } },
{ "type": "Feature", "properties": { "ccd_name": "Odour(Foul smell) from Garbage Depot", "com_location": "Sawarkar Bhavan, 2nd Floor, Congress House Road, Maharshi Vitthal Ramji Shinde Bridge, Shivajinagar, Pune, Maharashtra 411005, India" }, "geometry": { "type": "Point", "coordinates": [ 73.849763, 18.5219897 ] } },
{ "type": "Feature", "properties": { "ccd_name": "Others (SWM )", "com_location": "53 Santa nagar Ramdas Aranwshwar Pune 411009\r\n" }, "geometry": { "type": "Point", "coordinates": [ 73.8540201, 18.4845273 ] } },
{ "type": "Feature", "properties": { "ccd_name": "Burning of Garbage/Plastic waste", "com_location": " ganganagar samashanbhumi road fursungi  , Pune, Maharashtra" }, "geometry": { "type": "Point", "coordinates": [ 73.9581313, 18.4881939 ] } },
{ "type": "Feature", "properties": { "ccd_name": "Others (SWM )", "com_location": "Kumar Papillon road near Sutarwadi bus depot., Pune, Maharashtra" }, "geometry": { "type": "Point", "coordinates": [ 73.7783982, 18.5427011 ] } },
{ "type": "Feature", "properties": { "ccd_name": "Burning of Garbage/Plastic waste", "com_location": "shiMde vastI sun sapfier bilDiMga javaLa ka.cna la madhye, Pune, Maharashtra" }, "geometry": { "type": "Point", "coordinates": [ 73.9170179, 18.5176328 ] } },
{ "type": "Feature", "properties": { "ccd_name": "Huge littering in open plot / Garbage Dump", "com_location": "HRISHIKESH BUILDING ,MODEL COLONY, Pune, Maharashtra" }, "geometry": { "type": "Point", "coordinates": [ 73.8374954, 18.5324846 ] } },
{ "type": "Feature", "properties": { "ccd_name": "Others (SWM )", "com_location": "taLajAI TekaDI, Pune, Maharashtra" }, "geometry": { "type": "Point", "coordinates": [ 73.8436386, 18.4756513 ] } },
{ "type": "Feature", "properties": { "ccd_name": "Others (SWM )", "com_location": "Vadgaon Sheri, Ganeshnagar, Swami samarth mandir gate\r\n, Pune, Maharashtra" }, "geometry": { "type": "Point", "coordinates": [ 73.9257382, 18.5576285 ] } },
{ "type": "Feature", "properties": { "ccd_name": "Others (SWM )", "com_location": "SOUMITRA SOCIETY ERANDWANA PUNE 38 NEAR KALMADI SCHOOL BEHIND PIMLICO HOTEL ANANT CHINTAN BUNGLOW OPPOSITE." }, "geometry": { "type": "Point", "coordinates": [ 73.8314091, 18.5086429 ] } },
{ "type": "Feature", "properties": { "ccd_name": "Others (SWM )", "com_location": "Office 11, 2nd Flr, Suyash Shroff Mall, Late KP Shroff Path, Baner, Pune, Maharashtra 411045" }, "geometry": { "type": "Point", "coordinates": [ 73.7822421, 18.563388 ] } },
{ "type": "Feature", "properties": { "ccd_name": "Other Animals Nuisance", "com_location": "konark park society dhole patil road 411001 , Pune, Maharashtra" }, "geometry": { "type": "Point", "coordinates": [ 73.8772906, 18.5353964 ] } },
{ "type": "Feature", "properties": { "ccd_name": "Others (SWM )", "com_location": "Off Jagtap chawk Wanawadi 411040\r\nAlong Shinde chatri, Pune, Maharashtra" }, "geometry": { "type": "Point", "coordinates": [ 73.8972969, 18.4916375 ] } },
{ "type": "Feature", "properties": { "ccd_name": "Mosquito nuisance/Fogging", "com_location": "enaDIe roDa shivaNe kAmaThe vastI Prestige public school samora, Pune, Maharashtra" }, "geometry": { "type": "Point", "coordinates": [ 73.7850176, 18.4652302 ] } },
{ "type": "Feature", "properties": { "ccd_name": "Others (SWM )", "com_location": "7th Heaven Road, near apple chemist in front of ganga newtown dhanori pune 15." }, "geometry": { "type": "Point", "coordinates": [ 73.9032624, 18.6033685 ] } },
{ "type": "Feature", "properties": { "ccd_name": "Mosquito nuisance/Fogging", "com_location": "Acolade Society, Kharadi, Pune" }, "geometry": { "type": "Point", "coordinates": [ 73.9335504, 18.5470473 ] } },
{ "type": "Feature", "properties": { "ccd_name": "Mosquito nuisance/Fogging", "com_location": "sa.naM.115 rAjIva gAMdhI nagara, meMTala ha spiTala javaLa yeravaDA yA vibhAgAta , Pune, Maharashtra" }, "geometry": { "type": "Point", "coordinates": [ 73.879711, 18.5529226 ] } },
{ "type": "Feature", "properties": { "ccd_name": "Others (SWM )", "com_location": "104, cosmic apartment badami haud chouk , shukrawar peth\r\n, Pune, Maharashtra" }, "geometry": { "type": "Point", "coordinates": [ 73.8551309, 18.5112803 ] } },
{ "type": "Feature", "properties": { "ccd_name": "Mosquito nuisance/Fogging", "com_location": "svapnagaMgA sosAyaTI kolhevADI khaDakavAsalA puNe." }, "geometry": { "type": "Point", "coordinates": [ 73.9531189, 18.5646495 ] } },
{ "type": "Feature", "properties": { "ccd_name": "Others (SWM )", "com_location": "1125-1120, Squadron Leader Sureshchandra Bhagwat Rd, Model Colony, Shivajinagar, Pune, Maharashtra 411016" }, "geometry": { "type": "Point", "coordinates": [ 73.8410834, 18.5283677 ] } },
{ "type": "Feature", "properties": { "ccd_name": "Others (SWM )", "com_location": "Canal road nr TVS SHOWROOM WARJE jakat naka warje\r\n, Pune, Maharashtra" }, "geometry": { "type": "Point", "coordinates": [ 73.8101766, 18.4837877 ] } },
{ "type": "Feature", "properties": { "ccd_name": "Odour(Foul smell) from Garbage Depot", "com_location": "Natasha Hill View Housing society , Pune, Maharashtra" }, "geometry": { "type": "Point", "coordinates": [ 73.8998156, 18.4774068 ] } },
{ "type": "Feature", "properties": { "ccd_name": "Others (SWM )", "com_location": " Mahalunge Nande Road, Next to ZP School.\r\n, Pune, Maharashtra" }, "geometry": { "type": "Point", "coordinates": [ 73.7577375, 18.5728896 ] } },
{ "type": "Feature", "properties": { "ccd_name": "Burning of Garbage", "com_location": "GWGX+M4R, K wing, Venkatesh Graffiti Gate 2 Rd, Lonkar Nagar, Mundhwa, Pune, Maharashtra 411036, India" }, "geometry": { "type": "Point", "coordinates": [ 73.947903, 18.526748 ] } },
{ "type": "Feature", "properties": { "ccd_name": "Others (SWM )", "com_location": "133 shukravAra peTha, apojhiTa gaurava biryANI sAmora ratna nagarI bilDiMga samora., Pune, Maharashtra" }, "geometry": { "type": "Point", "coordinates": [ 73.8573427, 18.5114792 ] } },
{ "type": "Feature", "properties": { "ccd_name": "Others (SWM )", "com_location": "cloud 9 society , heaven park , Pune, Maharashtra" }, "geometry": { "type": "Point", "coordinates": [ 73.9106895, 18.4809126 ] } },
{ "type": "Feature", "properties": { "ccd_name": "Mosquito nuisance/Fogging", "com_location": "Sr.no 15/8 tapodham road omkar colony lean no 7 near jijai gardan , Pune, Maharashtra" }, "geometry": { "type": "Point", "coordinates": [ 73.8094619, 18.4783098 ] } },
{ "type": "Feature", "properties": { "ccd_name": "Burning of Garbage/Plastic waste", "com_location": "ThikANa pArI kaMpanI chauka narahe., Pune, Maharashtra" }, "geometry": { "type": "Point", "coordinates": [ 73.8416424, 18.5248325 ] } },
{ "type": "Feature", "properties": { "ccd_name": "Others (SWM )", "com_location": "chAMdaNI bAra shejArUna keLavADI kaDe jANArA rastA \r\npauDa roDa kotharUDa puNe 411038" }, "geometry": { "type": "Point", "coordinates": [ 73.8786239, 18.5246091 ] } },
{ "type": "Feature", "properties": { "ccd_name": "Others (SWM )", "com_location": "phAyara sTeshana ke sAmane gaMgA la.NDa mArka sosAyaTI  gaMgAdhAma chauka gaMgAdhAma Ta vara puNe 411037" }, "geometry": { "type": "Point", "coordinates": [ 73.9531189, 18.5646495 ] } },
{ "type": "Feature", "properties": { "ccd_name": "Garbage not lifted from co-authorised collection point / House gully", "com_location": "meriDiyana yumanA ekoleDa roDa tukArAma nagara kharADI puNe 411014" }, "geometry": { "type": "Point", "coordinates": [ 73.9315733, 18.5493214 ] } },
{ "type": "Feature", "properties": { "ccd_name": "Mosquito nuisance/Fogging", "com_location": "phla.cTa naMbara - 401 , tejbliss apArTameMTa , svAnaMda ha spiTala chyA mAge , kAraMDe gallI , ma Dela ka lanI , shivAjInagara , puNe - 411 016\r\n" }, "geometry": { "type": "Point", "coordinates": [ 73.8340558, 18.5303369 ] } },
{ "type": "Feature", "properties": { "ccd_name": "Garbage not lifted from co-authorised collection point / House gully", "com_location": " in lane no 1 Shivneri Nagar Kondhwa khurd Pune 48 ." }, "geometry": { "type": "Point", "coordinates": [ 73.8810185, 18.4659961 ] } },
{ "type": "Feature", "properties": { "ccd_name": "Others (SWM )", "com_location": "parvatI gAva\r\n176 /3 - nalinI apArTameMTa , dakShiNa bAjU , TVS shelAra gallI , reNukA nivAsa apArTameMTa samora , bhAgavata ha lachI mAgachI bAjU .\r\nparvatI gAva puNe 9" }, "geometry": { "type": "Point", "coordinates": [ 73.8786239, 18.5246091 ] } },
{ "type": "Feature", "properties": { "ccd_name": "Others (SWM )", "com_location": " pattA . pla Ta 65. atula kacherIkara svedagaMgA sosAyaTI. vAraje., Pune, Maharashtra" }, "geometry": { "type": "Point", "coordinates": [ 73.9531189, 18.5646495 ] } },
{ "type": "Feature", "properties": { "ccd_name": "Mosquito nuisance/Fogging", "com_location": "Glow Heights building S.V.Nagar behind Miland Budha vihar ramtekdi hadapsar Pune-13" }, "geometry": { "type": "Point", "coordinates": [ 73.9346733, 18.5009043 ] } },
{ "type": "Feature", "properties": { "ccd_name": "Others (SWM )", "com_location": "86, DP Rd, Gananjay Society, Shastri Nagar, Kothrud, Pune, Maharashtra 411058" }, "geometry": { "type": "Point", "coordinates": [ 73.8044804, 18.5022706 ] } },
{ "type": "Feature", "properties": { "ccd_name": "Others (SWM )", "com_location": "svArageTa basa sTa pa apojiTa sAITa naTarAja ha Tela shejArI apojiTa sAIDa meTro sTeshana javaLa svArageTa puNe " }, "geometry": { "type": "Point", "coordinates": [ 73.8786239, 18.5246091 ] } },
{ "type": "Feature", "properties": { "ccd_name": "Others (SWM )", "com_location": "Address:\r\nOpposite of sanas school, near dhayari phata, near canal, dhayari, pune." }, "geometry": { "type": "Point", "coordinates": [ 73.8124079, 18.4597661 ] } },
{ "type": "Feature", "properties": { "ccd_name": "Others (SWM )", "com_location": "Sus to Pashan and both sides footpath have accumulated stones, Pune, Maharashtra" }, "geometry": { "type": "Point", "coordinates": [ 73.7923957, 18.5414267 ] } },
{ "type": "Feature", "properties": { "ccd_name": "Garbage vehicle not arrived", "com_location": "SRA bilDiMga, maMjuLabAI  chALa-bhavAnI peTha, puNe \r\n" }, "geometry": { "type": "Point", "coordinates": [ 73.8650509, 18.5043273 ] } },
{ "type": "Feature", "properties": { "ccd_name": "Others (SWM )", "com_location": "Rutuparna Apts, Pakharbaug Soc, Lane no 9, NDA Pashan Road, Bavdhan Pune 411021." }, "geometry": { "type": "Point", "coordinates": [ 73.7794838, 18.5216804 ] } },
{ "type": "Feature", "properties": { "ccd_name": "Others (SWM )", "com_location": "Pune - Satara Rd, opp. Bharati Vidyapeeth, Katraj, Pune, Maharashtra 411046" }, "geometry": { "type": "Point", "coordinates": [ 73.858398, 18.4575118 ] } },
{ "type": "Feature", "properties": { "ccd_name": "Others (SWM )", "com_location": "yogesha kedArI vaDagAvasherI posTa  phisa javaLa,malhAra nagara 411014 , Pune, Maharashtra" }, "geometry": { "type": "Point", "coordinates": [ 73.9283005, 18.5574028 ] } },
{ "type": "Feature", "properties": { "ccd_name": "Others (SWM )", "com_location": "near Plot no. 53, Swedganga CHS, Warje. , Pune, Maharashtra" }, "geometry": { "type": "Point", "coordinates": [ 73.8054904, 18.4829164 ] } },
{ "type": "Feature", "properties": { "ccd_name": "Others (SWM )", "com_location": "148, kasabA peTha dhavala apArTameMTa puNe 11" }, "geometry": { "type": "Point", "coordinates": [ 73.8567477, 18.5190974 ] } },
{ "type": "Feature", "properties": { "ccd_name": "Others (SWM )", "com_location": "on Sassoon road under metro station Ruby hall clinic Pune 1" }, "geometry": { "type": "Point", "coordinates": [ 73.877477, 18.5326575 ] } },
{ "type": "Feature", "properties": { "ccd_name": "Others (SWM )", "com_location": "Rahul Nisarg society, ragav das school near by, waraje , Pune, Maharashtra" }, "geometry": { "type": "Point", "coordinates": [ 73.793524, 18.4835862 ] } },
{ "type": "Feature", "properties": { "ccd_name": "Others (SWM )", "com_location": "484/16 Mitra mandal colony \r\nParvati Darshan police chowki samor \r\nMauli clinic chya shejari\r\nParvati darshan 411009, Pune, Maharashtra" }, "geometry": { "type": "Point", "coordinates": [ 73.8533582, 18.4968887 ] } },
{ "type": "Feature", "properties": { "ccd_name": "Mosquito nuisance/Fogging", "com_location": "Vighnaharta apartment, CVF6+2PC, Katraj Ghat Rd, Bhilarewadi, Pune, Maharashtra 411046, India" }, "geometry": { "type": "Point", "coordinates": [ 73.8615586, 18.4224047 ] } },
{ "type": "Feature", "properties": { "ccd_name": "other (SWM H.O.)", "com_location": "https://docs.google.com/forms/d/e/1FAIpQLSeFpzzlJvjaxmyxeVIREnCcTKr4U_ABIHuCPlKaJ1TEteuLZA/viewform\r\n, Pune, Maharashtra" }, "geometry": { "type": "Point", "coordinates": [ 73.8786239, 18.5246091 ] } },
{ "type": "Feature", "properties": { "ccd_name": "Garbage not lifted from co-authorised collection point / House gully", "com_location": "Avdhoot Recidensy Ambegaon Pathar Dhankawadi - Sahakarnagar, Pune, Maharashtra" }, "geometry": { "type": "Point", "coordinates": [ 73.8426415, 18.4587777 ] } },
{ "type": "Feature", "properties": { "ccd_name": "Others (SWM )", "com_location": "road 11A,bhairav nagar, dhanori ,pune 411015.\t" }, "geometry": { "type": "Point", "coordinates": [ 73.8905691, 18.5877207 ] } },
{ "type": "Feature", "properties": { "ccd_name": "Garbage vehicle not arrived", "com_location": "samrATa ashoka nagara, siddhArtha buddha vihAra, kalavaDa , Pune, Maharashtra" }, "geometry": { "type": "Point", "coordinates": [ 73.9042096, 18.5908663 ] } },
{ "type": "Feature", "properties": { "ccd_name": "Others (SWM )", "com_location": "puNe gulaTekaDI samose vAle ANi vADekara kilanika samAja maMdira lAIna puNe gulaTekaDI 411037" }, "geometry": { "type": "Point", "coordinates": [ 73.8704877, 18.4877372 ] } },
{ "type": "Feature", "properties": { "ccd_name": "Others (SWM )", "com_location": "shitaladevi temple , vidi kamgar vasahat, chandannagar pune 411014" }, "geometry": { "type": "Point", "coordinates": [ 73.9303075, 18.5575693 ] } },
{ "type": "Feature", "properties": { "ccd_name": "Others (SWM )", "com_location": "Shramik Vasahat Lane no 12 Near Madan Market Karve Nagar Pune 411052" }, "geometry": { "type": "Point", "coordinates": [ 73.8132025, 18.491181 ] } },
{ "type": "Feature", "properties": { "ccd_name": "Others (SWM )", "com_location": "next to wanadevi mandir, marathwada college road, karvenagar, pune.\r\n" }, "geometry": { "type": "Point", "coordinates": [ 73.830306, 18.482774 ] } },
{ "type": "Feature", "properties": { "ccd_name": "Mosquito nuisance/Fogging", "com_location": "19b Madhukunj phatak baug Navi peth Pune 411030" }, "geometry": { "type": "Point", "coordinates": [ 73.8403442, 18.505643 ] } },
{ "type": "Feature", "properties": { "ccd_name": "Garbage vehicle not arrived", "com_location": "gallI kramAMka 8 sAI nagarI chaMdananagara navIna sAIbAbA maMdira puNe " }, "geometry": { "type": "Point", "coordinates": [ 73.9398583, 18.5335301 ] } },
{ "type": "Feature", "properties": { "ccd_name": "Mosquito nuisance/Fogging", "com_location": "siMhagaDa roDa kShetrIya kAryalaya aMtargata parisarAtIla sarve naMbara 36/1/1 vaDagAva khurda grIna philDa ha Tela mAge puNe 41" }, "geometry": { "type": "Point", "coordinates": [ 73.8786239, 18.5246091 ] } },
{ "type": "Feature", "properties": { "ccd_name": "Others (SWM )", "com_location": "Test Complaint , Pune, Maharashtra" }, "geometry": { "type": "Point", "coordinates": [ 73.7466202, 18.4962006 ] } },
{ "type": "Feature", "properties": { "ccd_name": "Others (SWM )", "com_location": "rAjasa sosAyaTI \r\nkAtraja \r\ngallI naM 3 , Pune, Maharashtra" }, "geometry": { "type": "Point", "coordinates": [ 73.9531189, 18.5646495 ] } },
{ "type": "Feature", "properties": { "ccd_name": "Others (SWM )", "com_location": "pune" }, "geometry": { "type": "Point", "coordinates": [ 73.8644548, 18.4632692 ] } },
{ "type": "Feature", "properties": { "ccd_name": "Others (SWM )", "com_location": "Sun Horizon, Laxman Nagar Baner-Balewadi behind NIA, \r\n411045, Pune, Maharashtra" }, "geometry": { "type": "Point", "coordinates": [ 73.7692013, 18.5716702 ] } },
{ "type": "Feature", "properties": { "ccd_name": "Mosquito nuisance/Fogging", "com_location": "haDapasara yethIla amanorA pArka roDa varIla narena blisa va koNArka visTA sosAyaTI , Pune, Maharashtra" }, "geometry": { "type": "Point", "coordinates": [ 73.939896300000015, 18.520408 ] } },
{ "type": "Feature", "properties": { "ccd_name": "Mosquito nuisance/Fogging", "com_location": "Nikhil C society, pragati nagar, Bhau patil road, bopodi, Pune, Maharashtra" }, "geometry": { "type": "Point", "coordinates": [ 73.8313869, 18.5663213 ] } },
{ "type": "Feature", "properties": { "ccd_name": "Others (SWM )", "com_location": "haDapasara gAva sasANe ALI datta maMdirA shejArI, Pune, Maharashtra" }, "geometry": { "type": "Point", "coordinates": [ 73.8786239, 18.5246091 ] } },
{ "type": "Feature", "properties": { "ccd_name": "Mosquito nuisance/Fogging", "com_location": "Lane no 9 vidyanagar katraj kondhawa road ,near vishwagym..\t, Pune, Maharashtra" }, "geometry": { "type": "Point", "coordinates": [ 73.8729566, 18.454477 ] } },
{ "type": "Feature", "properties": { "ccd_name": "Garbage not lifted from co-authorised collection point / House gully", "com_location": "parijat colony, in front of serum company, hadapsar pune 28 " }, "geometry": { "type": "Point", "coordinates": [ 73.945792700000013, 18.5037378 ] } },
{ "type": "Feature", "properties": { "ccd_name": "Others (SWM )", "com_location": "cloud 9 society ,heaven park , Pune, Maharashtra" }, "geometry": { "type": "Point", "coordinates": [ 73.9106895, 18.4809126 ] } },
{ "type": "Feature", "properties": { "ccd_name": "Others (SWM )", "com_location": "Bharat jyoti  Bibwewadi  pune 37...opp Sai dairy   " }, "geometry": { "type": "Point", "coordinates": [ 73.863077, 18.472306 ] } },
{ "type": "Feature", "properties": { "ccd_name": "Others (SWM )", "com_location": "Godrej hillside , mahalunge project , Pune, Maharashtra" }, "geometry": { "type": "Point", "coordinates": [ 73.7370151, 18.5640395 ] } },
{ "type": "Feature", "properties": { "ccd_name": "Others (SWM )", "com_location": "jilhA pariShada shALA AMbegAva bu||, Pune, Maharashtra" }, "geometry": { "type": "Point", "coordinates": [ 73.7814833, 18.4634042 ] } },
{ "type": "Feature", "properties": { "ccd_name": "Mosquito nuisance/Fogging", "com_location": "sarvha naMbara 08 ,triveNI ilekTra niksa chyA mAge satAvavADI ,haDapasara ,puNe 28 ." }, "geometry": { "type": "Point", "coordinates": [ 73.9398818, 18.5009288 ] } },
{ "type": "Feature", "properties": { "ccd_name": "Burning of Garbage/Plastic waste", "com_location": " ma . na. pA. che pai. khAshAbA jAdhava maidAna., Pune, Maharashtra" }, "geometry": { "type": "Point", "coordinates": [ 73.8553755, 18.5238117 ] } },
{ "type": "Feature", "properties": { "ccd_name": "Burning of Garbage/Plastic waste", "com_location": "this govt institute rajya shikashan sanshodhan parishad ,kumthekar road sadashiv peth pune" }, "geometry": { "type": "Point", "coordinates": [ 73.8490734, 18.5133441 ] } },
{ "type": "Feature", "properties": { "ccd_name": "Mosquito nuisance/Fogging", "com_location": "Pune satara road D mart manali arcade padmawati " }, "geometry": { "type": "Point", "coordinates": [ 73.8569269, 18.479046 ] } },
{ "type": "Feature", "properties": { "ccd_name": "Others (SWM )", "com_location": "yeravaDA jijAmAtA nagara shahAjI nivAsa samora , Pune, Maharashtra" }, "geometry": { "type": "Point", "coordinates": [ 73.8878474, 18.5501991 ] } },
{ "type": "Feature", "properties": { "ccd_name": "Others (SWM )", "com_location": "Upper bus depo Rajiv Gandhi nagar upper bibave wadi public toilet Kondhwa yewlewadi ward office Prabhag no 38, Pune, Maharashtra" }, "geometry": { "type": "Point", "coordinates": [ 73.869254, 18.460191 ] } },
{ "type": "Feature", "properties": { "ccd_name": "Others (SWM )", "com_location": " National Highway, Pune Nagar Road Wagholi\r\nOpp. of Lexicon school." }, "geometry": { "type": "Point", "coordinates": [ 73.9969349, 18.5876498 ] } },
{ "type": "Feature", "properties": { "ccd_name": "Others (SWM )", "com_location": "PGKM school in Kondhwa, Pune, Maharashtra" }, "geometry": { "type": "Point", "coordinates": [ 73.8778193, 18.4640864 ] } },
{ "type": "Feature", "properties": { "ccd_name": "Mosquito nuisance/Fogging", "com_location": "Bafna Archade , plot no. 58, ctc 994, Lokmanya Bal Gangadhar Tilak Rd, near Swargate, Pune, Maharashtra 411002" }, "geometry": { "type": "Point", "coordinates": [ 73.8567679, 18.5026966 ] } },
{ "type": "Feature", "properties": { "ccd_name": "Others (SWM )", "com_location": "kai shivarAma mhAtre patha navI peTha puNe " }, "geometry": { "type": "Point", "coordinates": [ 73.8412313, 18.5121208 ] } },
{ "type": "Feature", "properties": { "ccd_name": "Others (SWM )", "com_location": "bI. TI.kavaDe roDa, pulA khAlI brahmabAga  , Pune, Maharashtra" }, "geometry": { "type": "Point", "coordinates": [ 73.8786239, 18.5246091 ] } },
{ "type": "Feature", "properties": { "ccd_name": "Others (SWM )", "com_location": "Royal enfield signal javaLa, pauDa roDa., Pune, Maharashtra" }, "geometry": { "type": "Point", "coordinates": [ 73.8786239, 18.5246091 ] } },
{ "type": "Feature", "properties": { "ccd_name": "Mosquito nuisance/Fogging", "com_location": "Behind Three Jewels society H-wing, Tilekar Nagar, Pune-48" }, "geometry": { "type": "Point", "coordinates": [ 73.8825188, 18.4415442 ] } },
{ "type": "Feature", "properties": { "ccd_name": "Garbage vehicle not arrived", "com_location": "mans sarovar no 2 society shivganaga heights mage dhayri fata singhgad road pune " }, "geometry": { "type": "Point", "coordinates": [ 73.8134864, 18.4576107 ] } },
{ "type": "Feature", "properties": { "ccd_name": "Others (SWM )", "com_location": "TERRAZA in Vidhate Park Aundh, Pune, Maharashtra" }, "geometry": { "type": "Point", "coordinates": [ 73.7995227, 18.5613793 ] } },
{ "type": "Feature", "properties": { "ccd_name": "Others (SWM )", "com_location": "633 gaMja peTha, Pune, Maharashtra" }, "geometry": { "type": "Point", "coordinates": [ 73.8440548, 18.5082486 ] } },
{ "type": "Feature", "properties": { "ccd_name": "Garbage not lifted from co-authorised collection point / House gully", "com_location": "TULJABHAWANI NAGAR LANE NO 09 TRIMURTI COMPLEX KHARADI PUNE" }, "geometry": { "type": "Point", "coordinates": [ 73.9483913, 18.5643151 ] } },
{ "type": "Feature", "properties": { "ccd_name": "Others (SWM )", "com_location": "baMgalA naMbara 6 vaM 8-9 milana sosAyaTI kotharUDa , Pune, Maharashtra" }, "geometry": { "type": "Point", "coordinates": [ 73.8076543, 18.5073514 ] } },
{ "type": "Feature", "properties": { "ccd_name": "Others (SWM )", "com_location": "102A Hadapsar industrial estate near garbage depot,, Pune, Maharashtra" }, "geometry": { "type": "Point", "coordinates": [ 73.9119303, 18.5092075 ] } },
{ "type": "Feature", "properties": { "ccd_name": "Others (SWM )", "com_location": "Gera regent park baner., Pune, Maharashtra" }, "geometry": { "type": "Point", "coordinates": [ 73.776192, 18.5545659 ] } },
{ "type": "Feature", "properties": { "ccd_name": "Others (SWM )", "com_location": "Suraj Kiran Society, Sr.no.16 Near kutumb phase 2, Ambegaon pathar, Pune 411046" }, "geometry": { "type": "Point", "coordinates": [ 73.8460645, 18.4632824 ] } },
{ "type": "Feature", "properties": { "ccd_name": "Others (SWM )", "com_location": "survey no 64/3/3 , shivtej nagar , near plaza bakery , bibwewadi , pune 411037" }, "geometry": { "type": "Point", "coordinates": [ 73.8721929, 18.4687086 ] } },
{ "type": "Feature", "properties": { "ccd_name": "Others (SWM )", "com_location": "oposite mhada building ,Harsh paradise , nagras road , near ankura hospital ,aundh pune 411007" }, "geometry": { "type": "Point", "coordinates": [ 73.8033305, 18.5654736 ] } },
{ "type": "Feature", "properties": { "ccd_name": "Others (SWM )", "com_location": "Rupali bunglow Lane 10 Sai Nagari Chandan nagar near new saibaba temple pune 411014" }, "geometry": { "type": "Point", "coordinates": [ 73.9417303, 18.4980009 ] } },
{ "type": "Feature", "properties": { "ccd_name": "Other Animals Nuisance", "com_location": "The Road between Military Hospital To Khadki Station (Range Hills Corner) in the Range Hills Estate., Pune, Maharashtra" }, "geometry": { "type": "Point", "coordinates": [ 73.8406198, 18.5631806 ] } },
{ "type": "Feature", "properties": { "ccd_name": "Mosquito nuisance/Fogging", "com_location": "Fursungi gaon kamthe aali nagar wada near kamthe ganpati mandir pune 412308" }, "geometry": { "type": "Point", "coordinates": [ 73.9784573, 18.4726725 ] } },
{ "type": "Feature", "properties": { "ccd_name": "Huge littering in open plot / Garbage Dump", "com_location": "Rahul talkies, Pune, Maharashtra" }, "geometry": { "type": "Point", "coordinates": [ 73.8464694, 18.5315026 ] } },
{ "type": "Feature", "properties": { "ccd_name": "Burning of Garbage/Plastic waste", "com_location": "Mantra Blessings Society, Wagholi\r\n, Pune, Maharashtra" }, "geometry": { "type": "Point", "coordinates": [ 73.9872269, 18.5849499 ] } },
{ "type": "Feature", "properties": { "ccd_name": "Burning of Garbage/Plastic waste", "com_location": "Ntex transportation services pvt ltd survey no 287/2a+2b/1groundfooor Urban Homes Lohegaon Pune Maharashtra 411047      " }, "geometry": { "type": "Point", "coordinates": [ 73.9646424, 18.5773612 ] } },
{ "type": "Feature", "properties": { "ccd_name": "Others (SWM )", "com_location": "Test Complaint , Pune, Maharashtra" }, "geometry": { "type": "Point", "coordinates": [ 73.7466202, 18.4962006 ] } },
{ "type": "Feature", "properties": { "ccd_name": "Mosquito nuisance/Fogging", "com_location": "Tushar Nanade yanche jansampark karyalay, sambhaji nagar, dhankawadi, pune -411043" }, "geometry": { "type": "Point", "coordinates": [ 73.8556408, 18.4694978 ] } },
{ "type": "Feature", "properties": { "ccd_name": "Burning of Garbage/Plastic waste", "com_location": "Parijat Colony, malwadi, hadapsar, Pune, Maharashtra" }, "geometry": { "type": "Point", "coordinates": [ 73.9444383, 18.5015012 ] } },
{ "type": "Feature", "properties": { "ccd_name": "Mosquito nuisance/Fogging", "com_location": "Ambegaon Budruk Pune Maharashtra  India" }, "geometry": { "type": "Point", "coordinates": [ 73.839472700000016, 18.4425573 ] } },
{ "type": "Feature", "properties": { "ccd_name": "Others (SWM )", "com_location": "shAradA. niketana. mahilA. hosTela, Pune, Maharashtra" }, "geometry": { "type": "Point", "coordinates": [ 73.8236745, 18.4948559 ] } },
{ "type": "Feature", "properties": { "ccd_name": "Others (SWM )", "com_location": "bhAjI maMDaI puNe nagara roDa Apale ghara sosAyaTI (hadda:- nagara vArDa  phisa  )\r\n" }, "geometry": { "type": "Point", "coordinates": [ 73.8786239, 18.5246091 ] } },
{ "type": "Feature", "properties": { "ccd_name": "Others (SWM )", "com_location": "anuShkA sosAyaTI lane , bhAU pATIla roDa , bopoDI ,puNe." }, "geometry": { "type": "Point", "coordinates": [ 73.8322962, 18.5688266 ] } },
{ "type": "Feature", "properties": { "ccd_name": "Others (SWM )", "com_location": "Corner junction next to Hemant Karkare park & Tucker Army enclave.\r\n(Near Mahadev traders), Gondhale Nagar,\r\nHadapsar- 411028, Pune, Maharashtra" }, "geometry": { "type": "Point", "coordinates": [ 73.9522318, 18.4962231 ] } },
{ "type": "Feature", "properties": { "ccd_name": "Others (SWM )", "com_location": "Plot no 1,lane no 1,sai krupa bunglow, shivaji bhosale nagar,next amar cottage,hadapsar,pune 411028.\t" }, "geometry": { "type": "Point", "coordinates": [ 73.9307009, 18.5070675 ] } },
{ "type": "Feature", "properties": { "ccd_name": "Burning of Garbage/Plastic waste", "com_location": "Irrigation department Canol near Kubera Sankul and Amar Courtyards, back side of Saneguruji Hospital, Pune, Maharashtra" }, "geometry": { "type": "Point", "coordinates": [ 73.9380218, 18.5035713 ] } },
{ "type": "Feature", "properties": { "ccd_name": "Others (SWM )", "com_location": " opposite Poonam Palace gate near Pestonjee Hospital Bhawani Peth , Pune, Maharashtra" }, "geometry": { "type": "Point", "coordinates": [ 73.8704016, 18.5109566 ] } },
{ "type": "Feature", "properties": { "ccd_name": "Others (SWM )", "com_location": "sarve naMbara 166 jaya shivarAya chauka mALavADI haDapasara puNe 28 " }, "geometry": { "type": "Point", "coordinates": [ 73.9398818, 18.5009288 ] } },
{ "type": "Feature", "properties": { "ccd_name": "Mosquito nuisance/Fogging", "com_location": "mahAtmA phule peTha 109/110 jAnA mAsTara chauka TiMbara mArkeTa roDa mAshI ALI,  gaMja peTha tADI guTTA. bhavani peth, Pune, Maharashtra" }, "geometry": { "type": "Point", "coordinates": [ 73.8699182, 18.5116565 ] } },
{ "type": "Feature", "properties": { "ccd_name": "Others (SWM )", "com_location": "sahakAranagara, tuLashIbAga vAle kA.clanI, dashabhujA gaNapatI mArga, meghanA sosAyaTI,lena naM 8, kA.cranara, AkAshadipa bilDiMga javaLa, samora,pina...411009..... dhanyavAda  , Pune, Maharashtra" }, "geometry": { "type": "Point", "coordinates": [ 73.8786239, 18.5246091 ] } },
{ "type": "Feature", "properties": { "ccd_name": "Others (SWM )", "com_location": "10 Vrindavan society road,mayur kilbil front side 12 m road,dhanori,pune 411015." }, "geometry": { "type": "Point", "coordinates": [ 73.8976203, 18.594811 ] } },
{ "type": "Feature", "properties": { "ccd_name": "Burning of Garbage/Plastic waste", "com_location": "puNyanagarI sosAyaTIchyA mAge,Kharadi,pune." }, "geometry": { "type": "Point", "coordinates": [ 73.924281, 18.548027 ] } },
{ "type": "Feature", "properties": { "ccd_name": "Others (SWM )", "com_location": "NH 48 at Jambhulwadi dari pul near Nh4, Pune, Maharashtra" }, "geometry": { "type": "Point", "coordinates": [ 73.8380462, 18.4329135 ] } },
{ "type": "Feature", "properties": { "ccd_name": "Garbage vehicle not arrived", "com_location": "Navketan Society, Ideal Colony, Kothrud, Pune, Maharashtra 411038 navaketana sosAyaTI,  klaba Solaris  javaLa. kotharUDa." }, "geometry": { "type": "Point", "coordinates": [ 73.8185444, 18.5087014 ] } },
{ "type": "Feature", "properties": { "ccd_name": "Others (SWM )", "com_location": "Sudarshan Apartment, in front of lane no 10, behind ICICI bank, Karve nagar Pune -052 " }, "geometry": { "type": "Point", "coordinates": [ 73.7966323, 18.5097422 ] } },
{ "type": "Feature", "properties": { "ccd_name": "Others (SWM )", "com_location": "kailAsavAsI bAjIrAva tupe pATIla nagara 203 sADe satarA naLI haDapasara puNe 28" }, "geometry": { "type": "Point", "coordinates": [ 73.9491275, 18.5128142 ] } },
{ "type": "Feature", "properties": { "ccd_name": "Mosquito nuisance/Fogging", "com_location": "pattA: suMdara AkAsha sosAyaTI, magarapaTTa, nobala ha spiTala javaLa, haDapasara. , Pune, Maharashtra" }, "geometry": { "type": "Point", "coordinates": [ 73.9531189, 18.5646495 ] } },
{ "type": "Feature", "properties": { "ccd_name": "Huge littering in open plot / Garbage Dump", "com_location": "oxy bonita society shejari kotwal colony geetai lawn chy mage lohgaon pune 411047 " }, "geometry": { "type": "Point", "coordinates": [ 73.9142859, 18.6006505 ] } },
{ "type": "Feature", "properties": { "ccd_name": "Others (SWM )", "com_location": "Flat no 1 sai krupa bldg, opposite jain shravak sangh, jadhav nagar, vadgaon bk, off sinhgad road pune 411041\r\n" }, "geometry": { "type": "Point", "coordinates": [ 73.8033639, 18.4571619 ] } },
{ "type": "Feature", "properties": { "ccd_name": "Burning of Garbage/Plastic waste", "com_location": " Zircon society viman nagar pune" }, "geometry": { "type": "Point", "coordinates": [ 73.9217585, 18.5640183 ] } },
{ "type": "Feature", "properties": { "ccd_name": "Garbage lorry not covered", "com_location": "Add.: Trimurti Prasanna Socy,Bibwewadi, Pune 411037" }, "geometry": { "type": "Point", "coordinates": [ 73.8678132, 18.465522 ] } },
{ "type": "Feature", "properties": { "ccd_name": "Garbage vehicle not arrived", "com_location": "opposite Mansukbhai Kothari School in Kondhwa, Pune, Maharashtra" }, "geometry": { "type": "Point", "coordinates": [ 73.8932678, 18.462906 ] } },
{ "type": "Feature", "properties": { "ccd_name": "Mosquito nuisance/Fogging", "com_location": "devagirI apArTameMTachyA, gaNesha bheLa kariShmA ka mpleksa javaLa , vADeshvara ha Tela shejArI kotharUDa , javaLachI khUNa , Pune, Maharashtra" }, "geometry": { "type": "Point", "coordinates": [ 73.8786239, 18.5246091 ] } },
{ "type": "Feature", "properties": { "ccd_name": "Mosquito nuisance/Fogging", "com_location": "solApUra roDavara vaibhava sinemAmAgIla agravAla gArDana,samrATa gArDana kaDUna nAlyAjavaLUna  lohiyA gArDana madhye jANyAchyA rastyAvara., Pune, Maharashtra" }, "geometry": { "type": "Point", "coordinates": [ 73.8786239, 18.5246091 ] } },
{ "type": "Feature", "properties": { "ccd_name": "Others (SWM )", "com_location": "Inside Tambdi Jogeshwari Temple, Near Appa Balwant Chowk, Pune 411002" }, "geometry": { "type": "Point", "coordinates": [ 73.8549416, 18.5167441 ] } },
{ "type": "Feature", "properties": { "ccd_name": "Others (SWM )", "com_location": "334 kasabA peTha phaDake hAUsa chauka sitArAma miThAI chyA samora, puNe - 411011. " }, "geometry": { "type": "Point", "coordinates": [ 73.8604675, 18.5190445 ] } },
{ "type": "Feature", "properties": { "ccd_name": "Others (SWM )", "com_location": "lena naMbara 5 gokuLa nagara koMDhavA budruka puNe" }, "geometry": { "type": "Point", "coordinates": [ 73.8246309, 18.4659813 ] } },
{ "type": "Feature", "properties": { "ccd_name": "Burning of Garbage/Plastic waste", "com_location": "PVPIT ka leja javaLIla, Pune, Maharashtra" }, "geometry": { "type": "Point", "coordinates": [ 73.7742569, 18.4995486 ] } },
{ "type": "Feature", "properties": { "ccd_name": "Pig Nuisance", "com_location": "rAmaTekaDI iMDasTriyala eriyA yA ThikANI roDa naMbara chAra bI , Pune, Maharashtra" }, "geometry": { "type": "Point", "coordinates": [ 73.8786239, 18.5246091 ] } },
{ "type": "Feature", "properties": { "ccd_name": "Others (SWM )", "com_location": " Sr no. 112, samarth colony,sutardara,kothrud,pune 411038. " }, "geometry": { "type": "Point", "coordinates": [ 73.8249164, 18.4914784 ] } },
{ "type": "Feature", "properties": { "ccd_name": "Others (SWM )", "com_location": "Nair Niwas 90/43 Alandi Road Kalas Pune 15 Near Janata Garage Pathan Baba Dargah" }, "geometry": { "type": "Point", "coordinates": [ 73.8752811, 18.5811403 ] } },
{ "type": "Feature", "properties": { "ccd_name": "Garbage vehicle not arrived", "com_location": "uttam nagar, front of vitthal temple,pune 411023. " }, "geometry": { "type": "Point", "coordinates": [ 73.8256755, 18.4825399 ] } },
{ "type": "Feature", "properties": { "ccd_name": "Garbage not lifted from co-authorised collection point / House gully", "com_location": "sutAravADI shALechyA bAjUlA, Pune, Maharashtra" }, "geometry": { "type": "Point", "coordinates": [ 73.8786239, 18.5246091 ] } },
{ "type": "Feature", "properties": { "ccd_name": "Garbage vehicle not arrived", "com_location": "8, Bal Wadi Rd, Mahalunge, Pune, Maharashtra 411045, India" }, "geometry": { "type": "Point", "coordinates": [ 73.7552388, 18.5751255 ] } },
{ "type": "Feature", "properties": { "ccd_name": "Mosquito nuisance/Fogging", "com_location": "TEERTH TOWERS Sus Pune Maharashtra India" }, "geometry": { "type": "Point", "coordinates": [ 73.7621732, 18.5599487 ] } },
{ "type": "Feature", "properties": { "ccd_name": "Huge littering in open plot / Garbage Dump", "com_location": "manjri bk post office, gram sevak prashikshan sansha road pune " }, "geometry": { "type": "Point", "coordinates": [ 73.9774359, 18.4957698 ] } },
{ "type": "Feature", "properties": { "ccd_name": "Others (SWM )", "com_location": "rutuja society , near ganga ocian, rajas society  katraj , Pune, Maharashtra" }, "geometry": { "type": "Point", "coordinates": [ 73.8665954, 18.45329 ] } },
{ "type": "Feature", "properties": { "ccd_name": "Others (SWM )", "com_location": "mALavADI roDa haDapasara bellejhA ANi nyUTana homsa sosAyaTI javaLa,, Pune, Maharashtra" }, "geometry": { "type": "Point", "coordinates": [ 73.9531189, 18.5646495 ] } },
{ "type": "Feature", "properties": { "ccd_name": "Mosquito nuisance/Fogging", "com_location": " in Kharadi area . Specially near #Riverdale and #ZenEsate  \r\n society., Pune, Maharashtra" }, "geometry": { "type": "Point", "coordinates": [ 73.9385509, 18.5379808 ] } },
{ "type": "Feature", "properties": { "ccd_name": "Others (SWM )", "com_location": "BT Kawde road, kalashankar,pune." }, "geometry": { "type": "Point", "coordinates": [ 73.9067586, 18.5177397 ] } },
{ "type": "Feature", "properties": { "ccd_name": "Others (SWM )", "com_location": "Kharadi - Hadapsar Bypass Rd, North Hadapsar, Hadapsar, Pune, Maharashtra 411028" }, "geometry": { "type": "Point", "coordinates": [ 73.9276688, 18.5054118 ] } },
{ "type": "Feature", "properties": { "ccd_name": "Garbage vehicle not arrived", "com_location": "d selsia park near zill college narhe dhayri road pune " }, "geometry": { "type": "Point", "coordinates": [ 73.8261929, 18.4487769 ] } },
{ "type": "Feature", "properties": { "ccd_name": "Others (SWM )", "com_location": "Location: Swami samarth colony, Lane no: 3, sainath chowk, Raghoba Patil Nagar, Kharadi, Pune, Maharashtra" }, "geometry": { "type": "Point", "coordinates": [ 73.9341172, 18.53931 ] } },
{ "type": "Feature", "properties": { "ccd_name": "Others (SWM )", "com_location": "S no 137/3a/2 rAmarAjya sahakArI ba.Nka tasecha nAMdeDa posTa  phisa eriyA, Pune, Maharashtra" }, "geometry": { "type": "Point", "coordinates": [ 73.8109, 18.507565 ] } },
{ "type": "Feature", "properties": { "ccd_name": "Others (SWM )", "com_location": "BLOCK-B2, NIRMITI HORIZON DSK AKASHGANGA, suvarNayuga sosAyaTI, prabhAga kra. 8, auMdha, mahArAShTra 411007, India, Pune, Maharashtra" }, "geometry": { "type": "Point", "coordinates": [ 73.803806633908465, 18.567303217830297 ] } },
{ "type": "Feature", "properties": { "ccd_name": "Mosquito nuisance/Fogging", "com_location": "Vadgaon Khurd, Nanded Fata, Pandurang Industrial Area, Nanded, Pune, Maharashtra 411041\t" }, "geometry": { "type": "Point", "coordinates": [ 73.8080869, 18.4608064 ] } },
{ "type": "Feature", "properties": { "ccd_name": "Huge littering in open plot / Garbage Dump", "com_location": "Urit Nagar Warje mumbai banglor highaway pune 411058" }, "geometry": { "type": "Point", "coordinates": [ 73.7898325, 18.4916125 ] } },
{ "type": "Feature", "properties": { "ccd_name": "Others (SWM )", "com_location": "somavAra peTha saMta gADage mahArAja dharmashALA puNe" }, "geometry": { "type": "Point", "coordinates": [ 73.8677151, 18.5217472 ] } },
{ "type": "Feature", "properties": { "ccd_name": "Others (SWM )", "com_location": " Pawar Rd, Model Colony, Shivajinagar, Pune, Maharashtra 411016" }, "geometry": { "type": "Point", "coordinates": [ 73.8319664, 18.5335175 ] } },
{ "type": "Feature", "properties": { "ccd_name": "Others (SWM )", "com_location": "DaigaLepula kasabA pUDa, Pune, Maharashtra" }, "geometry": { "type": "Point", "coordinates": [ 73.8786239, 18.5246091 ] } },
{ "type": "Feature", "properties": { "ccd_name": "Garbage vehicle not arrived", "com_location": "karve nagara hiMgaNe budruka lena-5 yethIla,pune." }, "geometry": { "type": "Point", "coordinates": [ 73.821729, 18.4914883 ] } },
{ "type": "Feature", "properties": { "ccd_name": "Others (SWM )", "com_location": " vAraje tapodhAma marjadA phArma, Pune, Maharashtra" }, "geometry": { "type": "Point", "coordinates": [ 73.796834, 18.4864727 ] } },
{ "type": "Feature", "properties": { "ccd_name": "Mosquito nuisance/Fogging", "com_location": "sukhwani eliganja, sahaji raje bhosale nagar, hadapsar pune " }, "geometry": { "type": "Point", "coordinates": [ 73.931267, 18.5037202 ] } },
{ "type": "Feature", "properties": { "ccd_name": "Others (SWM )", "com_location": "Sai Prasad appt  near Absolute Barbecues Baner   gate , Pune, Maharashtra" }, "geometry": { "type": "Point", "coordinates": [ 73.7728071, 18.5657008 ] } },
{ "type": "Feature", "properties": { "ccd_name": "Other Animals Nuisance", "com_location": "8, Shankar Rao Lohane Marg, P & T Colony, Gultekadi, Pune, Maharashtra 411037, India" }, "geometry": { "type": "Point", "coordinates": [ 73.871317, 18.496257 ] } },
{ "type": "Feature", "properties": { "ccd_name": "Others (SWM )", "com_location": "Shop no 4 Fhursangi, near Ganesh Temple, Pune, Maharashtra 412308" }, "geometry": { "type": "Point", "coordinates": [ 73.9603012, 18.4797417 ] } },
{ "type": "Feature", "properties": { "ccd_name": "Mosquito nuisance/Fogging", "com_location": "Kapil Bakul SAHYADRI Farm Baner Pune 45" }, "geometry": { "type": "Point", "coordinates": [ 73.7794751, 18.5613554 ] } },
{ "type": "Feature", "properties": { "ccd_name": "Others (SWM )", "com_location": "Koregaon Park North Main Road Pune 411001-lane 7 opposite Budhani wafer shop\r\n" }, "geometry": { "type": "Point", "coordinates": [ 73.90029, 18.538595 ] } },
{ "type": "Feature", "properties": { "ccd_name": "Burning of Garbage/Plastic waste", "com_location": "Pune s Karve Nagar (Residential and educational area)" }, "geometry": { "type": "Point", "coordinates": [ 73.821729, 18.4914883 ] } },
{ "type": "Feature", "properties": { "ccd_name": "Others (SWM )", "com_location": "saMjaya gAMdhI sosA lena 3 somanAtha nagara vaDagAMva sherI puNe 14 " }, "geometry": { "type": "Point", "coordinates": [ 73.91973, 18.555789 ] } },
{ "type": "Feature", "properties": { "ccd_name": "Others (SWM )", "com_location": "Rajaram Patil Nagar Kharadi lane no 16 pune 14." }, "geometry": { "type": "Point", "coordinates": [ 73.9542442, 18.5596196 ] } },
{ "type": "Feature", "properties": { "ccd_name": "Others (SWM )", "com_location": "Ashish samrat chowk, baif road,supreme aangan rmc garden,kolte patil,pune." }, "geometry": { "type": "Point", "coordinates": [ 73.9766667, 18.5720738 ] } },
{ "type": "Feature", "properties": { "ccd_name": "Others (SWM )", "com_location": "kShetra tapashIla:- DahANUkara rastA, kotharUDa,pune " }, "geometry": { "type": "Point", "coordinates": [ 73.8110279, 18.4956151 ] } },
{ "type": "Feature", "properties": { "ccd_name": "Others (SWM )", "com_location": "44/112, Nav Sahydri Society,  Pune 411052" }, "geometry": { "type": "Point", "coordinates": [ 73.830573, 18.4963726 ] } },
{ "type": "Feature", "properties": { "ccd_name": "Mosquito nuisance/Fogging", "com_location": "pla Ta naM 7, uShaka kAla ghara, iMdraprastha sosAyaTI, TeMpo chauka javaLa, puNe 411014" }, "geometry": { "type": "Point", "coordinates": [ 73.9531189, 18.5646495 ] } },
{ "type": "Feature", "properties": { "ccd_name": "Burning of Garbage/Plastic waste", "com_location": "Kumar Primavera society - Wadgaon Sheri., Pune, Maharashtra" }, "geometry": { "type": "Point", "coordinates": [ 73.9280856, 18.5396706 ] } },
{ "type": "Feature", "properties": { "ccd_name": "Garbage not lifted from co-authorised collection point / House gully", "com_location": "FR7F+765, Kudale Baug, Vadgaon Budruk, Pune, Maharashtra 411041, India" }, "geometry": { "type": "Point", "coordinates": [ 73.8232222, 18.4631109 ] } },
{ "type": "Feature", "properties": { "ccd_name": "Garbage not lifted from co-authorised collection point / House gully", "com_location": "bAlevADI sTeDiyama ba.cDamiMTana ha la chyA mAge, Pune, Maharashtra" }, "geometry": { "type": "Point", "coordinates": [ 73.8028276, 18.5642859 ] } },
{ "type": "Feature", "properties": { "ccd_name": "Burning of Garbage/Plastic waste", "com_location": "Pawar Rd, Model Colony, Shivajinagar, Pune, Maharashtra 411016" }, "geometry": { "type": "Point", "coordinates": [ 73.8319664, 18.5335175 ] } },
{ "type": "Feature", "properties": { "ccd_name": "Others (SWM )", "com_location": "r k purma munjabawasti sno 29 dhAnorI near by 29gold coast ahed of atria society,pune." }, "geometry": { "type": "Point", "coordinates": [ 73.8951085, 18.5850979 ] } },
{ "type": "Feature", "properties": { "ccd_name": "Others (SWM )", "com_location": "mula mutha river , mahalunge smashan bhumi , saarthi skyway, e cooprating housing society balewadi statium pathimage pune 411045" }, "geometry": { "type": "Point", "coordinates": [ 73.7831843, 18.5646636 ] } },
{ "type": "Feature", "properties": { "ccd_name": "Others (SWM )", "com_location": "serve no 49/2, bhairav nagar near marthoma church, 411015, Pune, Maharashtra" }, "geometry": { "type": "Point", "coordinates": [ 73.887907900000016, 18.5811412 ] } },
{ "type": "Feature", "properties": { "ccd_name": "Others (SWM )", "com_location": "Lotus arena society road, behind sbi bank, vadgaonsheri pune 411014" }, "geometry": { "type": "Point", "coordinates": [ 73.9286959, 18.5481045 ] } },
{ "type": "Feature", "properties": { "ccd_name": "Mosquito nuisance/Fogging", "com_location": "yog hospitals manjari green society hadpsar, Pune, Maharashtra" }, "geometry": { "type": "Point", "coordinates": [ 73.9676592, 18.4979325 ] } },
{ "type": "Feature", "properties": { "ccd_name": "Others (SWM )", "com_location": "IRIS building, 21 Udaybaug, BT Kawade Road, Ghorpadi., Pune, Maharashtra" }, "geometry": { "type": "Point", "coordinates": [ 73.9066103, 18.5108692 ] } },
{ "type": "Feature", "properties": { "ccd_name": "Others (SWM )", "com_location": "next to Jupiter hospital leading to comfort zone and willows society pune" }, "geometry": { "type": "Point", "coordinates": [ 73.840141, 18.5267963 ] } },
{ "type": "Feature", "properties": { "ccd_name": "Mosquito nuisance/Fogging", "com_location": "HRVFW ITI Rd near Starbucks Coffee Vidya Vilas Colony Anand Park Aundh Pune Maharashtra  India" }, "geometry": { "type": "Point", "coordinates": [ 73.8087011, 18.5572445 ] } },
{ "type": "Feature", "properties": { "ccd_name": "Others (SWM )", "com_location": "Krishi Society Gokhalenagar Pune 16" }, "geometry": { "type": "Point", "coordinates": [ 73.8251789, 18.5239636 ] } },
{ "type": "Feature", "properties": { "ccd_name": "Others (SWM )", "com_location": "SR NO 48/4, GANESH NAGAR,OLD MUNDAWA ROAD, LANE NO 5,lane no 6 opposite al kuba masjid WADGAONSHERI,PUNE 411014" }, "geometry": { "type": "Point", "coordinates": [ 73.9282912, 18.5605275 ] } },
{ "type": "Feature", "properties": { "ccd_name": "Others (SWM )", "com_location": " a resident of vidisha society, karve nagar, Pune 52." }, "geometry": { "type": "Point", "coordinates": [ 73.821729, 18.4914883 ] } },
{ "type": "Feature", "properties": { "ccd_name": "Mosquito nuisance/Fogging", "com_location": "Trimurti Nagar,Ganganagar, Bhekrai Nagar, Fursungi,Pune 412308." }, "geometry": { "type": "Point", "coordinates": [ 73.9558204, 18.482996 ] } },
{ "type": "Feature", "properties": { "ccd_name": "Others (SWM )", "com_location": "haba TAUna kaMTrIvuDa TiLekara nagara kAtraja koMDhavA roDa yethIla,pune." }, "geometry": { "type": "Point", "coordinates": [ 73.865238, 18.4529322 ] } },
{ "type": "Feature", "properties": { "ccd_name": "Others (SWM )", "com_location": "Khadi Machine Chowk Kondhwa, Pune, Maharashtra" }, "geometry": { "type": "Point", "coordinates": [ 73.889955, 18.452679 ] } },
{ "type": "Feature", "properties": { "ccd_name": "Others (SWM )", "com_location": "somavAra peTha shAhU gArDana gurukRRipA meDikala samora, Pune, Maharashtra" }, "geometry": { "type": "Point", "coordinates": [ 73.8044833, 18.6168987 ] } },
{ "type": "Feature", "properties": { "ccd_name": "Others (SWM )", "com_location": "kasabA vidhAnasabhA matadArasaMghAtIla shanivAra peTha parisarAtIla ahilyAbAI hoLakara mulIMchI shALA parisara,PUNE" }, "geometry": { "type": "Point", "coordinates": [ 73.9340015, 18.5508264 ] } },
{ "type": "Feature", "properties": { "ccd_name": "Others (SWM )", "com_location": "Oakwood society samor front baner Jade Hls Rd, Baner, Pune, Maharashtra 411045" }, "geometry": { "type": "Point", "coordinates": [ 73.7845473, 18.5580865 ] } },
{ "type": "Feature", "properties": { "ccd_name": "Others (SWM )", "com_location": "Shinde aali,opp.VRL transport,near rupalitai office, shukrawar peth,pune 411002." }, "geometry": { "type": "Point", "coordinates": [ 73.857219, 18.510694 ] } },
{ "type": "Feature", "properties": { "ccd_name": "Others (SWM )", "com_location": "Senapati bapat road, near by ratna memorial hospital, behind lokmanya multipurpose cooperative society -411016, Pune, Maharashtra" }, "geometry": { "type": "Point", "coordinates": [ 73.8295571, 18.5276694 ] } },
{ "type": "Feature", "properties": { "ccd_name": "Others (SWM )", "com_location": "Castle royal, Lane No. 5, Near Swami samarth temple, Porwal Lohegao road, Sathe vasti, Pune - 411047" }, "geometry": { "type": "Point", "coordinates": [ 73.938415, 18.5940917 ] } },
{ "type": "Feature", "properties": { "ccd_name": "Others (SWM )", "com_location": "ma Darna hAyaskUla ChatrapatI shivAjInagara puNe 5 yethila bhosale Sub Way chyA AtIla bAjUsa,pune." }, "geometry": { "type": "Point", "coordinates": [ 73.846894, 18.530104 ] } },
{ "type": "Feature", "properties": { "ccd_name": "Burning of Garbage/Plastic waste", "com_location": "Gulmohar Privilege, Rakshak Nagar, Nr. Shree Hospital, Kharadi, Pune, Maharashtra" }, "geometry": { "type": "Point", "coordinates": [ 73.9442604, 18.5515303 ] } },
{ "type": "Feature", "properties": { "ccd_name": "Mosquito nuisance/Fogging", "com_location": "H.NO. 1664, PLOT NO.26 MAULI BANGLOW\r\nASHIYANA SOCIETY NO.1 ,BANER,PUNE-\r\n411007" }, "geometry": { "type": "Point", "coordinates": [ 73.7799196, 18.5737518 ] } },
{ "type": "Feature", "properties": { "ccd_name": "Garbage not lifted from co-authorised collection point / House gully", "com_location": "pune" }, "geometry": { "type": "Point", "coordinates": [ 73.8217565, 18.4794865 ] } },
{ "type": "Feature", "properties": { "ccd_name": "Others (SWM )", "com_location": "aMtrikSha Ta vara javaLa, golAI chauka ANi narapatagirI chauka madhalI jAgA, nyU maMgaLavAra peTha puNe 4111011" }, "geometry": { "type": "Point", "coordinates": [ 73.8440548, 18.5082486 ] } },
{ "type": "Feature", "properties": { "ccd_name": "Others (SWM )", "com_location": "Gokhale house,plot no. 61,prabhat road lane no. 14,pune 411004." }, "geometry": { "type": "Point", "coordinates": [ 73.830991, 18.511171 ] } },
{ "type": "Feature", "properties": { "ccd_name": "Pig Nuisance", "com_location": "prabhAga kra 10, bhAratInagara , kotharUDa Depo javaLa nAlyAmadhye , Pune, Maharashtra" }, "geometry": { "type": "Point", "coordinates": [ 73.8786239, 18.5246091 ] } },
{ "type": "Feature", "properties": { "ccd_name": "Others (SWM )", "com_location": "Dwarka banglo, anant kanhere path, in front of rajendra nagar, bunglow no-02, pathak bag-411030, Pune, Maharashtra" }, "geometry": { "type": "Point", "coordinates": [ 73.8402112, 18.5049495 ] } },
{ "type": "Feature", "properties": { "ccd_name": "Others (SWM )", "com_location": "Anand Vidya Niketan High School Rd, Clover Park, Viman Nagar, Pune, Maharashtra 411014" }, "geometry": { "type": "Point", "coordinates": [ 73.9167743, 18.5676804 ] } },
{ "type": "Feature", "properties": { "ccd_name": "Others (SWM )", "com_location": "Taljai Tekdi Rd, Ganesh Dutta Housing Society, Parvati Paytha, Pune, Maharashtra 411009" }, "geometry": { "type": "Point", "coordinates": [ 73.8487972, 18.4844655 ] } },
{ "type": "Feature", "properties": { "ccd_name": "Garbage vehicle not arrived", "com_location": "Aaiji Palace, lane no-05, tingre nagar 411015, Pune, Maharashtra" }, "geometry": { "type": "Point", "coordinates": [ 73.8889197, 18.5758582 ] } },
{ "type": "Feature", "properties": { "ccd_name": "Others (SWM )", "com_location": " pgkm school kondhwa pune 411048" }, "geometry": { "type": "Point", "coordinates": [ 73.8778193, 18.4640864 ] } },
{ "type": "Feature", "properties": { "ccd_name": "Others (SWM )", "com_location": " front of Maple Garden Co. OP. Hsg Society Ltd Kondhwa Khurd to Kumar Prithvi Phase 2, Pune, Maharashtra" }, "geometry": { "type": "Point", "coordinates": [ 73.876455, 18.4804369 ] } },
{ "type": "Feature", "properties": { "ccd_name": "Burning of Garbage/Plastic waste", "com_location": "St. Patrick's Town, Swami Vivekanand Nagar, Lakshmi Nagar, Wanowrie, Pune-411013." }, "geometry": { "type": "Point", "coordinates": [ 73.911637, 18.5076855 ] } },
{ "type": "Feature", "properties": { "ccd_name": "Others (SWM )", "com_location": "197/3/4, Clover Park, Viman Nagar, Pune, Maharashtra 411014, India" }, "geometry": { "type": "Point", "coordinates": [ 73.921897888183594, 18.564437866210938 ] } },
{ "type": "Feature", "properties": { "ccd_name": "Others (SWM )", "com_location": "near Kumar Primavera, Sainath nagar, wadgaonsheri, Pune, Maharashtra" }, "geometry": { "type": "Point", "coordinates": [ 73.9280856, 18.5396706 ] } },
{ "type": "Feature", "properties": { "ccd_name": "Others (SWM )", "com_location": " phla.cTa kra - 304 j~nAnesha resiDensI, deshamukhavADI nda road shivaNe puNe - 411023" }, "geometry": { "type": "Point", "coordinates": [ 73.7769536, 18.465602 ] } },
{ "type": "Feature", "properties": { "ccd_name": "Others (SWM )", "com_location": "at Wakeshwar chowk, pashan sus Road. ..., Pune, Maharashtra" }, "geometry": { "type": "Point", "coordinates": [ 73.7923637, 18.541392 ] } },
{ "type": "Feature", "properties": { "ccd_name": "Mosquito nuisance/Fogging", "com_location": "Bhekrai Nagar, Tukai Darshan, Pune, Maharashtra 412308" }, "geometry": { "type": "Point", "coordinates": [ 73.9499426, 18.4882495 ] } },
{ "type": "Feature", "properties": { "ccd_name": "Mosquito nuisance/Fogging", "com_location": "70/2,Pasalkar Niwas,Opp Abhiruchi Mall, Adate Hospital lane, Singhgad road, Pune" }, "geometry": { "type": "Point", "coordinates": [ 73.814327, 18.462838 ] } },
{ "type": "Feature", "properties": { "ccd_name": "Others (SWM )", "com_location": "Altpay istanoa Ph 1 Near orchid hotel baner mahalunge road pune 411045" }, "geometry": { "type": "Point", "coordinates": [ 73.7561594, 18.57382 ] } },
{ "type": "Feature", "properties": { "ccd_name": "Others (SWM )", "com_location": "Shelar chal, lane no-03, near by maji nagar sevak karyalay, yerwada , Pune, Maharashtra" }, "geometry": { "type": "Point", "coordinates": [ 73.9275461, 18.56061 ] } },
{ "type": "Feature", "properties": { "ccd_name": "Other Animals Nuisance", "com_location": "Taware colony, maruti showroom lane, behind bhapkar petrol, satara road., Pune, Maharashtra" }, "geometry": { "type": "Point", "coordinates": [ 73.8574483, 18.4870912 ] } },
{ "type": "Feature", "properties": { "ccd_name": "Others (SWM )", "com_location": "Bhujbal House, 2mins away from Karvenagar Kshetriya Karyalay. , Pune, Maharashtra" }, "geometry": { "type": "Point", "coordinates": [ 73.860166, 18.5251175 ] } },
{ "type": "Feature", "properties": { "ccd_name": "Burning of Garbage/Plastic waste", "com_location": " Hills and Dales undri , Pune, Maharashtra" }, "geometry": { "type": "Point", "coordinates": [ 73.908793, 18.4616418 ] } },
{ "type": "Feature", "properties": { "ccd_name": "Pig Nuisance", "com_location": "niyara tuLajAbhavAnI maMgala kAryAlaya hAMDevADI chauka AnaMda ka mpleksa sosAyaTI AnaMda nagara puNe 412308" }, "geometry": { "type": "Point", "coordinates": [ 73.8964601, 18.5521138 ] } },
{ "type": "Feature", "properties": { "ccd_name": "Mosquito nuisance/Fogging", "com_location": " Gagan Galaxy Society, Opp Gangadham Phase-2, Market Yard. , Pune, Maharashtra" }, "geometry": { "type": "Point", "coordinates": [ 73.8753306, 18.4802813 ] } },
{ "type": "Feature", "properties": { "ccd_name": "Others (SWM )", "com_location": "pune" }, "geometry": { "type": "Point", "coordinates": [ 73.8647243, 18.4496339 ] } },
{ "type": "Feature", "properties": { "ccd_name": "Others (SWM )", "com_location": " on Sinhagad Road specially Dhayari to Nanded City road, Pune, Maharashtra" }, "geometry": { "type": "Point", "coordinates": [ 73.7919538, 18.4601104 ] } },
{ "type": "Feature", "properties": { "ccd_name": "Burning of Garbage/Plastic waste", "com_location": "\r\nshrIrAma chauka hAMDevADI roDa runavAla ANi satyama nirAMjaNI sosAyaTIchyA, Pune, Maharashtra" }, "geometry": { "type": "Point", "coordinates": [ 73.9370355, 18.482584 ] } },
{ "type": "Feature", "properties": { "ccd_name": "Others (SWM )", "com_location": " Nirman Rutugandha Society, near morya park, Somnath nagar, wadgaon sheri, pune 14" }, "geometry": { "type": "Point", "coordinates": [ 73.9216532, 18.5581835 ] } },
{ "type": "Feature", "properties": { "ccd_name": "Mosquito nuisance/Fogging", "com_location": "c18/19, girikunj sahkari sanstha bhosale park sahkar nagar no 2, parvti pune 41009\r\n" }, "geometry": { "type": "Point", "coordinates": [ 73.854679, 18.4923126 ] } },
{ "type": "Feature", "properties": { "ccd_name": "Others (SWM )", "com_location": "lohgaon kalwad tiranga nagar lane no 2, near bhrama skycity pune " }, "geometry": { "type": "Point", "coordinates": [ 73.9060775, 18.59205 ] } },
{ "type": "Feature", "properties": { "ccd_name": "Dog Nuisance", "com_location": "siplA phAuMDeshana, vAraje, Pune, Maharashtra" }, "geometry": { "type": "Point", "coordinates": [ 73.799248, 18.488778 ] } },
{ "type": "Feature", "properties": { "ccd_name": "Others (SWM )", "com_location": "Lane no 9\r\nVidyanagar near vishwagym gym and fhate floor mil\r\nKatraj kondhwa road\r\nKatraj pune" }, "geometry": { "type": "Point", "coordinates": [ 73.8729566, 18.454477 ] } },
{ "type": "Feature", "properties": { "ccd_name": "Others (SWM )", "com_location": "Address\r\nGanatra complex Row house and pent house\r\nOpp Shilpa park\r\nBibwewadi kondhwa road\r\nMarket yard Pune 37" }, "geometry": { "type": "Point", "coordinates": [ 73.8687602, 18.4825355 ] } },
{ "type": "Feature", "properties": { "ccd_name": "Garbage not lifted from co-authorised collection point / House gully", "com_location": "72/2/E/A, Udyog Nagar, Hadapsar, Pune, Autadwadi Handewadi, Maharashtra 411028, India" }, "geometry": { "type": "Point", "coordinates": [ 73.934044670876375, 18.48044516555079 ] } },
{ "type": "Feature", "properties": { "ccd_name": "Others (SWM )", "com_location": "Kesari Poonam park\r\nRow no no A1 Viman nagar, Pune, Maharashtra" }, "geometry": { "type": "Point", "coordinates": [ 73.92025240000001, 18.5653774 ] } },
{ "type": "Feature", "properties": { "ccd_name": "Mosquito nuisance/Fogging", "com_location": " parmar park phase 1 basement and behind SBI bank, Pune, Maharashtra" }, "geometry": { "type": "Point", "coordinates": [ 73.9000364, 18.4936734 ] } },
{ "type": "Feature", "properties": { "ccd_name": "Others (SWM )", "com_location": " Jai Society, poona college road., Pune, Maharashtra" }, "geometry": { "type": "Point", "coordinates": [ 73.8746894, 18.5076315 ] } },
{ "type": "Feature", "properties": { "ccd_name": "Garbage not lifted from co-authorised collection point / House gully", "com_location": "Shubham bldg  opposite Indian  bank, Pune, Maharashtra" }, "geometry": { "type": "Point", "coordinates": [ 73.8786239, 18.5246091 ] } },
{ "type": "Feature", "properties": { "ccd_name": "Mosquito nuisance/Fogging", "com_location": "Sai Eshanya Plot A-14, Bajirao Shripati Marg, near Bharti Vidyapeeth School, opposite to KUNAL ASPIREE, Balewadi Gaon, Balewadi, Pune, Maharashtra 411045" }, "geometry": { "type": "Point", "coordinates": [ 73.7771112, 18.5785847 ] } },
{ "type": "Feature", "properties": { "ccd_name": "Others (SWM )", "com_location": " manapAche  khAshAbA jAdhava kriDAMgaNa , de. bha. rAmabhAU kAMbaLe patha na.tA. vADI shivAjI nagara puNe 411005  " }, "geometry": { "type": "Point", "coordinates": [ 73.8499399, 18.5337372 ] } },
{ "type": "Feature", "properties": { "ccd_name": "Garbage not lifted from co-authorised collection point / House gully", "com_location": "rAhula ejansIchyA mAge kesanaMda chauka vAgholI, Pune, Maharashtra" }, "geometry": { "type": "Point", "coordinates": [ 73.9787063, 18.5807719 ] } },
{ "type": "Feature", "properties": { "ccd_name": "Others (SWM )", "com_location": "siMhagaDa roDa kShetrIya kAryalaya aMtargata parisarAtIla sarve naMbara 36/1/1 vaDagAva khurda grIna ha Tela javaLa  puNe 41" }, "geometry": { "type": "Point", "coordinates": [ 73.8786239, 18.5246091 ] } },
{ "type": "Feature", "properties": { "ccd_name": "Garbage vehicle not arrived", "com_location": "shejavaLa pArka sAtava ka mpleksa chaMdana nagara kharADI puNe 4111014" }, "geometry": { "type": "Point", "coordinates": [ 73.9476257, 18.5539311 ] } },
{ "type": "Feature", "properties": { "ccd_name": "Others (SWM )", "com_location": "Sambhaji Chowk, Adamani Wada,Survey Number 1,Pashan,Pune 411021." }, "geometry": { "type": "Point", "coordinates": [ 73.7763111, 18.5436612 ] } },
{ "type": "Feature", "properties": { "ccd_name": "Others (SWM )", "com_location": " lane no9 Rajas Society, Near Hujupaga school, Katraj., Pune, Maharashtra" }, "geometry": { "type": "Point", "coordinates": [ 73.8657082, 18.4534971 ] } },
{ "type": "Feature", "properties": { "ccd_name": "Mosquito nuisance/Fogging", "com_location": "tranquility nagar phase 2 cooperative housing society kodre nagar  shewalewadi gaon pune 412307" }, "geometry": { "type": "Point", "coordinates": [ 73.9680146, 18.4924569 ] } },
{ "type": "Feature", "properties": { "ccd_name": "Others (SWM )", "com_location": "Ramnagar to Shinde Pump Bavdhan , Pune, Maharashtra" }, "geometry": { "type": "Point", "coordinates": [ 73.7698579, 18.513463 ] } },
{ "type": "Feature", "properties": { "ccd_name": "Garbage not lifted from co-authorised collection point / House gully", "com_location": "Pareeks Mansion Khandwe Nagar Kalwad Wasti Pune Maharashtra India" }, "geometry": { "type": "Point", "coordinates": [ 73.9022442, 18.5882491 ] } },
{ "type": "Feature", "properties": { "ccd_name": "Garbage vehicle not arrived", "com_location": "\r\nLOKMAT PRESS OFFICE,SINHGAD ROAD,PUNE 411041.\r\n\r\n" }, "geometry": { "type": "Point", "coordinates": [ 73.8151621, 18.4633005 ] } },
{ "type": "Feature", "properties": { "ccd_name": "Mosquito nuisance/Fogging", "com_location": "96/16,rAjeMdranagara,shrI-prabhA apArTameMTa, Tra.cvhala iMDiyA klaba & AshA phUDsa chyA mAge, navI peTha,puNe-30" }, "geometry": { "type": "Point", "coordinates": [ 73.8378329, 18.5053869 ] } },
{ "type": "Feature", "properties": { "ccd_name": "Mosquito nuisance/Fogging", "com_location": "DhoNe nahAra ka mpleksa kAtraja koMDhavA roDa janatA ba.Nka che mAge kAtraja puNe 46 " }, "geometry": { "type": "Point", "coordinates": [ 73.8679198, 18.4354071 ] } },
{ "type": "Feature", "properties": { "ccd_name": "Others (SWM )", "com_location": "sa. naMbara 16/1/3 sadaguru darshana  AMbegAva paThAra puNe - 411046" }, "geometry": { "type": "Point", "coordinates": [ 73.8779556, 18.443813 ] } },
{ "type": "Feature", "properties": { "ccd_name": "Mosquito nuisance/Fogging", "com_location": "Sujratarrase apartment, lane no-11, kalyani nagar, pune " }, "geometry": { "type": "Point", "coordinates": [ 73.8988996, 18.5445513 ] } },
{ "type": "Feature", "properties": { "ccd_name": "Mosquito nuisance/Fogging", "com_location": "Undri, Nyati County., Pune, Maharashtra" }, "geometry": { "type": "Point", "coordinates": [ 73.9164896, 18.4654283 ] } },
{ "type": "Feature", "properties": { "ccd_name": "Mosquito nuisance/Fogging", "com_location": "play number 6 anand nagar, near by gajanan dairy, Dhanori Road Lohegaon, Pune, Maharashtra" }, "geometry": { "type": "Point", "coordinates": [ 73.9095069, 18.5970116 ] } },
{ "type": "Feature", "properties": { "ccd_name": "Mosquito nuisance/Fogging", "com_location": "SNo Ajinkyatara Condominium  C Sinhgad Rd behind Bhide Baug Wadgaon Budruk Vadgaon Budruk Pune Maharashtra  India" }, "geometry": { "type": "Point", "coordinates": [ 73.8168775, 18.4606728 ] } },
{ "type": "Feature", "properties": { "ccd_name": "Burning of Garbage/Plastic waste", "com_location": "gaNesha jAmadAra 999,kasabA peTha , puNe 11" }, "geometry": { "type": "Point", "coordinates": [ 73.8589354, 18.5098795 ] } },
{ "type": "Feature", "properties": { "ccd_name": "Other Animals Nuisance", "com_location": "Ganga sparsh,B-building co -operative housing society,kad nagar,pune 411060." }, "geometry": { "type": "Point", "coordinates": [ 73.9144883, 18.4615951 ] } },
{ "type": "Feature", "properties": { "ccd_name": "Odour(Foul smell) from Garbage Depot", "com_location": "411014, Lane Number 5A, Sanjay Park, Pune, Maharashtra 411032, India" }, "geometry": { "type": "Point", "coordinates": [ 73.905434813419262, 18.569073071720609 ] } },
{ "type": "Feature", "properties": { "ccd_name": "Others (SWM )", "com_location": "rohana lehara 3\r\nbiTavAija bilDiMgachyA mAge\r\nala.ckriTI sosAyaTIchyA samora\r\npina koDa - 411045, Pune, Maharashtra" }, "geometry": { "type": "Point", "coordinates": [ 73.8506869, 18.5052206 ] } },
{ "type": "Feature", "properties": { "ccd_name": "Mosquito nuisance/Fogging", "com_location": "Mala Apartment HWJG Nagar Rd behind TVS showroom Hermes Heritage Phase  Shastrinagar Yerawada Pune Maharashtra  India" }, "geometry": { "type": "Point", "coordinates": [ 73.9005918, 18.5540705 ] } },
{ "type": "Feature", "properties": { "ccd_name": "Others (SWM )", "com_location": "Dhairy Chavan baug to Dsk vishwa Road, Pune, Maharashtra" }, "geometry": { "type": "Point", "coordinates": [ 73.804356, 18.4470468 ] } },
{ "type": "Feature", "properties": { "ccd_name": "Pig Nuisance", "com_location": "mAMjarI budruka gAva polIsa pATIla DIpI javaLa , Pune, Maharashtra" }, "geometry": { "type": "Point", "coordinates": [ 73.9825734, 18.521266 ] } },
{ "type": "Feature", "properties": { "ccd_name": "Huge littering in open plot / Garbage Dump", "com_location": "Deepak Nitrate Road , Pune, Maharashtra" }, "geometry": { "type": "Point", "coordinates": [ 73.8935359, 18.5543031 ] } },
{ "type": "Feature", "properties": { "ccd_name": "Others (SWM )", "com_location": " Park, Baner Road, No Orchid School., Pune, Maharashtra" }, "geometry": { "type": "Point", "coordinates": [ 73.7816499, 18.562773 ] } },
{ "type": "Feature", "properties": { "ccd_name": "Mosquito nuisance/Fogging", "com_location": "barATe empAyara, vidishA ka lonI, karve nagara, Pune, Maharashtra" }, "geometry": { "type": "Point", "coordinates": [ 73.8207071, 18.4854575 ] } },
{ "type": "Feature", "properties": { "ccd_name": "Others (SWM )", "com_location": "Block-D, Gera Emerald City South, EON Free Zone, Kharadi, Pune, Maharashtra 411014, India" }, "geometry": { "type": "Point", "coordinates": [ 73.951443653741549, 18.553556065308719 ] } },
{ "type": "Feature", "properties": { "ccd_name": "Others (SWM )", "com_location": "Seven loves chowk,division depot,swargate,pune " }, "geometry": { "type": "Point", "coordinates": [ 73.869202, 18.501019 ] } },
{ "type": "Feature", "properties": { "ccd_name": "Others (SWM )", "com_location": "CRXC+C42, Pari Company Road, Sterling Nisarga II, Pune, Maharashtra 411041" }, "geometry": { "type": "Point", "coordinates": [ 73.8202656, 18.4485125 ] } },
{ "type": "Feature", "properties": { "ccd_name": "Odour(Foul smell) from Garbage Depot", "com_location": "Tirupati Regalia phase 1, Near Nandan Europa, Dashrath Nagar, Near Ram Mandir, Pune 411015." }, "geometry": { "type": "Point", "coordinates": [ 73.8841989, 18.5768143 ] } },
{ "type": "Feature", "properties": { "ccd_name": "Others (SWM )", "com_location": "Padmavati Shikhar Society...Kaka Halwai Industrial estate..Parvati, Pune, Maharashtra" }, "geometry": { "type": "Point", "coordinates": [ 73.8561492, 18.4886606 ] } },
{ "type": "Feature", "properties": { "ccd_name": "Others (SWM )", "com_location": "manapA bhavana javaLIla pulAchyA varUna maMgalA sinemA gRRihakaDe jANARyA pARyAMvara , Pune, Maharashtra" }, "geometry": { "type": "Point", "coordinates": [ 73.8447171, 18.4718808 ] } },
{ "type": "Feature", "properties": { "ccd_name": "Burning of Garbage/Plastic waste", "com_location": " infront of Shivanjali Restaurant, Sus Road, Pashan Pune" }, "geometry": { "type": "Point", "coordinates": [ 73.7888243, 18.5424416 ] } },
{ "type": "Feature", "properties": { "ccd_name": "Others (SWM )", "com_location": "navale pulAjavaLIla bhUmakara pulAvara , Pune, Maharashtra" }, "geometry": { "type": "Point", "coordinates": [ 73.8235749, 18.4597794 ] } },
{ "type": "Feature", "properties": { "ccd_name": "Others (SWM )", "com_location": "Swedganga society \r\nWarje Pune 411058" }, "geometry": { "type": "Point", "coordinates": [ 73.8063392, 18.4839547 ] } },
{ "type": "Feature", "properties": { "ccd_name": "Others (SWM )", "com_location": "sarve naMbara 6 keshavanagara muMDhavA kuMbhAravADA javaLa, Pune, Maharashtra" }, "geometry": { "type": "Point", "coordinates": [ 73.8786239, 18.5246091 ] } },
{ "type": "Feature", "properties": { "ccd_name": "Garbage vehicle not arrived", "com_location": "Plot no 1,lane no 1,sai krupa bunglow, shivaji bhosale nagar,next amar cottage,hadapsar,pune 411028." }, "geometry": { "type": "Point", "coordinates": [ 73.9307009, 18.5070675 ] } },
{ "type": "Feature", "properties": { "ccd_name": "Others (SWM )", "com_location": "pune" }, "geometry": { "type": "Point", "coordinates": [ 73.866485595703125, 18.48062896728516 ] } },
{ "type": "Feature", "properties": { "ccd_name": "Others (SWM )", "com_location": "Apate road,near Santosh Bakery,pune" }, "geometry": { "type": "Point", "coordinates": [ 73.8443879, 18.5228309 ] } },
{ "type": "Feature", "properties": { "ccd_name": "Others (SWM )", "com_location": "Porwal Sathe Vasti Road, near Nivasa Udaan Society, Lohegaon Pune 411047\t" }, "geometry": { "type": "Point", "coordinates": [ 73.9179292, 18.6010079 ] } },
{ "type": "Feature", "properties": { "ccd_name": "Others (SWM )", "com_location": "sArasabAgachyA pArkiMga madhye , Pune, Maharashtra" }, "geometry": { "type": "Point", "coordinates": [ 73.8185255, 18.4469134 ] } },
{ "type": "Feature", "properties": { "ccd_name": "Others (SWM )", "com_location": "Ivy Estate road, Wagholi, Pune\t" }, "geometry": { "type": "Point", "coordinates": [ 73.9976103, 18.5842167 ] } },
{ "type": "Feature", "properties": { "ccd_name": "Others (SWM )", "com_location": " Address - 7 A, Kapila Society, Gokhalenagar, Pune 411016. " }, "geometry": { "type": "Point", "coordinates": [ 73.8255487, 18.5255008 ] } },
{ "type": "Feature", "properties": { "ccd_name": "Mosquito nuisance/Fogging", "com_location": "57 maMgaLavAra peTha sadAAnaMda nagara sosAyaTI., Pune, Maharashtra" }, "geometry": { "type": "Point", "coordinates": [ 73.9531189, 18.5646495 ] } },
{ "type": "Feature", "properties": { "ccd_name": "Others (SWM )", "com_location": "gokulnagar lane no 3 near shankar mandir chowk kondhwa budruk, Pune, Maharashtra" }, "geometry": { "type": "Point", "coordinates": [ 73.873515, 18.4470625 ] } },
{ "type": "Feature", "properties": { "ccd_name": "Others (SWM )", "com_location": "Location: Sinchan Bhavan, Barne Road, Mangalwar Peth.\r\n, Pune, Maharashtra" }, "geometry": { "type": "Point", "coordinates": [ 73.7691593, 18.6199981 ] } },
{ "type": "Feature", "properties": { "ccd_name": "Others (SWM )", "com_location": "Anjali Villa Road, Sus-Pashan Tekdi, Baner, Pune, Maharashtra" }, "geometry": { "type": "Point", "coordinates": [ 73.7749244, 18.5475179 ] } },
{ "type": "Feature", "properties": { "ccd_name": "Mosquito nuisance/Fogging", "com_location": " from Kalyani Nagar Lane 6,pune." }, "geometry": { "type": "Point", "coordinates": [ 73.9211515, 18.5470836 ] } },
{ "type": "Feature", "properties": { "ccd_name": "Others (SWM )", "com_location": "134/02, siddhkala housing society, waraje pune-58" }, "geometry": { "type": "Point", "coordinates": [ 73.796834, 18.4864727 ] } },
{ "type": "Feature", "properties": { "ccd_name": "Others (SWM )", "com_location": "at corner of Gera Emerald City South Kharadi opp PMC ground complete lack of ownership by local PMC staff,PUNE" }, "geometry": { "type": "Point", "coordinates": [ 73.9519631, 18.553793 ] } },
{ "type": "Feature", "properties": { "ccd_name": "Others (SWM )", "com_location": "19 bI, madhukuMja, phATaka bAga, navI peTha puNe 30" }, "geometry": { "type": "Point", "coordinates": [ 73.8378329, 18.5053869 ] } },
{ "type": "Feature", "properties": { "ccd_name": "Others (SWM )", "com_location": "puNe,siMhagaDa roDa,dhAyarI (nAMdeDa phATA),gaNesha maMgala kAryAlayAmAge mokaLyA jAgevara,pune" }, "geometry": { "type": "Point", "coordinates": [ 73.8036752, 18.4647402 ] } },
{ "type": "Feature", "properties": { "ccd_name": "Garbage vehicle not arrived", "com_location": "ashraf nagar, sr no 5,lane 10,kondhwa budruk, pune 411048." }, "geometry": { "type": "Point", "coordinates": [ 73.8845796, 18.4684009 ] } },
{ "type": "Feature", "properties": { "ccd_name": "Others (SWM )", "com_location": "Shastri Nagar, near MSEB office.\r\n41100, Pune, Maharashtra" }, "geometry": { "type": "Point", "coordinates": [ 73.8967128, 18.5528168 ] } },
{ "type": "Feature", "properties": { "ccd_name": "Others (SWM )", "com_location": "Corner junction next to Hemant Karkare park & Tucker Army enclave.\r\n(Near Mahadev traders), Gondhale Nagar,\r\nHadapsar- 411028, Pune, Maharashtra" }, "geometry": { "type": "Point", "coordinates": [ 73.9522318, 18.4962231 ] } },
{ "type": "Feature", "properties": { "ccd_name": "Pig Nuisance", "com_location": "leka TAUna bhAgAtIla mahAlakShmInagara va  DI ArkeDa madhye, Pune, Maharashtra" }, "geometry": { "type": "Point", "coordinates": [ 73.8786239, 18.5246091 ] } },
{ "type": "Feature", "properties": { "ccd_name": "Pig Nuisance", "com_location": "ameya bilDiMga,anaMtakRRipA sosA\r\npauDa roDa puNe- 411038" }, "geometry": { "type": "Point", "coordinates": [ 73.8091557, 18.5091164 ] } },
{ "type": "Feature", "properties": { "ccd_name": "Garbage vehicle not arrived", "com_location": "lane no 16 rajram patil nagar kharadi, Pune, Maharashtra" }, "geometry": { "type": "Point", "coordinates": [ 73.9542442, 18.5596196 ] } },
{ "type": "Feature", "properties": { "ccd_name": "Others (SWM )", "com_location": "DP Ward 21.411001. SWM.Mangaldas Rd, Pune, Maharashtra" }, "geometry": { "type": "Point", "coordinates": [ 73.8830084, 18.5354828 ] } },
{ "type": "Feature", "properties": { "ccd_name": "Others (SWM )", "com_location": "shivanerI colony road baner pune" }, "geometry": { "type": "Point", "coordinates": [ 73.7844949, 18.6086005 ] } },
{ "type": "Feature", "properties": { "ccd_name": "Others (SWM )", "com_location": " Gita society gate, it has been months lying over there, also requesting you to pick up the pipes lying on pavement opposite Lal deval society,pune." }, "geometry": { "type": "Point", "coordinates": [ 73.8786239, 18.5246091 ] } },
{ "type": "Feature", "properties": { "ccd_name": "Other Animals Nuisance", "com_location": "Sylvania, magarpatta city,  hadapsar, Pune 411028.\r\n" }, "geometry": { "type": "Point", "coordinates": [ 73.9274497, 18.5189758 ] } },
{ "type": "Feature", "properties": { "ccd_name": "Mosquito nuisance/Fogging", "com_location": "FRH5+R73, Tapodham, Warje, Pune, Maharashtra 411052" }, "geometry": { "type": "Point", "coordinates": [ 73.8081719, 18.4795125 ] } },
{ "type": "Feature", "properties": { "ccd_name": "Others (SWM )", "com_location": "reNukAsvarupa mulIMche shALechyA rastyAvara puNe vidyArthI gRRihA javaLa keshavasuta patha puNe 411030 (vishrAmabAga kShetrIya kAryAlaya aMtargata)" }, "geometry": { "type": "Point", "coordinates": [ 73.8524875, 18.5094476 ] } },
{ "type": "Feature", "properties": { "ccd_name": "Others (SWM )", "com_location": "Mawani complex narhe road near vankatesh sharveel CNG pump road pUlA vara itakA kacharA Ahe vAsa suTalA Ahe\r\n, Pune, Maharashtra" }, "geometry": { "type": "Point", "coordinates": [ 73.7709271, 18.5113198 ] } },
{ "type": "Feature", "properties": { "ccd_name": "Others (SWM )", "com_location": "124/283bhImanagara muMDhavA puNe 411036 lAIna 08 samora" }, "geometry": { "type": "Point", "coordinates": [ 73.933003, 18.5330323 ] } },
{ "type": "Feature", "properties": { "ccd_name": "Mosquito nuisance/Fogging", "com_location": "the Mula Mutha river alongside the Riverside Road opposite to Nyati Elysia, Thite Nagar, Kharadi , Pune, Maharashtra" }, "geometry": { "type": "Point", "coordinates": [ 73.9392163, 18.5418988 ] } },
{ "type": "Feature", "properties": { "ccd_name": "Others (SWM )", "com_location": " Riddhi Siddhi CHS in Bavdhan near LMD chowk and just opposite the athwadi vegetable market , , Pune, Maharashtra" }, "geometry": { "type": "Point", "coordinates": [ 73.7698579, 18.513463 ] } },
{ "type": "Feature", "properties": { "ccd_name": "Burning of Garbage/Plastic waste", "com_location": "at Moze Petrol Pump area , Lohegaon 411047, Pune, Maharashtra" }, "geometry": { "type": "Point", "coordinates": [ 73.9134467, 18.5976373 ] } },
{ "type": "Feature", "properties": { "ccd_name": "Others (SWM )", "com_location": "rAstA peTha Agarakara mahAvidyAlaya puNe 411011" }, "geometry": { "type": "Point", "coordinates": [ 73.8638613, 18.5234814 ] } },
{ "type": "Feature", "properties": { "ccd_name": "Pig Nuisance", "com_location": "Elina Living entry gate and empty plot near by., Pune, Maharashtra" }, "geometry": { "type": "Point", "coordinates": [ 73.9101765, 18.4744118 ] } },
{ "type": "Feature", "properties": { "ccd_name": "Others (SWM )", "com_location": "Kalpataru jade pancard club rd baner pune 45." }, "geometry": { "type": "Point", "coordinates": [ 73.781106, 18.5597242 ] } },
{ "type": "Feature", "properties": { "ccd_name": "Others (SWM )", "com_location": "Location - Opp Parmar Garden wanaworie, Pune, Maharashtra" }, "geometry": { "type": "Point", "coordinates": [ 73.8957628, 18.4850873 ] } },
{ "type": "Feature", "properties": { "ccd_name": "Others (SWM )", "com_location": "Parijat colony, hadapsar pune-28, in front serum institute of company" }, "geometry": { "type": "Point", "coordinates": [ 73.9449972, 18.4876627 ] } },
{ "type": "Feature", "properties": { "ccd_name": "Burning of Garbage/Plastic waste", "com_location": "Labour camp road, next to Nyati Meadows, Wadgaonsheri 411014, Pune, Maharashtra" }, "geometry": { "type": "Point", "coordinates": [ 73.9144883, 18.5469361 ] } },
{ "type": "Feature", "properties": { "ccd_name": "Others (SWM )", "com_location": "karve nagar,shavu colony lane 3B,PUNE 411052.\t" }, "geometry": { "type": "Point", "coordinates": [ 73.821729, 18.4914883 ] } },
{ "type": "Feature", "properties": { "ccd_name": "Others (SWM )", "com_location": "kharA.DI, chandana nagara madhye,PUNE" }, "geometry": { "type": "Point", "coordinates": [ 73.9476257, 18.5539311 ] } },
{ "type": "Feature", "properties": { "ccd_name": "Others (SWM )", "com_location": "Valencia off baner pashan link road pashan, Pune, Maharashtra" }, "geometry": { "type": "Point", "coordinates": [ 73.7940392, 18.548685 ] } },
{ "type": "Feature", "properties": { "ccd_name": "Mosquito nuisance/Fogging", "com_location": " Jay bhavani Paan Shop K city keshavnagr , Pune, Maharashtra" }, "geometry": { "type": "Point", "coordinates": [ 73.8564314, 18.4966516 ] } },
{ "type": "Feature", "properties": { "ccd_name": "Others (SWM )", "com_location": "Kalpaataru jade road Baner, Pune, Maharashtra" }, "geometry": { "type": "Point", "coordinates": [ 73.7768511, 18.5642452 ] } },
{ "type": "Feature", "properties": { "ccd_name": "Mosquito nuisance/Fogging", "com_location": "Road No 18 Ganeshnagar Bopkhel, Pune, Maharashtra" }, "geometry": { "type": "Point", "coordinates": [ 73.8642549, 18.5914445 ] } },
{ "type": "Feature", "properties": { "ccd_name": "Burning of Garbage/Plastic waste", "com_location": "Handewadi road Chintamani nagar.  In front of Eisha Empire before Ravi Park., Pune, Maharashtra" }, "geometry": { "type": "Point", "coordinates": [ 73.9350539, 18.4850001 ] } },
{ "type": "Feature", "properties": { "ccd_name": "Garbage not lifted from co-authorised collection point / House gully", "com_location": "2, Karve Rd, Mayur Colony, mayur colony, Pune, Maharashtra 411038, India" }, "geometry": { "type": "Point", "coordinates": [ 73.819305419921875, 18.503183364868164 ] } },
{ "type": "Feature", "properties": { "ccd_name": "Burning of Garbage", "com_location": "Urban Space Phase Internal Road Dorabjee Paradise Mohammed Wadi Pune Maharashtra India" }, "geometry": { "type": "Point", "coordinates": [ 73.9082295, 18.466579 ] } },
{ "type": "Feature", "properties": { "ccd_name": "Others (SWM )", "com_location": "kai bhivAjI rAvajI galAMDe kheLyAchyA lAla mAtIchyA maidAnApAshI , Pune, Maharashtra" }, "geometry": { "type": "Point", "coordinates": [ 73.8786239, 18.5246091 ] } },
{ "type": "Feature", "properties": { "ccd_name": "Others (SWM )", "com_location": " ITI Road, Anand park and sanewadi . Pune 411007." }, "geometry": { "type": "Point", "coordinates": [ 73.809181, 18.5562621 ] } },
{ "type": "Feature", "properties": { "ccd_name": "Others (SWM )", "com_location": "Near ZAWARE PATIL CLINIC, 38/297, POLICE STATION ROAD, LAXMINAGAR, PARVATI, PUNE 411009." }, "geometry": { "type": "Point", "coordinates": [ 73.8497382, 18.4918114 ] } },
{ "type": "Feature", "properties": { "ccd_name": "Others (SWM )", "com_location": "HM Royal society and R Euphoria Co-op hsg society donhI gRRihanirmANa sahakArI saMsthAM, Pune, Maharashtra" }, "geometry": { "type": "Point", "coordinates": [ 73.7965679, 18.4887931 ] } },
{ "type": "Feature", "properties": { "ccd_name": "Others (SWM )", "com_location": "jaidev nagar Rajaram pool,sinhgad road,near sharda math,pune 411030." }, "geometry": { "type": "Point", "coordinates": [ 73.830962, 18.489475 ] } },
{ "type": "Feature", "properties": { "ccd_name": "Burning of Garbage/Plastic waste", "com_location": "arround Bishop's School Undri., Pune, Maharashtra" }, "geometry": { "type": "Point", "coordinates": [ 73.9154453, 18.4583814 ] } },
{ "type": "Feature", "properties": { "ccd_name": "Burning of Garbage/Plastic waste", "com_location": "navjeevan society, Near Vishwe chowk, sahakar nagar police station, Pune 411009." }, "geometry": { "type": "Point", "coordinates": [ 73.8511074, 18.4791833 ] } },
{ "type": "Feature", "properties": { "ccd_name": "Others (SWM )", "com_location": " shivAjInagara - Agarakara patha - dAdAsAheba kudaLe pathAvara, Pune, Maharashtra" }, "geometry": { "type": "Point", "coordinates": [ 73.8508996, 18.4490808 ] } },
{ "type": "Feature", "properties": { "ccd_name": "Garbage vehicle not arrived", "com_location": "Siddhivinayak society jamulwadi road ambegaon khurd Pune 46\r\n" }, "geometry": { "type": "Point", "coordinates": [ 73.8468226, 18.4424495 ] } },
{ "type": "Feature", "properties": { "ccd_name": "Mosquito nuisance/Fogging", "com_location": "iMdirAnagara jhopaDapaTTI parisara maMgaLavAra peTha., Pune, Maharashtra" }, "geometry": { "type": "Point", "coordinates": [ 73.8325882, 18.5430169 ] } },
{ "type": "Feature", "properties": { "ccd_name": "Garbage vehicle not arrived", "com_location": "Adarsh nagar,TIME vidyabhavan hostel,vadgaonsheri,pune 411014." }, "geometry": { "type": "Point", "coordinates": [ 73.9109977, 18.5475328 ] } },
{ "type": "Feature", "properties": { "ccd_name": "Others (SWM )", "com_location": "near Rajewadi, Nana Peth. Outside Police Lines  Bhavani Peth., Pune, Maharashtra" }, "geometry": { "type": "Point", "coordinates": [ 73.8661838, 18.5117161 ] } },
{ "type": "Feature", "properties": { "ccd_name": "Mosquito nuisance/Fogging", "com_location": "Guru Ganesh soc \r\nPlot no 2A \r\nBibwewadi khondhwa road \r\nGangadham chowk \r\nMarket yard \r\nPune -411037\r\n\r\n" }, "geometry": { "type": "Point", "coordinates": [ 73.8736612, 18.4800174 ] } },
{ "type": "Feature", "properties": { "ccd_name": "Mosquito nuisance/Fogging", "com_location": " Karan gharonda,oppo.F residency,near brahma suncity,pune " }, "geometry": { "type": "Point", "coordinates": [ 73.9164783, 18.5514145 ] } },
{ "type": "Feature", "properties": { "ccd_name": "Garbage vehicle not arrived", "com_location": "palm 1 society, katraj kondhwa road, near khadi machine police chowki tilekar chowk pune 48 " }, "geometry": { "type": "Point", "coordinates": [ 73.865238, 18.4529322 ] } },
{ "type": "Feature", "properties": { "ccd_name": "Others (SWM )", "com_location": "sTeTa ba.Nka kAragIla sosAyaTI vAraje mALavADI , Pune, Maharashtra" }, "geometry": { "type": "Point", "coordinates": [ 73.8034283, 18.4755101 ] } },
{ "type": "Feature", "properties": { "ccd_name": "Others (SWM )", "com_location": "at 473 Marble house,near new English school, Sadashiv peth, Pune." }, "geometry": { "type": "Point", "coordinates": [ 73.845193900000012, 18.5120841 ] } },
{ "type": "Feature", "properties": { "ccd_name": "Garbage bin overflowing", "com_location": "250, Rigved Satav Plots Lane no 4 Behind Munnalal paradise building Akashwani Hadapsar pune 411028" }, "geometry": { "type": "Point", "coordinates": [ 73.948034, 18.499679 ] } },
{ "type": "Feature", "properties": { "ccd_name": "Burning of Garbage", "com_location": "JW9G+G64, Pune, Maharashtra 412105, India" }, "geometry": { "type": "Point", "coordinates": [ 73.925534, 18.6187864 ] } },
{ "type": "Feature", "properties": { "ccd_name": "Others (SWM )", "com_location": "DP ward 21. 411001. SWM. N.Mainrd/ KP Rd corner, Pune, Maharashtra" }, "geometry": { "type": "Point", "coordinates": [ 73.880803, 18.534736 ] } },
{ "type": "Feature", "properties": { "ccd_name": "Burning of Garbage/Plastic waste", "com_location": "navIna bANera pAShANa liMka roDa(krisTala gArDana )koDe bilDiMga, Pune, Maharashtra" }, "geometry": { "type": "Point", "coordinates": [ 73.8081137, 18.5063812 ] } },
{ "type": "Feature", "properties": { "ccd_name": "Others (SWM )", "com_location": "dAmodara nagara\r\nbilDiMga A-1\r\npUrvAbhimukha mArutI samora\r\nhiMgaNe khurda\r\npuNe 411051" }, "geometry": { "type": "Point", "coordinates": [ 73.8117682, 18.4757817 ] } },
{ "type": "Feature", "properties": { "ccd_name": "Huge littering in open plot / Garbage Dump", "com_location": "serve no 97, ghule colony no 2, dhere bungla, manjri bk pune\r\n" }, "geometry": { "type": "Point", "coordinates": [ 73.8611648, 18.5886901 ] } },
{ "type": "Feature", "properties": { "ccd_name": "Mosquito nuisance/Fogging", "com_location": "Sr. no. 29 hissa number 7/3, near atmosphere building,ambegaon budruk pune 411046." }, "geometry": { "type": "Point", "coordinates": [ 73.8306278, 18.456677 ] } },
{ "type": "Feature", "properties": { "ccd_name": "Others (SWM )", "com_location": "Behind kumar panchsheel building chhatrapati sambhaji nagar near vinkar sabhagruha padmavati pune 411043" }, "geometry": { "type": "Point", "coordinates": [ 73.8526883, 18.472231 ] } },
{ "type": "Feature", "properties": { "ccd_name": "Others (SWM )", "com_location": "6,somavAra peTha, puNe 411011." }, "geometry": { "type": "Point", "coordinates": [ 73.8638613, 18.5234814 ] } },
{ "type": "Feature", "properties": { "ccd_name": "Others (SWM )", "com_location": "at this road near ESISC hospital Shaptashrungi mandir http://Bibwewadi,pune." }, "geometry": { "type": "Point", "coordinates": [ 73.8605114, 18.4848333 ] } },
{ "type": "Feature", "properties": { "ccd_name": "Others (SWM )", "com_location": " Warje ward office adjoining tata residency building., Pune, Maharashtra" }, "geometry": { "type": "Point", "coordinates": [ 73.823745, 18.498383 ] } },
{ "type": "Feature", "properties": { "ccd_name": "Burning of Garbage/Plastic waste", "com_location": "Vaiduwadi, Suryalok Nagari, Hadapsar, Pune, 411028" }, "geometry": { "type": "Point", "coordinates": [ 73.9205509, 18.5029883 ] } },
{ "type": "Feature", "properties": { "ccd_name": "Huge littering in open plot / Garbage Dump", "com_location": "Katraj Jain Mandir sacchai Mata Mandir Road back side of Rajlaxmi jewellers Pune 411046" }, "geometry": { "type": "Point", "coordinates": [ 73.8530132, 18.4402319 ] } },
{ "type": "Feature", "properties": { "ccd_name": "Burning of Garbage/Plastic waste", "com_location": "bANera pAShANa liMka roDa pAsaporTa  phisa, Pune, Maharashtra" }, "geometry": { "type": "Point", "coordinates": [ 73.7923957, 18.5414267 ] } },
{ "type": "Feature", "properties": { "ccd_name": "Others (SWM )", "com_location": "dhAyarI gAva chavhANa shALA mAge,pune" }, "geometry": { "type": "Point", "coordinates": [ 73.8101999, 18.4471444 ] } },
{ "type": "Feature", "properties": { "ccd_name": "Dog Nuisance", "com_location": "Sr no 94 bhoiraj housing society mundhwa Pune 411036 " }, "geometry": { "type": "Point", "coordinates": [ 73.9293335, 18.535877 ] } },
{ "type": "Feature", "properties": { "ccd_name": "Others (SWM )", "com_location": "A17 , Kanchan Jyoti Apts \r\nPaud road, Shivtirth Nagar, Kothrud \r\nPune 411038" }, "geometry": { "type": "Point", "coordinates": [ 73.8068488, 18.5113574 ] } },
{ "type": "Feature", "properties": { "ccd_name": "Garbage vehicle not arrived", "com_location": "ro hAUsa no 2 siddesha saMkula dhAyarI gAva benakara vastI sumita aveNU bilDiMga samora samIra chikana shejArI puNe 411" }, "geometry": { "type": "Point", "coordinates": [ 73.8101999, 18.4471444 ] } },
{ "type": "Feature", "properties": { "ccd_name": "Others (SWM )", "com_location": "Prajasattak colony munjabawasti dhanori, Pune, Maharashtra" }, "geometry": { "type": "Point", "coordinates": [ 73.8974273, 18.5923271 ] } },
{ "type": "Feature", "properties": { "ccd_name": "Mosquito nuisance/Fogging", "com_location": "Spectra building near madhuraj nagar society, krushna hospital paud road pune 38" }, "geometry": { "type": "Point", "coordinates": [ 73.8127714, 18.5092141 ] } },
{ "type": "Feature", "properties": { "ccd_name": "Others (SWM )", "com_location": "Rupi nagar near maharashtra bakery near atharv opticals fursungi pune 412308" }, "geometry": { "type": "Point", "coordinates": [ 73.9531218, 18.4865465 ] } },
{ "type": "Feature", "properties": { "ccd_name": "Mosquito nuisance/Fogging", "com_location": "nAlaMdA sosAyaTI bibavevADI gAva puNe -37" }, "geometry": { "type": "Point", "coordinates": [ 73.8679105, 18.4796075 ] } },
{ "type": "Feature", "properties": { "ccd_name": "Others (SWM )", "com_location": "#BhandarkarRoad Lane 9, #PrabhatRoad Lane 7. Opposite Four Fountain Spa.\r\nAlways a mess., Pune, Maharashtra" }, "geometry": { "type": "Point", "coordinates": [ 73.828808, 18.513878 ] } },
{ "type": "Feature", "properties": { "ccd_name": "Burning of Garbage/Plastic waste", "com_location": "Chetan estate , near canal ,sasane nagar , hadapsar , pune 411028" }, "geometry": { "type": "Point", "coordinates": [ 73.9308957, 18.4949721 ] } },
{ "type": "Feature", "properties": { "ccd_name": "Huge littering in open plot / Garbage Dump", "com_location": "Mukta complex, Anil Park internal road, Sweekar hotel lane, Erandwane, Pune 411004" }, "geometry": { "type": "Point", "coordinates": [ 73.830242, 18.5057792 ] } },
{ "type": "Feature", "properties": { "ccd_name": "Mosquito nuisance/Fogging", "com_location": "Riverdale heights kharadi., Pune, Maharashtra" }, "geometry": { "type": "Point", "coordinates": [ 73.9396043, 18.5427057 ] } },
{ "type": "Feature", "properties": { "ccd_name": "Others (SWM )", "com_location": "outside Krutarth society, Ahead of Tiranga restaurant, near city pride theatre, Satara road, 411037. , Pune, Maharashtra" }, "geometry": { "type": "Point", "coordinates": [ 73.8599304, 18.487934 ] } },
{ "type": "Feature", "properties": { "ccd_name": "Others (SWM )", "com_location": "Bavdhan Khurd,Lantana Garden Society ,Bavdhan Khurd,Nea r Aditya Shugun Mall, Pune, Maharashtra" }, "geometry": { "type": "Point", "coordinates": [ 73.7804564, 18.5178247 ] } },
{ "type": "Feature", "properties": { "ccd_name": "Others (SWM )", "com_location": "Behind Khadki Railway Station\r\nAundh Road.\r\nPhase 2 Montvert Pristine, Pune, Maharashtra" }, "geometry": { "type": "Point", "coordinates": [ 73.8391295, 18.5640243 ] } },
{ "type": "Feature", "properties": { "ccd_name": "Others (SWM )", "com_location": "rAjana konnUra 200,shrIkRRiShNa sosAyaTI sahakAranagara naMbara 2 puNe 411009" }, "geometry": { "type": "Point", "coordinates": [ 73.849983, 18.48458 ] } },
{ "type": "Feature", "properties": { "ccd_name": "Odour(Foul smell) from Garbage Depot", "com_location": "1100,shukrawar peth,sathe colony,near Swargate,, Pune, Maharashtra" }, "geometry": { "type": "Point", "coordinates": [ 73.8570021, 18.5141015 ] } },
{ "type": "Feature", "properties": { "ccd_name": "Huge littering in open plot / Garbage Dump", "com_location": "Block-A, Baner - Balewadi Rd, Laxmi Nagar, Balewadi Gaon, Balewadi, Pune, Maharashtra 411045, India" }, "geometry": { "type": "Point", "coordinates": [ 73.778536, 18.5752079 ] } },
{ "type": "Feature", "properties": { "ccd_name": "Others (SWM )", "com_location": "prabhAga kramAMka 35 Da kTara bAbAsAheba AMbeDakara krIDA saMkula sahakAra nagara padmAvatI puNe 9" },