{
"type": "FeatureCollection",
"name": "2023_Electrical",
"crs": { "type": "name", "properties": { "name": "urn:ogc:def:crs:OGC:1.3:CRS84" } },
"features": [
{ "type": "Feature", "properties": { "ccd_name": "Making street light functional", "com_location": "siMhagaDa roDa mukhya rastyAvarIla, Pune, Maharashtra" }, "geometry": { "type": "Point", "coordinates": [ 73.8786239, 18.5246091 ] } },
{ "type": "Feature", "properties": { "ccd_name": "Making street light functional", "com_location": "  sarvhe na-16/23,gaNesha ka lanI goMdhaLenagara haDapasara yethIla , Pune, Maharashtra" }, "geometry": { "type": "Point", "coordinates": [ 73.8231859, 18.4779122 ] } },
{ "type": "Feature", "properties": { "ccd_name": "Other (ELECTRICAL)", "com_location": "pra.kra.21, ghorapaDI, muMDavA, koregAvapArka, Pune, Maharashtra" }, "geometry": { "type": "Point", "coordinates": [ 73.9045991, 18.5283451 ] } },
{ "type": "Feature", "properties": { "ccd_name": "Making street light functional", "com_location": "abhaya sevA taruNa maMDaLa chauka nAMdeDa gAva gAvaThANa puNe." }, "geometry": { "type": "Point", "coordinates": [ 73.8275292, 18.4539837 ] } },
{ "type": "Feature", "properties": { "ccd_name": "Making street light functional", "com_location": "Phursungi chanwaadi, Pune, Maharashtra" }, "geometry": { "type": "Point", "coordinates": [ 73.9784573, 18.4726725 ] } },
{ "type": "Feature", "properties": { "ccd_name": "Making street light functional", "com_location": "lena naMbara 1 sAI nagara jayahiMda iMglisha mIDiyama skUla samora kAtraja puNe 411046 " }, "geometry": { "type": "Point", "coordinates": [ 73.8745158, 18.4560015 ] } },
{ "type": "Feature", "properties": { "ccd_name": "Making street light functional", "com_location": "sr.no. 64 trimurti hospital wadgaon bk pune 41" }, "geometry": { "type": "Point", "coordinates": [ 73.814838, 18.4621292 ] } },
{ "type": "Feature", "properties": { "ccd_name": "Making street light functional", "com_location": "opposite wadeshwar , Arya bhushan khau galli lane ,opposite Water supply office , near gupte hospital lane , opposite westside mall , FC road , pune 411005" }, "geometry": { "type": "Point", "coordinates": [ 73.8786239, 18.5246091 ] } },
{ "type": "Feature", "properties": { "ccd_name": "Making street light functional", "com_location": "Laxminarayan backery, bibwewadi gavthan, pune" }, "geometry": { "type": "Point", "coordinates": [ 73.8640944, 18.4690213 ] } },
{ "type": "Feature", "properties": { "ccd_name": "Making street light functional", "com_location": "Korade baug sr no-10, near nanded city circle -411041, Pune, Maharashtra" }, "geometry": { "type": "Point", "coordinates": [ 73.787635, 18.4567884 ] } },
{ "type": "Feature", "properties": { "ccd_name": "Making street light functional", "com_location": "Sr. No. 573, plot no. 29, flat no. 9, suparshwanath hag. Society, pune" }, "geometry": { "type": "Point", "coordinates": [ 73.8786239, 18.5246091 ] } },
{ "type": "Feature", "properties": { "ccd_name": "Other (ELECTRICAL)", "com_location": "Address:8 mula road bhaiyawadi near Shankar mandir khadki pune 3" }, "geometry": { "type": "Point", "coordinates": [ 73.8535794, 18.5512667 ] } },
{ "type": "Feature", "properties": { "ccd_name": "Making street light functional", "com_location": " harapaLe ALI phurasuMgI gAva, Pune, Maharashtra" }, "geometry": { "type": "Point", "coordinates": [ 73.9789576, 18.4714877 ] } },
{ "type": "Feature", "properties": { "ccd_name": "Making street light functional", "com_location": "umesha maMDapa javaLa , khaDakavAsalA siMhagaDa roDa puNe 24" }, "geometry": { "type": "Point", "coordinates": [ 73.7780649, 18.4420264 ] } },
{ "type": "Feature", "properties": { "ccd_name": "Making street light functional", "com_location": "381 Bhawani Peth\nJuna Motor Stand \nShree Towers \nNear Honda Service Center\n, Pune, Maharashtra" }, "geometry": { "type": "Point", "coordinates": [ 73.8724995, 18.5083172 ] } },
{ "type": "Feature", "properties": { "ccd_name": "Making street light functional", "com_location": "junA thopha khAnA sAI bAbA maMdirA shejArI, Pune, Maharashtra" }, "geometry": { "type": "Point", "coordinates": [ 73.8786239, 18.5246091 ] } },
{ "type": "Feature", "properties": { "ccd_name": "Making street light functional", "com_location": "138/1, Gaon, Bhagwati Nagar, Sus, Pune, Maharashtra 411021" }, "geometry": { "type": "Point", "coordinates": [ 73.7452914, 18.5468972 ] } },
{ "type": "Feature", "properties": { "ccd_name": "Making street light functional", "com_location": "427/12 Gultekdi industrial estate vehicle depot road pune 411037\t" }, "geometry": { "type": "Point", "coordinates": [ 73.8679115, 18.4957045 ] } },
{ "type": "Feature", "properties": { "ccd_name": "Repairing street light pole (damaged / fallen)", "com_location": "pune" }, "geometry": { "type": "Point", "coordinates": [ 73.945026131127108, 18.494022004935104 ] } },
{ "type": "Feature", "properties": { "ccd_name": "Other (ELECTRICAL)", "com_location": "kubare nagara, janI AI maMdirAchyA DAvI sAITa, koMDhave dhAvaDe tA. havelI ji. puNe " }, "geometry": { "type": "Point", "coordinates": [ 73.8505741, 18.6303827 ] } },
{ "type": "Feature", "properties": { "ccd_name": "A new street light (new demand)", "com_location": "MIS school to NICMAR Road towards NIA, BOM , Pune, Maharashtra" }, "geometry": { "type": "Point", "coordinates": [ 73.7660918, 18.5708258 ] } },
{ "type": "Feature", "properties": { "ccd_name": "Making street light functional", "com_location": "pune" }, "geometry": { "type": "Point", "coordinates": [ 73.866477966308594, 18.451711654663089 ] } },
{ "type": "Feature", "properties": { "ccd_name": "Making street light functional", "com_location": "Soyarik Garden Mangal Karyalay.Nagar Road Wagholi Pune" }, "geometry": { "type": "Point", "coordinates": [ 73.9688486, 18.5768213 ] } },
{ "type": "Feature", "properties": { "ccd_name": "Repairing street light pole (damaged / fallen)", "com_location": "prabhAga kra 39 anaMta nagara sosAyaTI sarvhe naM 32/2 bilDIMga naM B2 dhanakavaDI puNe   BSNL   phisa shejArI" }, "geometry": { "type": "Point", "coordinates": [ 73.9363992, 18.5536377 ] } },
{ "type": "Feature", "properties": { "ccd_name": "Making street light functional", "com_location": "opp to lifecell company right bhusari colony Ganesh mandir till Lane number 8 near to Vignahar apartment lane- 08 Bhusari Col Kothrud Pune- 411038" }, "geometry": { "type": "Point", "coordinates": [ 73.7938149, 18.5118215 ] } },
{ "type": "Feature", "properties": { "ccd_name": "Making street light functional", "com_location": "Vanshaj Co-op Housing Society Ltd Survey no 80, close to New Passport office,  Pingle wasti , Mundhwa road,  Pune 36 ." }, "geometry": { "type": "Point", "coordinates": [ 73.9122257, 18.5312365 ] } },
{ "type": "Feature", "properties": { "ccd_name": "Shut down street light", "com_location": "on Gagan Adhira Road, Wagholi, opposite to the Lexicon  School, pune." }, "geometry": { "type": "Point", "coordinates": [ 73.9967764, 18.5879393 ] } },
{ "type": "Feature", "properties": { "ccd_name": "Making street light functional", "com_location": "Vidyasagar Colony HiDE  Park back side Market yard kushal co housing society, Pune, Maharashtra" }, "geometry": { "type": "Point", "coordinates": [ 73.876455, 18.484757 ] } },
{ "type": "Feature", "properties": { "ccd_name": "Other (ELECTRICAL)", "com_location": "sr no 36/3,gali no 8,shree swami samarth nagar,mauli krupa,Katraj,pune 411046." }, "geometry": { "type": "Point", "coordinates": [ 73.8711081, 18.4456323 ] } },
{ "type": "Feature", "properties": { "ccd_name": "Making street light functional", "com_location": "sarvhe naMbara 126/11 a,rastA naMbara 1, darshana pArka  phisachyA pAThImAge,phurasuMgI relve geTa javaLa\r\nphurasuMgI puNe-412308" }, "geometry": { "type": "Point", "coordinates": [ 73.8786239, 18.5246091 ] } },
{ "type": "Feature", "properties": { "ccd_name": "Making street light functional", "com_location": "Siddhi greens, Near Shree Sai English Medium School, Phursungi, Pune - 412308" }, "geometry": { "type": "Point", "coordinates": [ 73.9752939, 18.4649002 ] } },
{ "type": "Feature", "properties": { "ccd_name": "Other (ELECTRICAL)", "com_location": "JAY BHAVANI NAGAR LANE NO 1 MAHARAJA MITRA MANDAL KOTHRUD PUNE 411038" }, "geometry": { "type": "Point", "coordinates": [ 73.8136664, 18.496431 ] } },
{ "type": "Feature", "properties": { "ccd_name": "Making street light functional", "com_location": "wagholi rai sony collage shivtej park. , Pune, Maharashtra" }, "geometry": { "type": "Point", "coordinates": [ 73.9829616, 18.5730177 ] } },
{ "type": "Feature", "properties": { "ccd_name": "Making street light functional", "com_location": "6th Sense Society, Katraj, Pune - 411046.\r\nPune Satara Road.\r\n\r\nLandmark : Pratik Hotel Corner\"" }, "geometry": { "type": "Point", "coordinates": [ 73.8592715, 18.4451659 ] } },
{ "type": "Feature", "properties": { "ccd_name": "Making street light functional", "com_location": "khaDakavAsalA gAvachA bhairavanAtha viThThala maMdira utsava, Pune, Maharashtra" }, "geometry": { "type": "Point", "coordinates": [ 73.7720909, 18.5212321 ] } },
{ "type": "Feature", "properties": { "ccd_name": "Making street light functional", "com_location": "iMdirA gAMdhI vasAhata gaNesha khiMDa roDa, hanumAna maMdira javaLIla , Pune, Maharashtra" }, "geometry": { "type": "Point", "coordinates": [ 73.8786239, 18.5246091 ] } },
{ "type": "Feature", "properties": { "ccd_name": "Making street light functional", "com_location": "yashavaMtanagara talesarA ha spiTala bAjUlA yeravaDA puNe 6." }, "geometry": { "type": "Point", "coordinates": [ 73.8888375, 18.5496162 ] } },
{ "type": "Feature", "properties": { "ccd_name": "Making street light functional", "com_location": "opposite to kunal aspiree balewadi., Pune, Maharashtra" }, "geometry": { "type": "Point", "coordinates": [ 73.776479900000012, 18.579176 ] } },
{ "type": "Feature", "properties": { "ccd_name": "Making street light functional", "com_location": "Bombey pune road, opp darga, bopudi khadaki pune-411003\t" }, "geometry": { "type": "Point", "coordinates": [ 73.8374954, 18.5641675 ] } },
{ "type": "Feature", "properties": { "ccd_name": "Making street light functional", "com_location": "Lane No. 5, Near Ganpati mandir, Shaha eligence, Sanjay Park, Airport road, Pune - 411032" }, "geometry": { "type": "Point", "coordinates": [ 73.9035006, 18.5701841 ] } },
{ "type": "Feature", "properties": { "ccd_name": "Making street light functional", "com_location": "puNe sAsavaDa roDa apekShA pa.clesa samora phATe ka lanI" }, "geometry": { "type": "Point", "coordinates": [ 73.8786239, 18.5246091 ] } },
{ "type": "Feature", "properties": { "ccd_name": "A new street light (new demand)", "com_location": "Ganganagar Rickshaw stand, Lane No. ,Trimurti nagar,, Fursungi, Pune - 412308" }, "geometry": { "type": "Point", "coordinates": [ 73.9558204, 18.482996 ] } },
{ "type": "Feature", "properties": { "ccd_name": "Other (ELECTRICAL)", "com_location": "b-902, yash twin tower, pan card club road, baner-411045\t, Pune, Maharashtra" }, "geometry": { "type": "Point", "coordinates": [ 73.7836945, 18.5575769 ] } },
{ "type": "Feature", "properties": { "ccd_name": "Making street light functional", "com_location": "suyoga nisarga hAUsiMga sosAyaTI, lohagAva roDa vAgholI, Pune, Maharashtra" }, "geometry": { "type": "Point", "coordinates": [ 73.9531189, 18.5646495 ] } },
{ "type": "Feature", "properties": { "ccd_name": "Making street light functional", "com_location": "dargah till WTC junction till EON IT park, Pune, Maharashtra" }, "geometry": { "type": "Point", "coordinates": [ 73.9496947, 18.5533997 ] } },
{ "type": "Feature", "properties": { "ccd_name": "Making street light functional", "com_location": "Bhushan Bhadale Uruli Devhachi, pune" }, "geometry": { "type": "Point", "coordinates": [ 73.9572841, 18.4481689 ] } },
{ "type": "Feature", "properties": { "ccd_name": "Making street light functional", "com_location": "84 / 85, Old Topkhana, Tophakhana, Shivajinagar, Pune, Maharashtra 411005, India" }, "geometry": { "type": "Point", "coordinates": [ 73.8552793, 18.5253189 ] } },
{ "type": "Feature", "properties": { "ccd_name": "Making street light functional", "com_location": "Sr no 27 gAvaThANa bibavevADI kiTaka nAshaka shejArI madhalA vADA sulabha sauchAlaya  37 , Pune, Maharashtra" }, "geometry": { "type": "Point", "coordinates": [ 73.8856425, 18.4549545 ] } },
{ "type": "Feature", "properties": { "ccd_name": "Making street light functional", "com_location": "Sr no 20/1/21 next to shree krupa soc near old orbis school keshavnagar pune.\t" }, "geometry": { "type": "Point", "coordinates": [ 73.9502088, 18.5324561 ] } },
{ "type": "Feature", "properties": { "ccd_name": "Making street light functional", "com_location": "lucky hardware shivaji nagar tofkhana , behind court , sai baba mandir kaman shivaji nagar pune " }, "geometry": { "type": "Point", "coordinates": [ 73.8556885, 18.5258036 ] } },
{ "type": "Feature", "properties": { "ccd_name": "Making street light functional", "com_location": "hiMgane va kiMga Tra.cka.. vara jalashudhdIkaraNa keMdrAchyA alIkaDe bAge shejArI., Pune, Maharashtra" }, "geometry": { "type": "Point", "coordinates": [ 73.7924618, 18.4981316 ] } },
{ "type": "Feature", "properties": { "ccd_name": "Repairing street light pole (damaged / fallen)", "com_location": "CVW3+69W, Sai Colony, Ambegaon BK, Pune, Maharashtra 411046, India" }, "geometry": { "type": "Point", "coordinates": [ 73.853521836597679, 18.445443478612479 ] } },
{ "type": "Feature", "properties": { "ccd_name": "Making street light functional", "com_location": "Raghavdas Vidyalaya School to Yashodeep Chowk, Warje Malwadi ,Pune 411058" }, "geometry": { "type": "Point", "coordinates": [ 73.7980667, 18.4765331 ] } },
{ "type": "Feature", "properties": { "ccd_name": "Making street light functional", "com_location": "Dada Hardikar Rd, Prashant Nagar, Lokamanya Nagar, Navi Peth, Sadashiv Peth, Pune, Maharashtra 411030, India" }, "geometry": { "type": "Point", "coordinates": [ 73.8435719, 18.5066041 ] } },
{ "type": "Feature", "properties": { "ccd_name": "Making street light functional", "com_location": "Wagholi - Keshnand Rd, Wagholi, Maharashtra 412207, Pune, Maharashtra" }, "geometry": { "type": "Point", "coordinates": [ 73.9938915, 18.5782059 ] } },
{ "type": "Feature", "properties": { "ccd_name": "Making street light functional", "com_location": "sukha sA gara nagara bhAga 2 lena naMbara 4  , Pune, Maharashtra" }, "geometry": { "type": "Point", "coordinates": [ 73.8786239, 18.5246091 ] } },
{ "type": "Feature", "properties": { "ccd_name": "Other (ELECTRICAL)", "com_location": "biMdU mahAdeva ThAkare chauka yeravaDA puNe yA chaukAmadhIla." }, "geometry": { "type": "Point", "coordinates": [ 73.879711, 18.5529226 ] } },
{ "type": "Feature", "properties": { "ccd_name": "Making street light functional", "com_location": "  Narangi Baug Road\t, Pune, Maharashtra" }, "geometry": { "type": "Point", "coordinates": [ 73.8798234, 18.5373596 ] } },
{ "type": "Feature", "properties": { "ccd_name": "No electricity in public toilet(s)", "com_location": "iMdirA vasAhata gaNesha khiMDa roDa auMdha puNe 7 bAlavADI shejArI" }, "geometry": { "type": "Point", "coordinates": [ 73.8786239, 18.5246091 ] } },
{ "type": "Feature", "properties": { "ccd_name": "Making street light functional", "com_location": "sAIkRRipA hA.sosAyaTI.puNe sAtArA roDa.bhAratI vidyApIThAsamora.\r\ndhanakavaDI.puNe 411043. phona naM. 9890598807\"" }, "geometry": { "type": "Point", "coordinates": [ 73.8581095, 18.4608016 ] } },
{ "type": "Feature", "properties": { "ccd_name": "Making street light functional", "com_location": " left side of Aundh Road from AMAR heights to Ganesh temple, Pune, Maharashtra" }, "geometry": { "type": "Point", "coordinates": [ 73.8561165, 18.5164208 ] } },
{ "type": "Feature", "properties": { "ccd_name": "Making street light functional", "com_location": "aishvaryA sosAyaTI javaLIla jhIla kA.Nleja chauka, iMgaLe vastI,\r\nnarhe., Pune, Maharashtra" }, "geometry": { "type": "Point", "coordinates": [ 73.8280415, 18.4491725 ] } },
{ "type": "Feature", "properties": { "ccd_name": "Making street light functional", "com_location": "vAgholI gAvAtIla nagara mahAmArgAvarIla , Pune, Maharashtra" }, "geometry": { "type": "Point", "coordinates": [ 73.9787063, 18.5807719 ] } },
{ "type": "Feature", "properties": { "ccd_name": "Making street light functional", "com_location": " Radiant sunny climes society near hdfc bank quater gate pune 411002" }, "geometry": { "type": "Point", "coordinates": [ 73.8717343, 18.5143558 ] } },
{ "type": "Feature", "properties": { "ccd_name": "Making street light functional", "com_location": "devaDA aMgaNa, lena A , kAragila vijaya nagara, shaktI sporTsa chyA mAge, puNe-nagara roDa, vaDagAva sherI, 411014" }, "geometry": { "type": "Point", "coordinates": [ 73.9198572, 18.5609151 ] } },
{ "type": "Feature", "properties": { "ccd_name": "Making street light functional", "com_location": "keshav nagar , jambhale plot, 40/2, near shree suryamukhi datt mandir, dhanjay building, mundhwa 411036 , Pune, Maharashtra" }, "geometry": { "type": "Point", "coordinates": [ 73.8845526, 18.5285689 ] } },
{ "type": "Feature", "properties": { "ccd_name": "Making street light functional", "com_location": "Kohinoor Estate, Wakadewadi, Shivajinagar, Pune, Maharashtra 411003" }, "geometry": { "type": "Point", "coordinates": [ 73.8544034, 18.5476424 ] } },
{ "type": "Feature", "properties": { "ccd_name": "Repairing street light pole (damaged / fallen)", "com_location": "kharADakara pArka kharADI bhArata peTrola paMpA javaLIla, Pune, Maharashtra" }, "geometry": { "type": "Point", "coordinates": [ 73.9476257, 18.5539311 ] } },
{ "type": "Feature", "properties": { "ccd_name": "Making street light functional", "com_location": "Shrey appartment, lane no-09, prabhat road, jayram shiledhar path-411004, , Pune, Maharashtra" }, "geometry": { "type": "Point", "coordinates": [ 73.8361859, 18.5125475 ] } },
{ "type": "Feature", "properties": { "ccd_name": "Making street light functional", "com_location": "gallI kramAMka 3 shrI navayuga taruNa mitra maMDaLa shivapAvana gaNesha mArUtI madira gaMgA nagara phurasuMgI puNe 412308" }, "geometry": { "type": "Point", "coordinates": [ 73.9587593, 18.4904527 ] } },
{ "type": "Feature", "properties": { "ccd_name": "Making street light functional", "com_location": "khaDakavAsalA te kolhevADI , Pune, Maharashtra" }, "geometry": { "type": "Point", "coordinates": [ 73.8786239, 18.5246091 ] } },
{ "type": "Feature", "properties": { "ccd_name": "Other (ELECTRICAL)", "com_location": "nAMdoshI roDa te ApalaM ghara sosAyaTI,kirakaTavADI, puNe 411024" }, "geometry": { "type": "Point", "coordinates": [ 73.9531189, 18.5646495 ] } },
{ "type": "Feature", "properties": { "ccd_name": "Making street light functional", "com_location": "junA prabhAga kramAMka 26 mahaMmadavADI-kausarabAga yAmadhye hAMDevADIroDa chiMtAmaNInagara jaina TAUna shipa, Pune, Maharashtra" }, "geometry": { "type": "Point", "coordinates": [ 73.8197888, 18.5033095 ] } },
{ "type": "Feature", "properties": { "ccd_name": "Making street light functional", "com_location": "Sr o 27+1+2/2 Shukre nagar bake saied old relax hotel near anil engineering kharadi pune 411914" }, "geometry": { "type": "Point", "coordinates": [ 73.9476257, 18.5539311 ] } },
{ "type": "Feature", "properties": { "ccd_name": "Making street light functional", "com_location": "lane no 31 / 30 B Dhayari Silver coin Society  , Pune, Maharashtra" }, "geometry": { "type": "Point", "coordinates": [ 73.8985305, 18.5445897 ] } },
{ "type": "Feature", "properties": { "ccd_name": "Repairing of Lights / Halogen in Garden", "com_location": "taniSha samorachA baMda gArDana , Pune, Maharashtra" }, "geometry": { "type": "Point", "coordinates": [ 73.8786239, 18.5246091 ] } },
{ "type": "Feature", "properties": { "ccd_name": "Crematorium electrical work(H.O)", "com_location": "vaikuMTha smashAnabhUmI navI peTha., Pune, Maharashtra" }, "geometry": { "type": "Point", "coordinates": [ 73.8407008, 18.5076767 ] } },
{ "type": "Feature", "properties": { "ccd_name": "Making street light functional", "com_location": "lena naMbara 2 SR naM 234 earaporTa roDa saMjaya pArka\t, Pune, Maharashtra" }, "geometry": { "type": "Point", "coordinates": [ 73.9597077, 18.4780107 ] } },
{ "type": "Feature", "properties": { "ccd_name": "Other (ELECTRICAL)", "com_location": "vAkaDevADI relve khAlIla pula, Pune, Maharashtra" }, "geometry": { "type": "Point", "coordinates": [ 73.8521981, 18.5424091 ] } },
{ "type": "Feature", "properties": { "ccd_name": "Making street light functional", "com_location": "Hadpsar word under Holkar wadi shewalwadi road, Pune, Maharashtra" }, "geometry": { "type": "Point", "coordinates": [ 73.942543, 18.4487181 ] } },
{ "type": "Feature", "properties": { "ccd_name": "Making street light functional", "com_location": "On new canal road to Janata vasahat New Canal Rd, Pune, Maharashtra" }, "geometry": { "type": "Point", "coordinates": [ 73.8310296, 18.4815201 ] } },
{ "type": "Feature", "properties": { "ccd_name": "Making street light functional", "com_location": "nirgudi road , defence colony , near shivaji statue ,lohegaon, pune 411047" }, "geometry": { "type": "Point", "coordinates": [ 73.9275464, 18.6084152 ] } },
{ "type": "Feature", "properties": { "ccd_name": "Making street light functional", "com_location": "shivashaktI chauka bhekarAInagara phurasuMgI havelI puNe " }, "geometry": { "type": "Point", "coordinates": [ 73.9521468, 18.4819581 ] } },
{ "type": "Feature", "properties": { "ccd_name": "Making street light functional", "com_location": ", Pune, Maharashtra" }, "geometry": { "type": "Point", "coordinates": [ 73.8204648, 18.5480134 ] } },
{ "type": "Feature", "properties": { "ccd_name": "A new street light (new demand)", "com_location": "pune" }, "geometry": { "type": "Point", "coordinates": [ 73.880454512605311, 18.448415286477456 ] } },
{ "type": "Feature", "properties": { "ccd_name": "Making street light functional", "com_location": "je esa pI ema ka leja te kumAra pebala pArka 411028, Pune, Maharashtra" }, "geometry": { "type": "Point", "coordinates": [ 73.9418603, 18.496913 ] } },
{ "type": "Feature", "properties": { "ccd_name": "Making street light functional", "com_location": "sr.no. 152 shankar math samrat swastik building hadpsar , Pune, Maharashtra" }, "geometry": { "type": "Point", "coordinates": [ 73.9234775, 18.5050335 ] } },
{ "type": "Feature", "properties": { "ccd_name": "Making street light functional", "com_location": "289 ghorpadi peth yashwant apartment oposite to chandrabhaga building, pune 411042" }, "geometry": { "type": "Point", "coordinates": [ 73.8633047, 18.50275 ] } },
{ "type": "Feature", "properties": { "ccd_name": "Making street light functional", "com_location": "HillSide Society, Ramtekdi Industrial area, Hadapsar, Pune(M.S.)\r\n" }, "geometry": { "type": "Point", "coordinates": [ 73.9212858, 18.4922494 ] } },
{ "type": "Feature", "properties": { "ccd_name": "A new street light (new demand)", "com_location": "chajed petrol pump to railway station under ground bopodi , Pune, Maharashtra" }, "geometry": { "type": "Point", "coordinates": [ 73.8345948, 18.5708491 ] } },
{ "type": "Feature", "properties": { "ccd_name": "Making street light functional", "com_location": "sai balaji green society near kunjir public school, kunjir vasti manjri bk , Pune, Maharashtra" }, "geometry": { "type": "Point", "coordinates": [ 73.9845374, 18.5210672 ] } },
{ "type": "Feature", "properties": { "ccd_name": "Making street light functional", "com_location": " Pashan Sus Bridge & in adjacent lanes, Pune, Maharashtra" }, "geometry": { "type": "Point", "coordinates": [ 73.7722954, 18.5475402 ] } },
{ "type": "Feature", "properties": { "ccd_name": "Other (ELECTRICAL)", "com_location": "Euro school & atur nagar road undri pune" }, "geometry": { "type": "Point", "coordinates": [ 73.9142114, 18.4539042 ] } },
{ "type": "Feature", "properties": { "ccd_name": "Making street light functional", "com_location": "1053 nyU nAnA peTha hopa ha spiTala Ishvara paramAra imArata yuvaka saMgha buddha vihAra javala, Pune, Maharashtra" }, "geometry": { "type": "Point", "coordinates": [ 73.8653833, 18.5144313 ] } },
{ "type": "Feature", "properties": { "ccd_name": "Making street light functional", "com_location": "Shivshankar chowk Satara Road Katraj Vasahat Katraj Pune Maharashtra India" }, "geometry": { "type": "Point", "coordinates": [ 73.86026, 18.445002 ] } },
{ "type": "Feature", "properties": { "ccd_name": "Signal not working", "com_location": "KUMBHAR WADA CHOWK, Pune, Maharashtra" }, "geometry": { "type": "Point", "coordinates": [ 73.8587673, 18.5243716 ] } },
{ "type": "Feature", "properties": { "ccd_name": "Repairing and maintenance of Signal", "com_location": "kharADI jakAta nAkA yethIla chaukAtIla , Pune, Maharashtra" }, "geometry": { "type": "Point", "coordinates": [ 73.9509595, 18.5694327 ] } },
{ "type": "Feature", "properties": { "ccd_name": "Making street light functional", "com_location": "vAgholI yethe kesanaMda phATA te bakorI phATA, Pune, Maharashtra" }, "geometry": { "type": "Point", "coordinates": [ 73.986073, 18.581204 ] } },
{ "type": "Feature", "properties": { "ccd_name": "Removal of signal pole", "com_location": "Wagheshwar temple signal, wagholi, Pune, Maharashtra" }, "geometry": { "type": "Point", "coordinates": [ 73.9777212, 18.5817586 ] } },
{ "type": "Feature", "properties": { "ccd_name": "Making street light functional", "com_location": "sarvha naMbara 48/1, pla Ta naMbara 2, I 1101 rohana madhubana 2, bAvadhana , Pune, Maharashtra" }, "geometry": { "type": "Point", "coordinates": [ 73.8786239, 18.5246091 ] } },
{ "type": "Feature", "properties": { "ccd_name": "Making street light functional", "com_location": "sarvha naMbara 48/1, pla Ta naMbara 2, Da 505 rohana madhubana 2, bAvadhana, Pune, Maharashtra" }, "geometry": { "type": "Point", "coordinates": [ 73.8786239, 18.5246091 ] } },
{ "type": "Feature", "properties": { "ccd_name": "Making street light functional", "com_location": "Baner Street Mohan Nagar CoOp Society Baner Pune Maharashtra India" }, "geometry": { "type": "Point", "coordinates": [ 73.7687412, 18.551427 ] } },
{ "type": "Feature", "properties": { "ccd_name": "Removing street light pole (pole obstructing road)", "com_location": " prabhAga kramAMka 9 yeravaDA lakShmI nagara lena naMbara 13 sarve naMbara 12 , Pune, Maharashtra" }, "geometry": { "type": "Point", "coordinates": [ 73.892928, 18.554034 ] } },
{ "type": "Feature", "properties": { "ccd_name": "Other (ELECTRICAL)", "com_location": "Mujaba vasti Prajasttak colony road no 1 dhanori, Pune, Maharashtra" }, "geometry": { "type": "Point", "coordinates": [ 73.8897066, 18.582058 ] } },
{ "type": "Feature", "properties": { "ccd_name": "Other (ELECTRICAL)", "com_location": "Pushpak Park,\r\nI.T.I. Road, Aundh, Pune   7" }, "geometry": { "type": "Point", "coordinates": [ 73.8091208, 18.5550459 ] } },
{ "type": "Feature", "properties": { "ccd_name": "Other (ELECTRICAL)", "com_location": "trImurtI pa.Nlesa, sarve naM. 30/3, iMgaLe vastI, narhe., Pune, Maharashtra" }, "geometry": { "type": "Point", "coordinates": [ 73.8280415, 18.4491725 ] } },
{ "type": "Feature", "properties": { "ccd_name": "Making street light functional", "com_location": "Pratiti and Landmark Primrose pune\t" }, "geometry": { "type": "Point", "coordinates": [ 73.7650272, 18.5772022 ] } },
{ "type": "Feature", "properties": { "ccd_name": "Repairing street light pole (damaged / fallen)", "com_location": "Aundh Road. From Ambedkar Chowk to Khadki Railway Station, Pune, Maharashtra" }, "geometry": { "type": "Point", "coordinates": [ 73.8406198, 18.5631806 ] } },
{ "type": "Feature", "properties": { "ccd_name": "Other (ELECTRICAL)", "com_location": "Parvati darshan opp chal  no 71 nr ek mukhi Dutt mandir pune  411 009 " }, "geometry": { "type": "Point", "coordinates": [ 73.8463355, 18.4881604 ] } },
{ "type": "Feature", "properties": { "ccd_name": "Making street light functional", "com_location": "nAMdeDa gAvAtIla vaDajAI maMdira pAsUna pAMDe ALI varachI , Pune, Maharashtra" }, "geometry": { "type": "Point", "coordinates": [ 73.9260385, 18.59775 ] } },
{ "type": "Feature", "properties": { "ccd_name": "Making street light functional", "com_location": "pune" }, "geometry": { "type": "Point", "coordinates": [ 73.9279061, 18.5021593 ] } },
{ "type": "Feature", "properties": { "ccd_name": "Repairing street light pole (damaged / fallen)", "com_location": "A17, Tulsi Bagwale Colony Rd, Sahajeevan Society, Tulshibagwale Colony, Parvati Paytha, Pune, Maharashtra 411009, India" }, "geometry": { "type": "Point", "coordinates": [ 73.8485584, 18.4908365 ] } },
{ "type": "Feature", "properties": { "ccd_name": "Other (ELECTRICAL)", "com_location": "Saint Patricks town, Near 93 Avenue mall, Laxmi nagar, Hadapsar, Pune - 411013" }, "geometry": { "type": "Point", "coordinates": [ 73.911637, 18.5076855 ] } },
{ "type": "Feature", "properties": { "ccd_name": "A new street light (new demand)", "com_location": "Global Precioso Road Near Eon Free Zone Rd EON Free Zone Kharadi Pune Maharashtra  India" }, "geometry": { "type": "Point", "coordinates": [ 73.952925, 18.557412 ] } },
{ "type": "Feature", "properties": { "ccd_name": "Making street light functional", "com_location": "kAtraja mukhya chauka ANi kAtraja dUdha DearI ANi bhAratI vidyApITha, Pune, Maharashtra" }, "geometry": { "type": "Point", "coordinates": [ 73.843219600000012, 18.5117869 ] } },
{ "type": "Feature", "properties": { "ccd_name": "Other (ELECTRICAL)", "com_location": "yogI pArka bANera, Pune, Maharashtra" }, "geometry": { "type": "Point", "coordinates": [ 73.8786239, 18.5246091 ] } },
{ "type": "Feature", "properties": { "ccd_name": "Other (ELECTRICAL)", "com_location": "Samarth nagar,hingne khurd,sinhgad road,pune 411051." }, "geometry": { "type": "Point", "coordinates": [ 73.8272817, 18.4830339 ] } },
{ "type": "Feature", "properties": { "ccd_name": "Other (ELECTRICAL)", "com_location": "Adarsh Nagar Main road going towards Ganesh Park, Wagholi Road, Lohegaon, Pune, Maharashtra" }, "geometry": { "type": "Point", "coordinates": [ 73.941185, 18.593263 ] } },
{ "type": "Feature", "properties": { "ccd_name": "Making street light functional", "com_location": "prabhAga kramAMka 39 dhanakavaDI yethIla sahyAdrI nagara, Pune, Maharashtra" }, "geometry": { "type": "Point", "coordinates": [ 73.8494204, 18.4666778 ] } },
{ "type": "Feature", "properties": { "ccd_name": "Making street light functional", "com_location": "Anandvan Apartment, Near Counting Building, Opposite D Mart, Ambegaon,Pune 411046" }, "geometry": { "type": "Point", "coordinates": [ 73.84237, 18.4539821 ] } },
{ "type": "Feature", "properties": { "ccd_name": "Other (ELECTRICAL)", "com_location": "Apate road 1206 /16AShivsjinager, Vindyangad Appt.Pune.Ask J.E.to check Apate road area." }, "geometry": { "type": "Point", "coordinates": [ 73.8438512, 18.5212476 ] } },
{ "type": "Feature", "properties": { "ccd_name": "Making street light functional", "com_location": "vrundavan nagar lane no 1, katraj kondhwa road kondhwa pune 48 " }, "geometry": { "type": "Point", "coordinates": [ 73.878482, 18.447282 ] } },
{ "type": "Feature", "properties": { "ccd_name": "Making street light functional", "com_location": "Irani Cafe, Kharadi to Fountain road, Kharadi , Pune, Maharashtra" }, "geometry": { "type": "Point", "coordinates": [ 73.9497782, 18.5536297 ] } },
{ "type": "Feature", "properties": { "ccd_name": "Electrical(H.O)", "com_location": "Manapa Nava Pul (Mangala Takies), Shivajinagar, Pune, Maharashtra 411005, India" }, "geometry": { "type": "Point", "coordinates": [ 73.85413, 18.523628 ] } },
{ "type": "Feature", "properties": { "ccd_name": "Making street light functional", "com_location": " gujaravADI phATA te mAMgaDevADI \r\nkAtraja ghATAtIla , Pune, Maharashtra" }, "geometry": { "type": "Point", "coordinates": [ 73.860595, 18.438355 ] } },
{ "type": "Feature", "properties": { "ccd_name": "Other (ELECTRICAL)", "com_location": "gokhale nagara amarajyota mitra maMDaLa chaukA javaLa, Pune, Maharashtra" }, "geometry": { "type": "Point", "coordinates": [ 73.82708550000001, 18.5291524 ] } },
{ "type": "Feature", "properties": { "ccd_name": "Making street light functional", "com_location": "at  gurudwara colony Lohegaon\r\n Lane No B8-A, Pune, Maharashtra" }, "geometry": { "type": "Point", "coordinates": [ 73.9275318, 18.5932724 ] } },
{ "type": "Feature", "properties": { "ccd_name": "Making street light functional", "com_location": "phurasuMgI DamALavADI bhekarAImAtA shALechyA roDalA  bhosale vhileja madhIla aMtargata roDalA va harapaLe vastI yA bhAgAMmadhye,pune" }, "geometry": { "type": "Point", "coordinates": [ 73.8786239, 18.5246091 ] } },
{ "type": "Feature", "properties": { "ccd_name": "Making street light functional", "com_location": "from dasahra chowk, to pearl society to kunal aspiree,Balewadi area,pune." }, "geometry": { "type": "Point", "coordinates": [ 73.7762839, 18.579502 ] } },
{ "type": "Feature", "properties": { "ccd_name": "Making street light functional", "com_location": "Aadishakti no.2,bharati vidyapeeth back side,near bhawani mata temple,dhankwadi,pune 411043." }, "geometry": { "type": "Point", "coordinates": [ 73.8531967, 18.4570371 ] } },
{ "type": "Feature", "properties": { "ccd_name": "Making street light functional", "com_location": "Colony no. 8, Servey No.35, opposite to Marutrao Kale Manapa School, Near Mayuresh Clinic, Kalepadal, Hadapsar, Pune - 411028" }, "geometry": { "type": "Point", "coordinates": [ 73.941631500000014, 18.4808873 ] } },
{ "type": "Feature", "properties": { "ccd_name": "Making street light functional", "com_location": "rajmata jijau chouk, puneri mitaiwale lane, near by Balewadi mahaluge stedium" }, "geometry": { "type": "Point", "coordinates": [ 73.766019, 18.567682 ] } },
{ "type": "Feature", "properties": { "ccd_name": "Making street light functional", "com_location": "Bhandarkar Road Deccan Gymkhana Pune Maharashtra India" }, "geometry": { "type": "Point", "coordinates": [ 73.8361072, 18.5181304 ] } },
{ "type": "Feature", "properties": { "ccd_name": "Other (ELECTRICAL)", "com_location": "manjari bk near grampanchayat office Near Bank of Maharashtra, Pune, Maharashtra" }, "geometry": { "type": "Point", "coordinates": [ 73.9712483, 18.5029897 ] } },
{ "type": "Feature", "properties": { "ccd_name": "Repairing street light pole (damaged / fallen)", "com_location": "pune" }, "geometry": { "type": "Point", "coordinates": [ 73.962509155273438, 18.465177536010746 ] } },
{ "type": "Feature", "properties": { "ccd_name": "Making street light functional", "com_location": "shivshakti chowk to sai chowk, Pune, Maharashtra" }, "geometry": { "type": "Point", "coordinates": [ 73.825282, 18.6309313 ] } },
{ "type": "Feature", "properties": { "ccd_name": "Making street light functional", "com_location": "Anurag s.no. 34/2 Narhe dhayari road near Zeal college opposite suvarnayug sahakari bank lane , Pune, Maharashtra" }, "geometry": { "type": "Point", "coordinates": [ 73.821676, 18.4461201 ] } },
{ "type": "Feature", "properties": { "ccd_name": "Other (Traffic-signal Electrical)", "com_location": "Karve Putla chowk, Kothrud, Pune, Maharashtra" }, "geometry": { "type": "Point", "coordinates": [ 73.813736, 18.497744 ] } },
{ "type": "Feature", "properties": { "ccd_name": "A new street light (new demand)", "com_location": "muMjobA vastI roDa naMbara 13 dhAnorI, Pune, Maharashtra" }, "geometry": { "type": "Point", "coordinates": [ 73.8979415, 18.589827 ] } },
{ "type": "Feature", "properties": { "ccd_name": "Making street light functional", "com_location": " Gopal Gayan Samaj Road, infront of House no 1628( Dr Limaye )& 1626 Sadashiv peth ( Ramakrishna Socy)Pune" }, "geometry": { "type": "Point", "coordinates": [ 73.847996, 18.5085026 ] } },
{ "type": "Feature", "properties": { "ccd_name": "No electricity in public toilet(s)", "com_location": "39 aundh road,chandramani vasti,khadki,pune 411020." }, "geometry": { "type": "Point", "coordinates": [ 73.8308329, 18.5628196 ] } },
{ "type": "Feature", "properties": { "ccd_name": "Making street light functional", "com_location": "Sant Eknath Nagar Balaji Society Bhag 2 Bibwewadi pune 411037" }, "geometry": { "type": "Point", "coordinates": [ 73.8623988, 18.472953 ] } },
{ "type": "Feature", "properties": { "ccd_name": "Making street light functional", "com_location": "Prayagdham Lane, near Lonkar Garden off Salunke Vihar road opposite Bliss Bakery, Kondhwa khurd Pune 411048" }, "geometry": { "type": "Point", "coordinates": [ 73.9023773, 18.4793753 ] } },
{ "type": "Feature", "properties": { "ccd_name": "Making street light functional", "com_location": "Flat no. 204, ujwalshree society, lane no. B18, shiv medical lane , Pune, Maharashtra" }, "geometry": { "type": "Point", "coordinates": [ 73.812995, 18.4548999 ] } },
{ "type": "Feature", "properties": { "ccd_name": "Making street light functional", "com_location": "Sr no 27 Bhairavnath Nagar behind JSPM College uruli devachi pune 412308" }, "geometry": { "type": "Point", "coordinates": [ 73.933445, 18.473094 ] } },
{ "type": "Feature", "properties": { "ccd_name": "Making street light functional", "com_location": "svAnaMda apArTameMTa javaLa svIkAra ha Tela lena jaina maMdira lena eraMDavaNe puNe 4" }, "geometry": { "type": "Point", "coordinates": [ 73.8314091, 18.5086429 ] } },
{ "type": "Feature", "properties": { "ccd_name": "Making street light functional", "com_location": "chiMtAmaNarAva deshamukha mArga , surANA chauka bibavevADI DI mArTa samora , Pune, Maharashtra" }, "geometry": { "type": "Point", "coordinates": [ 73.933685, 18.5352676 ] } },
{ "type": "Feature", "properties": { "ccd_name": "Making street light functional", "com_location": "lena naMbara 30 31 bI, gaNesha nagara, dhAyarI ,kulakarNI prI skUla javaLa, Pune, Maharashtra" }, "geometry": { "type": "Point", "coordinates": [ 73.814685, 18.4516745 ] } },
{ "type": "Feature", "properties": { "ccd_name": "Making street light functional", "com_location": "Lane-4, near Onella Nest Society, Sus-Nande Road, Sus. (Iris medical lane) , Pune, Maharashtra" }, "geometry": { "type": "Point", "coordinates": [ 73.7073559, 18.5552358 ] } },
{ "type": "Feature", "properties": { "ccd_name": "Other (ELECTRICAL)", "com_location": "Sr. No. 10/11 Sukh Sagar Nagar Bankar School Near Katraj Pune 411046\t" }, "geometry": { "type": "Point", "coordinates": [ 73.86515, 18.459931 ] } },
{ "type": "Feature", "properties": { "ccd_name": "Other (ELECTRICAL)", "com_location": "Name : JANHAVI GAIKWAD\r\nAddress: 2/C , krushna bungalow, Bahiratwadi, behind pavillon mall, S.B road , pune 411001 \r\n" }, "geometry": { "type": "Point", "coordinates": [ 73.8299152, 18.5304378 ] } },
{ "type": "Feature", "properties": { "ccd_name": "Making street light functional", "com_location": "63/2b/2e/2, Handewadi Rd, Indira Nagar, Handewadi, Pune, Autadwadi Handewadi, Maharashtra 411028, India" }, "geometry": { "type": "Point", "coordinates": [ 73.9346912, 18.4662394 ] } },
{ "type": "Feature", "properties": { "ccd_name": "Other (ELECTRICAL)", "com_location": "mAUlI bilDiMga shejArI, koMDhave dhAvaDe, tA. havelI ji. puNe " }, "geometry": { "type": "Point", "coordinates": [ 73.8505741, 18.6303827 ] } },
{ "type": "Feature", "properties": { "ccd_name": "Repairing street light pole (damaged / fallen)", "com_location": "pune" }, "geometry": { "type": "Point", "coordinates": [ 73.7739278, 18.5541751 ] } },
{ "type": "Feature", "properties": { "ccd_name": "Making street light functional", "com_location": "48/1/A, rohana madhubana 2, PVPIT road, bAvadhana khurda puNe 411021, " }, "geometry": { "type": "Point", "coordinates": [ 73.7742569, 18.4995486 ] } },
{ "type": "Feature", "properties": { "ccd_name": "Making street light functional", "com_location": "nAMdeDa siTI maina geTa jAdhavarAva iMDasTrI sarvha na 24/4 siMhagaDa roDa\r\n , Pune, Maharashtra" }, "geometry": { "type": "Point", "coordinates": [ 73.836427, 18.571142 ] } },
{ "type": "Feature", "properties": { "ccd_name": "Other (ELECTRICAL)", "com_location": "pAShANa enaDIe roDa varatI, , Pune, Maharashtra" }, "geometry": { "type": "Point", "coordinates": [ 73.843219600000012, 18.5117869 ] } },
{ "type": "Feature", "properties": { "ccd_name": "Making street light functional", "com_location": "In front of Whispering Winds on Baner-Pashan Link road, Pune, Maharashtra" }, "geometry": { "type": "Point", "coordinates": [ 73.7912895, 18.5491346 ] } },
{ "type": "Feature", "properties": { "ccd_name": "Repairing and maintenance of Signal", "com_location": "Bavdhan, near Axis bank, Pune, Maharashtra" }, "geometry": { "type": "Point", "coordinates": [ 73.7698579, 18.513463 ] } },
{ "type": "Feature", "properties": { "ccd_name": "Making street light functional", "com_location": "maruti nagar Lane no 3, Vadgaon sheri, Pune, Maharashtra" }, "geometry": { "type": "Point", "coordinates": [ 73.93065, 18.545559 ] } },
{ "type": "Feature", "properties": { "ccd_name": "Making street light functional", "com_location": "spot nyati empire bypass road kharadi near manipal hospital Pune 14." }, "geometry": { "type": "Point", "coordinates": [ 73.9266384, 18.5053824 ] } },
{ "type": "Feature", "properties": { "ccd_name": "Other (ELECTRICAL)", "com_location": " benakara vastI dhAyarI puNe" }, "geometry": { "type": "Point", "coordinates": [ 73.8139689, 18.4440444 ] } },
{ "type": "Feature", "properties": { "ccd_name": "Making street light functional", "com_location": "Kondhave-Dhawade near Jilani Masjid, Pune, Maharashtra" }, "geometry": { "type": "Point", "coordinates": [ 73.7698492, 18.4574675 ] } },
{ "type": "Feature", "properties": { "ccd_name": "Making street light functional", "com_location": "on Banner Pashan link road near Blossom n Springs society , Pune, Maharashtra" }, "geometry": { "type": "Point", "coordinates": [ 73.7912895, 18.5491346 ] } },
{ "type": "Feature", "properties": { "ccd_name": "Other (ELECTRICAL)", "com_location": "koMDhavA budruka, gokuLa nagara nAkoDA vharAyaTI sha pa shejArI, Pune, Maharashtra" }, "geometry": { "type": "Point", "coordinates": [ 73.8246309, 18.4659813 ] } },
{ "type": "Feature", "properties": { "ccd_name": "Making street light functional", "com_location": "Police Colony, Swargate, Pune, Maharashtra 411042" }, "geometry": { "type": "Point", "coordinates": [ 73.8602841, 18.5020707 ] } },
{ "type": "Feature", "properties": { "ccd_name": "Making street light functional", "com_location": "Favolosa Internal Road Balewadi Pune Maharashtra India" }, "geometry": { "type": "Point", "coordinates": [ 73.7653312, 18.5783305 ] } },
{ "type": "Feature", "properties": { "ccd_name": "Making street light functional", "com_location": "plot no 11, survuy no  44 Navsahyadri Society, Karvenagar,  Pune 411052" }, "geometry": { "type": "Point", "coordinates": [ 73.830573, 18.4963726 ] } },
{ "type": "Feature", "properties": { "ccd_name": "Other (ELECTRICAL)", "com_location": "S no 94/Rajva Gandhi colony Binawat nagar Near Mohammad wadi police station tarawade wasti Hadapsar Pune Maharashtra 411060 " }, "geometry": { "type": "Point", "coordinates": [ 73.9284745, 18.4785134 ] } },
{ "type": "Feature", "properties": { "ccd_name": "Making street light functional", "com_location": "Narhe road Gokulnagar near shiv parvati managal karyalay \r\n, Pune, Maharashtra" }, "geometry": { "type": "Point", "coordinates": [ 73.8153333, 18.458721 ] } },
{ "type": "Feature", "properties": { "ccd_name": "Other (ELECTRICAL)", "com_location": "Mukai mandir main road Khadakwasla, Maharashtra, Pune, Maharashtra" }, "geometry": { "type": "Point", "coordinates": [ 73.7822918, 18.4437885 ] } },
{ "type": "Feature", "properties": { "ccd_name": "Making street light functional", "com_location": "Plot no 24 , balkrishna society , dhankawadi , Near BSNL telephone exchange ,pune 411043" }, "geometry": { "type": "Point", "coordinates": [ 73.8537435, 18.4605163 ] } },
{ "type": "Feature", "properties": { "ccd_name": "Making street light functional", "com_location": "KONDHWA BK LAXMI NAGAR LANE NO 10 SR NO 3 , Pune, Maharashtra" }, "geometry": { "type": "Point", "coordinates": [ 73.8759569, 18.4572003 ] } },
{ "type": "Feature", "properties": { "ccd_name": "Making street light functional", "com_location": "FR2X+C2P, Ambegaon Budruk, Pune, Maharashtra 411046, India" }, "geometry": { "type": "Point", "coordinates": [ 73.847744325724832, 18.45135075385592 ] } },
{ "type": "Feature", "properties": { "ccd_name": "Making street light functional", "com_location": "Ravikiran Hall, near Chitamani Nagar, Prestige Properties Co-operative Society, Upper Indira Nagar, Bibwewadi, Pune, Maharashtra 411037, India" }, "geometry": { "type": "Point", "coordinates": [ 73.864428, 18.464778 ] } },
{ "type": "Feature", "properties": { "ccd_name": "Making street light functional", "com_location": "Manaji Baug, Elphinstone road, Bopodi, Pune, Maharashtra" }, "geometry": { "type": "Point", "coordinates": [ 73.8417708, 18.5696756 ] } },
{ "type": "Feature", "properties": { "ccd_name": "Making street light functional", "com_location": "rAmanagara,niLaM vAdaLa chauka te khAna vastI rAmanagara,vAraje, puNe-58." }, "geometry": { "type": "Point", "coordinates": [ 73.8029399, 18.4725938 ] } },
{ "type": "Feature", "properties": { "ccd_name": "Shut down street light", "com_location": "Sai colony, Mahamadwadi road , Pune, Maharashtra" }, "geometry": { "type": "Point", "coordinates": [ 73.9290511, 18.4817355 ] } },
{ "type": "Feature", "properties": { "ccd_name": "Other (ELECTRICAL)", "com_location": "Opp. Trends Furniture Undri-Pisoli road, Pisoli, Pune - 411048" }, "geometry": { "type": "Point", "coordinates": [ 73.9017764, 18.4499141 ] } },
{ "type": "Feature", "properties": { "ccd_name": "Making street light functional", "com_location": "Mahadev Nagar, Vadgaon Budruk, Pune, Maharashtra 411009" }, "geometry": { "type": "Point", "coordinates": [ 73.831088400000013, 18.4746317 ] } },
{ "type": "Feature", "properties": { "ccd_name": "Signal not working", "com_location": "dhAyarI phATA (below bridge), Pune, Maharashtra" }, "geometry": { "type": "Point", "coordinates": [ 73.8112043, 18.4513726 ] } },
{ "type": "Feature", "properties": { "ccd_name": "Making street light functional", "com_location": "bhosale nagar sr.no. 159 kapare wasti hadpsar magarpatta , Pune, Maharashtra" }, "geometry": { "type": "Point", "coordinates": [ 73.9303516, 18.5080788 ] } },
{ "type": "Feature", "properties": { "ccd_name": "Making street light functional", "com_location": "Sr no 23/1/2 AnaMda vihAra ka lanI hiMgaNe khurda \r\njoshI baMgalo lena Sr no 23/1 basa sTa pa samorIla lena pina koDa 411051, Pune, Maharashtra" }, "geometry": { "type": "Point", "coordinates": [ 73.8786239, 18.5246091 ] } },
{ "type": "Feature", "properties": { "ccd_name": "Making street light functional", "com_location": "MITCON chauka te aShvinAyaka chauka ujavIkaDIla bAjU Balewadi Pune 45.\r\n" }, "geometry": { "type": "Point", "coordinates": [ 73.765769, 18.575092 ] } },
{ "type": "Feature", "properties": { "ccd_name": "Making street light functional", "com_location": "sadgurU sosAyaTI tukAI darshana lena naM =1/2/3phurasuMgI ibm kaMpanI samora, Pune, Maharashtra" }, "geometry": { "type": "Point", "coordinates": [ 73.9531189, 18.5646495 ] } },
{ "type": "Feature", "properties": { "ccd_name": "New signal required", "com_location": "Jagtap chowk and jambhulkar chowk , Pune, Maharashtra" }, "geometry": { "type": "Point", "coordinates": [ 73.8995837, 18.4945297 ] } },
{ "type": "Feature", "properties": { "ccd_name": "A new street light (new demand)", "com_location": "TiMgare nagara gallI kramAMka 2 lekjhIkana shALA javaLa, Pune, Maharashtra" }, "geometry": { "type": "Point", "coordinates": [ 73.8786239, 18.5246091 ] } },
{ "type": "Feature", "properties": { "ccd_name": "Making street light functional", "com_location": "karve nagar shahu colony lane no. 6 opp cummins collage road , Pune, Maharashtra" }, "geometry": { "type": "Point", "coordinates": [ 73.8180969, 18.4855868 ] } },
{ "type": "Feature", "properties": { "ccd_name": "Making street light functional", "com_location": "MLA Mr.\r\n@SidShirole  411004 Ghole road ward office, Pune, Maharashtra" }, "geometry": { "type": "Point", "coordinates": [ 73.8442196, 18.523956 ] } },
{ "type": "Feature", "properties": { "ccd_name": "A new street light (new demand)", "com_location": "Phursungi Chandwadi, Pune, Maharashtra" }, "geometry": { "type": "Point", "coordinates": [ 73.9828345, 18.4760962 ] } },
{ "type": "Feature", "properties": { "ccd_name": "Removal of signal pole", "com_location": "Gulawani Maharaj Road, (Near Patwardhan Baugh) Pune  411004" }, "geometry": { "type": "Point", "coordinates": [ 73.8298957, 18.5033137 ] } },
{ "type": "Feature", "properties": { "ccd_name": "Making street light functional", "com_location": " lakaki road between chitranjan vatik&shrishti tara apts 485/D/1lakaki road , Pune, Maharashtra" }, "geometry": { "type": "Point", "coordinates": [ 73.8394482, 18.5318676 ] } },
{ "type": "Feature", "properties": { "ccd_name": "Making street light functional", "com_location": "vAnavaDI gAvaM apaMga shALechyA mAge, Pune, Maharashtra" }, "geometry": { "type": "Point", "coordinates": [ 73.9000204, 18.4922285 ] } },
{ "type": "Feature", "properties": { "ccd_name": "Making street light functional", "com_location": "Road 11F tingare nagar pune 411032" }, "geometry": { "type": "Point", "coordinates": [ 73.8930827, 18.575865 ] } },
{ "type": "Feature", "properties": { "ccd_name": "Making street light functional", "com_location": "prabhAga kra. 7 janatA vasAhata, Pune, Maharashtra" }, "geometry": { "type": "Point", "coordinates": [ 73.8397009, 18.4901977 ] } },
{ "type": "Feature", "properties": { "ccd_name": "Making street light functional", "com_location": "Hubtown Countrywoods, Tilekar Nagar, Katraj kondhwa road, pune 48" }, "geometry": { "type": "Point", "coordinates": [ 73.8740453, 18.4499202 ] } },
{ "type": "Feature", "properties": { "ccd_name": "Making street light functional", "com_location": "Hundekari Vasti Chavan Tanaji Navale yanchya gharajaval Hundekari vasti, Behind Ashtavinyak city, Phursungi, Pune, Maharashtra" }, "geometry": { "type": "Point", "coordinates": [ 73.9620654, 18.4752531 ] } },
{ "type": "Feature", "properties": { "ccd_name": "Making street light functional", "com_location": "saMtoSha nagara saMtoShI mAtA maMdira mAge gaganagirI shALesamora kAtraja puNe 411046" }, "geometry": { "type": "Point", "coordinates": [ 73.8536712, 18.4350493 ] } },
{ "type": "Feature", "properties": { "ccd_name": "Shut down street light", "com_location": "Shau Colony Lane No 2 Karvenagar Near Commins College, Pune, Maharashtra" }, "geometry": { "type": "Point", "coordinates": [ 73.816247500000017, 18.486095 ] } },
{ "type": "Feature", "properties": { "ccd_name": "Making street light functional", "com_location": "limaye nagara gaNesha maMdira  dhAyarI puNe" }, "geometry": { "type": "Point", "coordinates": [ 73.8111983, 18.4505623 ] } },
{ "type": "Feature", "properties": { "ccd_name": "Making street light functional", "com_location": "215/1/B/24, Ganganagar Rd, Raigad Coloney, Ganga Nagar, Hadapsar, Pune, Maharashtra 412307" }, "geometry": { "type": "Point", "coordinates": [ 73.956167400000012, 18.4895384 ] } },
{ "type": "Feature", "properties": { "ccd_name": "Making street light functional", "com_location": "hAMDe vADI.roDa sadAshiva nagara jaina TAunashipa roDa  bhArata kAlanI ravIpArka roDa gaMgA vhileja roDa, Pune, Maharashtra" }, "geometry": { "type": "Point", "coordinates": [ 73.8786239, 18.5246091 ] } },
{ "type": "Feature", "properties": { "ccd_name": "Making street light functional", "com_location": "Ganesh park lane no 1 to 7 Near Aadarsh Nagar Lohegoan, Pune, Maharashtra" }, "geometry": { "type": "Point", "coordinates": [ 73.9395857, 18.599088 ] } },
{ "type": "Feature", "properties": { "ccd_name": "Making street light functional", "com_location": "Sr. No. 164, Gurudwara colony, Road No. B8B, Near Anmual Nursary School, Lohegaon, Pune " }, "geometry": { "type": "Point", "coordinates": [ 73.9287948, 18.5920541 ] } },
{ "type": "Feature", "properties": { "ccd_name": "Other (ELECTRICAL)", "com_location": "Nal stop Karve road near Yasdi Showroom, Pune, Maharashtra" }, "geometry": { "type": "Point", "coordinates": [ 73.827893, 18.5069599 ] } },
{ "type": "Feature", "properties": { "ccd_name": "Making street light functional", "com_location": "nAMdeDa phATA 25/9 rauMdALe bilDiMga  te rAhula jAdhava bilDiMga , Pune, Maharashtra" }, "geometry": { "type": "Point", "coordinates": [ 73.828662, 18.481182 ] } },
{ "type": "Feature", "properties": { "ccd_name": "Making street light functional", "com_location": "Survey no-17, wanowrie, kadambari apartments,, Pune, Maharashtra" }, "geometry": { "type": "Point", "coordinates": [ 73.894192, 18.4995533 ] } },
{ "type": "Feature", "properties": { "ccd_name": "A new street light (new demand)", "com_location": "hadpasar malwadi, servey no-165, near by panshe building. , Pune, Maharashtra" }, "geometry": { "type": "Point", "coordinates": [ 73.9389213, 18.5053012 ] } },
{ "type": "Feature", "properties": { "ccd_name": "Making street light functional", "com_location": "Sr.45/2A Sadashiv Nagar, Behind Etasha society, Handewadi road Near Ganga village,PUNE." }, "geometry": { "type": "Point", "coordinates": [ 73.9333494, 18.4844648 ] } },
{ "type": "Feature", "properties": { "ccd_name": "Making street light functional", "com_location": "colony no 3 sambhaji nagar baif road , Pune, Maharashtra" }, "geometry": { "type": "Point", "coordinates": [ 73.9786052, 18.5758432 ] } },
{ "type": "Feature", "properties": { "ccd_name": "Making street light functional", "com_location": "Nikhil A - B and goyal shinde park gate, pragati nagar, bhau patil road, bopodi., Pune, Maharashtra" }, "geometry": { "type": "Point", "coordinates": [ 73.8287992, 18.5656713 ] } },
{ "type": "Feature", "properties": { "ccd_name": "Making street light functional", "com_location": "Eon Phase - 1 & WTC Road, Pune, Maharashtra" }, "geometry": { "type": "Point", "coordinates": [ 73.9543361, 18.5486854 ] } },
{ "type": "Feature", "properties": { "ccd_name": "Making street light functional", "com_location": "9/10 23 datta maMdira javaLa durgesha sosAyaTI siTI prAIDa kotharUDa\t, Pune, Maharashtra" }, "geometry": { "type": "Point", "coordinates": [ 73.8076543, 18.5073514 ] } },
{ "type": "Feature", "properties": { "ccd_name": "Making street light functional", "com_location": "kAtraja gujaravastI junA bhaivanAtha maMdira rAdhA kRRiShNA bilDiMga samora, Pune, Maharashtra" }, "geometry": { "type": "Point", "coordinates": [ 73.8989381, 18.4957817 ] } },
{ "type": "Feature", "properties": { "ccd_name": "Repairing of Lights / Halogen in Garden", "com_location": "GQ6R+9JG, Paud Road, Bhusari Colony, Kothrud, Pune, Maharashtra 411038, India" }, "geometry": { "type": "Point", "coordinates": [ 73.7913046, 18.5107782 ] } },
{ "type": "Feature", "properties": { "ccd_name": "Making street light functional", "com_location": "sarve naM 15 /21 A vighnahartA AMgaNa, shivasRRiShTI javaLa,AMbegAva budruka, puNe - 411046.\t" }, "geometry": { "type": "Point", "coordinates": [ 73.859549, 18.4321722 ] } },
{ "type": "Feature", "properties": { "ccd_name": "Making street light functional", "com_location": "Hanuman nagar ,galli no 4 , near 4 gali no 4 , paud road , pune 411038" }, "geometry": { "type": "Point", "coordinates": [ 73.7972578, 18.5075556 ] } },
{ "type": "Feature", "properties": { "ccd_name": "Making street light functional", "com_location": "Location - Natraj Colony, Gondhale Nagar, Hadapsar, Pune, Maharashtra" }, "geometry": { "type": "Point", "coordinates": [ 73.9478961, 18.4937072 ] } },
{ "type": "Feature", "properties": { "ccd_name": "Making street light functional", "com_location": "vaDagAva sherI gAvaThANa loNakara mAdhyamika vidyAlaya lena naMbara puNe 14" }, "geometry": { "type": "Point", "coordinates": [ 73.9119182, 18.5595501 ] } },
{ "type": "Feature", "properties": { "ccd_name": "No electricity in public toilet(s)", "com_location": "Sr. No. 120, Plot No.1, Annabhau Sathe Vasahat, Back side of CNG Petrol pump, Near Navshya maruti mandir, Sinhagad road, Pune - 411030" }, "geometry": { "type": "Point", "coordinates": [ 73.8354612, 18.493655 ] } },
{ "type": "Feature", "properties": { "ccd_name": "Making street light functional", "com_location": "bakula ha la bibavevADI 624/1ba , Pune, Maharashtra" }, "geometry": { "type": "Point", "coordinates": [ 73.87114, 18.4708125 ] } },
{ "type": "Feature", "properties": { "ccd_name": "Making street light functional", "com_location": "Grace Residency society near periwinkle school behind joshi wadewale susgaon pune 411021\t" }, "geometry": { "type": "Point", "coordinates": [ 73.7722599, 18.5160518 ] } },
{ "type": "Feature", "properties": { "ccd_name": "Making street light functional", "com_location": " Rasta Peth Pune Maharashtra India" }, "geometry": { "type": "Point", "coordinates": [ 73.8627682, 18.5190807 ] } },
{ "type": "Feature", "properties": { "ccd_name": "Making street light functional", "com_location": "FRJW+4VQ, Taljai Mandir Rd, Taljai Forest Area, Pune, Maharashtra 411009, India" }, "geometry": { "type": "Point", "coordinates": [ 73.846483, 18.4802535 ] } },
{ "type": "Feature", "properties": { "ccd_name": "Making street light functional", "com_location": "hAMDevADI chauka te maMtaravADI chauka rastyAvarIla , Pune, Maharashtra" }, "geometry": { "type": "Point", "coordinates": [ 73.8786239, 18.5246091 ] } },
{ "type": "Feature", "properties": { "ccd_name": "Other (ELECTRICAL)", "com_location": " on RCC road in front of gokhale institute , bmcc road Pune 4" }, "geometry": { "type": "Point", "coordinates": [ 73.8372821, 18.5204112 ] } },
{ "type": "Feature", "properties": { "ccd_name": "Making street light functional", "com_location": "Shastri nagar,near MIT college,MIT colony,near hamraj mitra mandal,kothrud,pune." }, "geometry": { "type": "Point", "coordinates": [ 73.8029399, 18.5042667 ] } },
{ "type": "Feature", "properties": { "ccd_name": "Making street light functional", "com_location": "from Kapil Malhar  Chowk to ITI chowk on main baner road, Pune, Maharashtra" }, "geometry": { "type": "Point", "coordinates": [ 73.7915403, 18.5597926 ] } },
{ "type": "Feature", "properties": { "ccd_name": "Making street light functional", "com_location": "D N Parande Park road lane 2\nNear Nyati Evita , Pune, Maharashtra" }, "geometry": { "type": "Point", "coordinates": [ 73.9025829, 18.6137045 ] } },
{ "type": "Feature", "properties": { "ccd_name": "Repairing street light pole (damaged / fallen)", "com_location": "location: Shastri road,near Shambhaji school,Navi peth, near bus stop, Pune, Maharashtra" }, "geometry": { "type": "Point", "coordinates": [ 73.844237, 18.5074848 ] } },
{ "type": "Feature", "properties": { "ccd_name": "Making street light functional", "com_location": "mAMjarI gAvaThANa mArutI maMdirAchyA mAge mAMjarI budruka puNe 412307.\t" }, "geometry": { "type": "Point", "coordinates": [ 73.9596941, 18.5226974 ] } },
{ "type": "Feature", "properties": { "ccd_name": "Making street light functional", "com_location": "111, Sinchan Nagar, Ashok Nagar, Pune, Maharashtra 411020, India" }, "geometry": { "type": "Point", "coordinates": [ 73.83863, 18.5440383 ] } },
{ "type": "Feature", "properties": { "ccd_name": "Making street light functional", "com_location": "Sr no 37 Shinde wasti NCG Chowk Keshav nagar mundhwa pune 411036" }, "geometry": { "type": "Point", "coordinates": [ 73.9409966, 18.5308752 ] } },
{ "type": "Feature", "properties": { "ccd_name": "Other (ELECTRICAL)", "com_location": "JahangirHospital signal pune" }, "geometry": { "type": "Point", "coordinates": [ 73.8768111, 18.5303207 ] } },
{ "type": "Feature", "properties": { "ccd_name": "Making street light functional", "com_location": "keshar heights near shewale hospital Aundh , Pune, Maharashtra" }, "geometry": { "type": "Point", "coordinates": [ 73.8124296, 18.5648142 ] } },
{ "type": "Feature", "properties": { "ccd_name": "Other (ELECTRICAL)", "com_location": " Location Symbiosis, VIman Nagar 411014., Pune, Maharashtra" }, "geometry": { "type": "Point", "coordinates": [ 73.9125648, 18.5651611 ] } },
{ "type": "Feature", "properties": { "ccd_name": "Making street light functional", "com_location": "plot no. A 17 opp Rahul nagar Vineet society LIC colony kothrud pune 411038" }, "geometry": { "type": "Point", "coordinates": [ 73.8161234, 18.5000951 ] } },
{ "type": "Feature", "properties": { "ccd_name": "Making street light functional", "com_location": "403/22, Shivaji Co operative Housing Society, Janwadi, Gokhalenagar, Pune, Maharashtra 411016, India" }, "geometry": { "type": "Point", "coordinates": [ 73.827741881084066, 18.531840046926121 ] } },
{ "type": "Feature", "properties": { "ccd_name": "Making street light functional", "com_location": "sr no 48/4,ganesh nagar,lane no 11,wadgaon sheri,pune 411014." }, "geometry": { "type": "Point", "coordinates": [ 73.927988, 18.5543007 ] } },
{ "type": "Feature", "properties": { "ccd_name": "Other (ELECTRICAL)", "com_location": "Ambedkar chowk khadakwasla, Pune, Maharashtra" }, "geometry": { "type": "Point", "coordinates": [ 73.7801447, 18.4454128 ] } },
{ "type": "Feature", "properties": { "ccd_name": "Making street light functional", "com_location": "siMhagaDa roDa koraDe bAga sarve naMbara 10  bhAUsAheba ka mpleksa javaLa ka.cnala sAIDa nAMdeDa puNe 411068" }, "geometry": { "type": "Point", "coordinates": [ 73.8786239, 18.5246091 ] } },
{ "type": "Feature", "properties": { "ccd_name": "Making street light functional", "com_location": "tuShAra pArka, dhAnorI, Pune, Maharashtra" }, "geometry": { "type": "Point", "coordinates": [ 73.896851, 18.5967587 ] } },
{ "type": "Feature", "properties": { "ccd_name": "Making street light functional", "com_location": "Achanak Chowk, FQ6F+V78, Uttam Nagar, Maharashtra 411023, India, Pune, Maharashtra" }, "geometry": { "type": "Point", "coordinates": [ 73.773276300957136, 18.46213301697734 ] } },
{ "type": "Feature", "properties": { "ccd_name": "Making street light functional", "com_location": "vArDa naMbara 35 padmAvatI shiMde skUla rastA naMdadIpa basa sTa pa mena roDa  naMdIpa  parvatI darshana puNe 411009  puNe " }, "geometry": { "type": "Point", "coordinates": [ 73.8529503, 18.4810178 ] } },
{ "type": "Feature", "properties": { "ccd_name": "Making street light functional", "com_location": "Address:- SR. NO. 49/2/2, Jadhav Nagar Bhag 1, Gujarwadi Phata, Katraj, Pune\r\n" }, "geometry": { "type": "Point", "coordinates": [ 73.8676117, 18.4387886 ] } },
{ "type": "Feature", "properties": { "ccd_name": "Making street light functional", "com_location": "BT kawade road , near borate wasti, ghorpadi gaon , pune , prabhag 21" }, "geometry": { "type": "Point", "coordinates": [ 73.9024889, 18.5248147 ] } },
{ "type": "Feature", "properties": { "ccd_name": "Making street light functional", "com_location": "37 muMbaI puNe roDa (tukArAma chavhANa) hamAla chALa khaDakI relve sTeshana javaLa bopoDI puNe 3" }, "geometry": { "type": "Point", "coordinates": [ 73.8387731, 18.5678705 ] } },
{ "type": "Feature", "properties": { "ccd_name": "Making street light functional", "com_location": "lena naM A3A lohagAva SR  naM 169/1 gurudvArA ka lanI , Pune, Maharashtra" }, "geometry": { "type": "Point", "coordinates": [ 73.9255946, 18.593599 ] } },
{ "type": "Feature", "properties": { "ccd_name": "Making street light functional", "com_location": "Poonam Heights, Bibvewadi Rd, Vasant Baug, Prem Nagar, Vasant Baug Society, Maharshi Nagar, Pune, Maharashtra 411037, India" }, "geometry": { "type": "Point", "coordinates": [ 73.8591411, 18.4838449 ] } },
{ "type": "Feature", "properties": { "ccd_name": "No electricity in public toilet(s)", "com_location": "Sasane nagar bharti muslim chapparband samaj office mangalwar peth pune" }, "geometry": { "type": "Point", "coordinates": [ 73.8646945, 18.5240566 ] } },
{ "type": "Feature", "properties": { "ccd_name": "Making street light functional", "com_location": "101 janwadi janta vasahat navnath society samor maruti mandir 411016, Pune, Maharashtra" }, "geometry": { "type": "Point", "coordinates": [ 73.823458, 18.5314605 ] } },
{ "type": "Feature", "properties": { "ccd_name": "Making street light functional", "com_location": "Survey no 39 aundh road , ambedkar chowk , nana barate chal , pune" }, "geometry": { "type": "Point", "coordinates": [ 73.8308329, 18.5628196 ] } },
{ "type": "Feature", "properties": { "ccd_name": "Making street light functional", "com_location": "Sutarwadi pashan ,opposite sutar complex , near pmc school , pune 411021" }, "geometry": { "type": "Point", "coordinates": [ 73.7817808, 18.5404758 ] } },
{ "type": "Feature", "properties": { "ccd_name": "Making street light functional", "com_location": "junA prabhAga kramAMka 24 rAmaTekaDI-sayyadanagara yAmadhye sayyadanagara gallI naMbara 14A kabrasthAna , Pune, Maharashtra" }, "geometry": { "type": "Point", "coordinates": [ 73.8786239, 18.5246091 ] } },
{ "type": "Feature", "properties": { "ccd_name": "Making street light functional", "com_location": "Sapna Society. Near carpo. Swimming tank or Near Cipla Foundation .Warje highway. , Pune, Maharashtra" }, "geometry": { "type": "Point", "coordinates": [ 73.819126, 18.5054131 ] } },
{ "type": "Feature", "properties": { "ccd_name": "Other (ELECTRICAL)", "com_location": "Sr. no.1 hissa no. 27/29 Rajaram pool opposite Aparna house Karve nagar pune 411052" }, "geometry": { "type": "Point", "coordinates": [ 73.825094, 18.4876351 ] } },
{ "type": "Feature", "properties": { "ccd_name": "Other (ELECTRICAL)", "com_location": "On entire Baner Road Metro,pune." }, "geometry": { "type": "Point", "coordinates": [ 73.7925792, 18.5581625 ] } },
{ "type": "Feature", "properties": { "ccd_name": "Making street light functional", "com_location": "street light from kanha hotel to balaji traders ,kondhawa budruk 411048., Pune, Maharashtra" }, "geometry": { "type": "Point", "coordinates": [ 73.8938031, 18.4777982 ] } },
{ "type": "Feature", "properties": { "ccd_name": "Making street light functional", "com_location": "PLot no 9, tapobhumi society ,near chhatrapati shivaji maharaj kridangan , dattawadi ,  pune 411030" }, "geometry": { "type": "Point", "coordinates": [ 73.8895141, 18.4649886 ] } },
{ "type": "Feature", "properties": { "ccd_name": "Making street light functional", "com_location": "Tingre nagar lane no 7c ,vishrantwadi near airport, Pune, Maharashtra" }, "geometry": { "type": "Point", "coordinates": [ 73.8906217, 18.5790723 ] } },
{ "type": "Feature", "properties": { "ccd_name": "Making street light functional", "com_location": "kamalesha sosAyaTI, hutAtmA rAjagurU chauka, kotharUDa, Pune, Maharashtra" }, "geometry": { "type": "Point", "coordinates": [ 73.8200346, 18.5063003 ] } },
{ "type": "Feature", "properties": { "ccd_name": "Making street light functional", "com_location": "Fulora Villa' survey no 52/1/1, plot 2, Bhairavnagar lane 6,\r\nNear Gagangiri mangal karyalaya, ICICI bank ATM lane, Dhanori Road,\r\nPune, Maharashtra, 411015" }, "geometry": { "type": "Point", "coordinates": [ 73.8884714, 18.589497 ] } },
{ "type": "Feature", "properties": { "ccd_name": "Making street light functional", "com_location": "1 ABRI House, 667, Ghorpade Peth Rd, Police Colony, Swargate, Pune, Maharashtra 411042" }, "geometry": { "type": "Point", "coordinates": [ 73.8630119, 18.5013223 ] } },
{ "type": "Feature", "properties": { "ccd_name": "Making street light functional", "com_location": "sant nagar lohgaon lane no6, road no 10, pune " }, "geometry": { "type": "Point", "coordinates": [ 73.933073600000014, 18.5969852 ] } },
{ "type": "Feature", "properties": { "ccd_name": "Other (ELECTRICAL)", "com_location": "Ramwadi, Nagar road under pass, airport lane exit point\r\n, Pune, Maharashtra" }, "geometry": { "type": "Point", "coordinates": [ 73.908941, 18.557621 ] } },
{ "type": "Feature", "properties": { "ccd_name": "Making street light functional", "com_location": "lane no 2 shiv nagar sutarwadi pashan pune " }, "geometry": { "type": "Point", "coordinates": [ 73.7831055, 18.5373912 ] } },
{ "type": "Feature", "properties": { "ccd_name": "Making street light functional", "com_location": "pune" }, "geometry": { "type": "Point", "coordinates": [ 73.8215289, 18.4809036 ] } },
{ "type": "Feature", "properties": { "ccd_name": "Making street light functional", "com_location": " Len no 6 ashtavinayak colony,,(nearby  Kunal chair) ganganagaar, furaungi Pune 412308" }, "geometry": { "type": "Point", "coordinates": [ 73.9581313, 18.4881939 ] } },
{ "type": "Feature", "properties": { "ccd_name": "Making street light functional", "com_location": "Asiad  Society,  Aundh road,khadki, Pune, Maharashtra" }, "geometry": { "type": "Point", "coordinates": [ 73.8356231, 18.5618997 ] } },
{ "type": "Feature", "properties": { "ccd_name": "Making street light functional", "com_location": "Apale ghara lena naM 3, Pune, Maharashtra" }, "geometry": { "type": "Point", "coordinates": [ 73.7908992, 18.4851282 ] } },
{ "type": "Feature", "properties": { "ccd_name": "Making street light functional", "com_location": "pune" }, "geometry": { "type": "Point", "coordinates": [ 73.7991792, 18.47654 ] } },
{ "type": "Feature", "properties": { "ccd_name": "Signal not working", "com_location": "Jakatnaka dhanori, Pune, Maharashtra" }, "geometry": { "type": "Point", "coordinates": [ 73.906742, 18.597102 ] } },
{ "type": "Feature", "properties": { "ccd_name": "Making street light functional", "com_location": "Sr. No. 6 Kumbhar wada behind Blue Cross Animal Hospital Keshavnagar Mundhwa Pune - 411036" }, "geometry": { "type": "Point", "coordinates": [ 73.9425951, 18.536592 ] } },
{ "type": "Feature", "properties": { "ccd_name": "Shut down street light", "com_location": "Keshav Chalake\nSr. No. 44/1/2, Achal Farm Society, Near Sachayimata Mandir, Ambegaon Khurd, Pune-411046" }, "geometry": { "type": "Point", "coordinates": [ 73.8523293, 18.4386454 ] } },
{ "type": "Feature", "properties": { "ccd_name": "Making street light functional", "com_location": "pune" }, "geometry": { "type": "Point", "coordinates": [ 73.9160221, 18.5551071 ] } },
{ "type": "Feature", "properties": { "ccd_name": "Making street light functional", "com_location": "mahAtmA sosAyaTI sahajAnaMda sosAyaTI bhAga 1 kotharUDa gAMdhI bhavanAchyA mAgIla bAjUsa, Pune, Maharashtra" }, "geometry": { "type": "Point", "coordinates": [ 73.9531189, 18.5646495 ] } },
{ "type": "Feature", "properties": { "ccd_name": "Making street light functional", "com_location": " Vrundawan nagar lane no 2 Wadgaon sheri , Pune, Maharashtra" }, "geometry": { "type": "Point", "coordinates": [ 73.9163298, 18.554936 ] } },
{ "type": "Feature", "properties": { "ccd_name": "A new street light (new demand)", "com_location": "Sr no 90/9-10 PROFESSORS COLONY,OPP TO YASH PETROL PUMP(B.P)\r\nNEXT TO AMAZON GODOWN,PUNE-MUNDHWA ROAD" }, "geometry": { "type": "Point", "coordinates": [ 73.9205787, 18.533598 ] } },
{ "type": "Feature", "properties": { "ccd_name": "Making street light functional", "com_location": "phurasuMgI khaMDobA mALa khaMDobA maMdirAchyA pAThImAge 412 308 pina koDa naMbara, Pune, Maharashtra" }, "geometry": { "type": "Point", "coordinates": [ 73.7853139, 18.65019 ] } },
{ "type": "Feature", "properties": { "ccd_name": "Repairing street light pole (damaged / fallen)", "com_location": "pune" }, "geometry": { "type": "Point", "coordinates": [ 73.780854197013184, 18.516082177293185 ] } },
{ "type": "Feature", "properties": { "ccd_name": "Removal of signal pole", "com_location": "karve roDa na na sTa pa Aditya ha Tela chauka eraMDavaNe 411004, Pune, Maharashtra" }, "geometry": { "type": "Point", "coordinates": [ 73.8372696, 18.5117267 ] } },
{ "type": "Feature", "properties": { "ccd_name": "Making street light functional", "com_location": "vikas nagar, wanwadi, pune 411040 near star chicken center" }, "geometry": { "type": "Point", "coordinates": [ 73.9016247, 18.4910607 ] } },
{ "type": "Feature", "properties": { "ccd_name": "No electricity in public toilet(s)", "com_location": "128/ 5 ba hanumAna nagara dattavADI, Pune, Maharashtra" }, "geometry": { "type": "Point", "coordinates": [ 73.8303521, 18.4894865 ] } },
{ "type": "Feature", "properties": { "ccd_name": "Making street light functional", "com_location": "Sanjay gandhi society , lane no 2 , somnath nagar, near ganpati mandir , vadgaon sheri , pune 4111014" }, "geometry": { "type": "Point", "coordinates": [ 73.9228878, 18.5602961 ] } },
{ "type": "Feature", "properties": { "ccd_name": "Making street light functional", "com_location": "Sr 246/2A/2 , kalwad , lohegaon , Pune 411032" }, "geometry": { "type": "Point", "coordinates": [ 73.904435, 18.587329 ] } },
{ "type": "Feature", "properties": { "ccd_name": "Making street light functional", "com_location": "S.no 9 te 14 gAyArAna vastI keshavanagara muMDhavA , Pune, Maharashtra" }, "geometry": { "type": "Point", "coordinates": [ 73.9601377, 18.5288098 ] } },
{ "type": "Feature", "properties": { "ccd_name": "Making street light functional", "com_location": "Dhayri Raykar Mala, Pune, Maharashtra" }, "geometry": { "type": "Point", "coordinates": [ 73.8094733, 18.4349389 ] } },
{ "type": "Feature", "properties": { "ccd_name": "A new street light (new demand)", "com_location": "kirkit wadi phata to nanded phata , sinhagad road ,kirkit wadi pune 411024" }, "geometry": { "type": "Point", "coordinates": [ 73.8033682, 18.4571738 ] } },
{ "type": "Feature", "properties": { "ccd_name": "Other (ELECTRICAL)", "com_location": "prabhAga kramAMka 21, vikAsa nagara gaNapatI maMdirA samora, Pune, Maharashtra" }, "geometry": { "type": "Point", "coordinates": [ 73.8430179, 18.5096097 ] } },
{ "type": "Feature", "properties": { "ccd_name": "Making street light functional", "com_location": "near vitthal rukmini mandir , yewalewadi ,pune 411048" }, "geometry": { "type": "Point", "coordinates": [ 73.8963496, 18.4363212 ] } },
{ "type": "Feature", "properties": { "ccd_name": "Repairing street light pole (damaged / fallen)", "com_location": "pune" }, "geometry": { "type": "Point", "coordinates": [ 73.829911080229706, 18.514246924103482 ] } },
{ "type": "Feature", "properties": { "ccd_name": "Repairing street light pole (damaged / fallen)", "com_location": "822 shukrawar peth near gadikhana hospital Pune " }, "geometry": { "type": "Point", "coordinates": [ 73.8567002, 18.5083204 ] } },
{ "type": "Feature", "properties": { "ccd_name": "Making street light functional", "com_location": "rAje galI kramAMka 3, rAma maMdira javaLa, AMbegAva paThAra , bhAratI vidyApITha, dhanakavaDI puNe 4111046\t" }, "geometry": { "type": "Point", "coordinates": [ 73.8546821, 18.4654546 ] } },
{ "type": "Feature", "properties": { "ccd_name": "Making street light functional", "com_location": "35/2/52, Mohan Nagar, Dhankawadi, Pune, Maharashtra 411043, India" }, "geometry": { "type": "Point", "coordinates": [ 73.8473165, 18.4603655 ] } },
{ "type": "Feature", "properties": { "ccd_name": "Making street light functional", "com_location": "gallI kramAMka ,tIna  saMtoSha nagara kAtraja puNe " }, "geometry": { "type": "Point", "coordinates": [ 73.865238, 18.4529322 ] } },
{ "type": "Feature", "properties": { "ccd_name": "Making street light functional", "com_location": "SHREE SHANKAR DARSHAN SOCIETY BUNGLOW NO 3 GALLI NO 1 DHANAKWADI PUNE 411043" }, "geometry": { "type": "Point", "coordinates": [ 73.8496627, 18.4690686 ] } },
{ "type": "Feature", "properties": { "ccd_name": "Making street light functional", "com_location": "sr. no. 27 panchsheel nagar yerwada pune 6 opp commerzone IT park" }, "geometry": { "type": "Point", "coordinates": [ 73.883805, 18.5602898 ] } },
{ "type": "Feature", "properties": { "ccd_name": "Making street light functional", "com_location": "opposite abhinav college at pashan sus road, Pune, Maharashtra" }, "geometry": { "type": "Point", "coordinates": [ 73.778876, 18.5448983 ] } },
{ "type": "Feature", "properties": { "ccd_name": "Making street light functional", "com_location": "pune" }, "geometry": { "type": "Point", "coordinates": [ 73.8666631, 18.5254089 ] } },
{ "type": "Feature", "properties": { "ccd_name": "Making street light functional", "com_location": " senApatI bApaTa roDa, jeDablyU ma.creTa samora, ba.Nka  pha mahArAShTrAchyA samora., Pune, Maharashtra" }, "geometry": { "type": "Point", "coordinates": [ 73.8307131, 18.5273169 ] } },
{ "type": "Feature", "properties": { "ccd_name": "Making street light functional", "com_location": "Ganga dham-Vardhampura road. Bibvewadi , Pune, Maharashtra" }, "geometry": { "type": "Point", "coordinates": [ 73.8640944, 18.4690213 ] } },
{ "type": "Feature", "properties": { "ccd_name": "Making street light functional", "com_location": "lekavhayusiTI lohagAva   mena roDa, Pune, Maharashtra" }, "geometry": { "type": "Point", "coordinates": [ 73.7822739, 18.4662515 ] } },
{ "type": "Feature", "properties": { "ccd_name": "Making street light functional", "com_location": "Sawarkar Bhavan, 2nd Floor, Congress House Road, Maharshi Vitthal Ramji Shinde Bridge, Shivajinagar, Pune, Maharashtra 411005, India" }, "geometry": { "type": "Point", "coordinates": [ 73.8496861, 18.5220412 ] } },
{ "type": "Feature", "properties": { "ccd_name": "Making street light functional", "com_location": "ghara kramAMka: 260, SR kramAMka: 5, ghaLasAsI pla Ta, pavAra vastI, keshavanagara, muMDhavA, puNe-36\r\n\r\n" }, "geometry": { "type": "Point", "coordinates": [ 73.960141, 18.5288257 ] } },
{ "type": "Feature", "properties": { "ccd_name": "Making street light functional", "com_location": "kAkA halavAI datta maMdirAjavaLa budhavAra peTha 411002\r\n, Pune, Maharashtra" }, "geometry": { "type": "Point", "coordinates": [ 73.8564663, 18.5146765 ] } },
{ "type": "Feature", "properties": { "ccd_name": "Making street light functional", "com_location": "infront of gulmohar city infront of ARV Uthville site kharadi., Pune, Maharashtra" }, "geometry": { "type": "Point", "coordinates": [ 73.9429551, 18.5520378 ] } },
{ "type": "Feature", "properties": { "ccd_name": "Making street light functional", "com_location": "25 kasabA peTha ,puNe 11, shAradA Ta vara" }, "geometry": { "type": "Point", "coordinates": [ 73.860892800000016, 18.5206537 ] } },
{ "type": "Feature", "properties": { "ccd_name": "Making street light functional", "com_location": "bhAratI vidyapeeth preraNA ba.Nka samora trimUrtI chauka Ichhapurti Ganesh mandir Dhankawadi, Pune, Maharashtra" }, "geometry": { "type": "Point", "coordinates": [ 73.851021, 18.455761 ] } },
{ "type": "Feature", "properties": { "ccd_name": "Making street light functional", "com_location": "Ketkar Road Deccan Gymkhana Pune Maharashtra India" }, "geometry": { "type": "Point", "coordinates": [ 73.8338273, 18.514309 ] } },
{ "type": "Feature", "properties": { "ccd_name": "Repairing and maintenance of Signal", "com_location": "JW Marriott Hotel SB Road Pune" }, "geometry": { "type": "Point", "coordinates": [ 73.829592300000016, 18.5323341 ] } },
{ "type": "Feature", "properties": { "ccd_name": "Making street light functional", "com_location": "kondwa hospital yewalewadi nimbalkar vasti taluka haveli jila pune 48" }, "geometry": { "type": "Point", "coordinates": [ 73.895535, 18.438986 ] } },
{ "type": "Feature", "properties": { "ccd_name": "Other (ELECTRICAL)", "com_location": "c-4/6 shri guru ramkrishna society pashan, Pune, Maharashtra" }, "geometry": { "type": "Point", "coordinates": [ 73.7980175, 18.5402437 ] } },
{ "type": "Feature", "properties": { "ccd_name": "No electricity in public toilet(s)", "com_location": "sAvarakara smAraka puNyAtacha Dekkana ka rnaralA Ahe, Pune, Maharashtra" }, "geometry": { "type": "Point", "coordinates": [ 73.8344413, 18.5244711 ] } },
{ "type": "Feature", "properties": { "ccd_name": "Other (ELECTRICAL)", "com_location": "haDapasara gADItaLa yethIla harapaLe bilDiMga samorIla solApUra puNe roDa chyA madhomadha " }, "geometry": { "type": "Point", "coordinates": [ 73.9372291, 18.5626928 ] } },
{ "type": "Feature", "properties": { "ccd_name": "Repairing street light pole (damaged / fallen)", "com_location": "pune" }, "geometry": { "type": "Point", "coordinates": [ 73.8845032, 18.4732458 ] } },
{ "type": "Feature", "properties": { "ccd_name": "Making street light functional", "com_location": "Spicer college Aundh road , Pune, Maharashtra" }, "geometry": { "type": "Point", "coordinates": [ 73.8193083, 18.5636636 ] } },
{ "type": "Feature", "properties": { "ccd_name": "Repairing street light pole (damaged / fallen)", "com_location": "FRXG+XXJ, Swapnamandir Society, Vakil Nagar, Erandwane, Pune, Maharashtra 411004, India" }, "geometry": { "type": "Point", "coordinates": [ 73.827434331178651, 18.499876738258926 ] } },
{ "type": "Feature", "properties": { "ccd_name": "Making street light functional", "com_location": "SURVEY NO. 104/1, GALLI NO. H ,OPP SANTKRUPA PETROL PUMP, SANTNAGAR LOHAGAON PUNE-47" }, "geometry": { "type": "Point", "coordinates": [ 73.9346737, 18.5951532 ] } },
{ "type": "Feature", "properties": { "ccd_name": "Signal not working", "com_location": " to cross Karve Road even in green signal (specifically Swatantrya Chowk)....Karve Rd, Pune, Maharashtra" }, "geometry": { "type": "Point", "coordinates": [ 73.8435403, 18.5193352 ] } },
{ "type": "Feature", "properties": { "ccd_name": "A new street light (new demand)", "com_location": "Narayan Smruti Society, 56/12, Malhar Nagar, Wadgaon Sheri, Pune, Maharashtra" }, "geometry": { "type": "Point", "coordinates": [ 73.9262218, 18.5445709 ] } },
{ "type": "Feature", "properties": { "ccd_name": "Making street light functional", "com_location": "Sr. No. 641, Khadakwasala Gaon, Sinhagad Road, near Bhaji Mandai, Pune, Maharashtra 411024" }, "geometry": { "type": "Point", "coordinates": [ 73.776122, 18.440456 ] } },
{ "type": "Feature", "properties": { "ccd_name": "Making street light functional", "com_location": "4, JJC Colony, Ramtekadi, Hadapsar, Pune, Maharashtra 411013, India" }, "geometry": { "type": "Point", "coordinates": [ 73.9142378, 18.5049157 ] } },
{ "type": "Feature", "properties": { "ccd_name": "Repairing street light pole (damaged / fallen)", "com_location": "45/65, Tukaram Jadhav Nagar, Khanapur Village, Pune, Maharashtra 411046, India" }, "geometry": { "type": "Point", "coordinates": [ 73.8485865, 18.4431975 ] } },
{ "type": "Feature", "properties": { "ccd_name": "Making street light functional", "com_location": "haDapasara karakare udyAna ,goMdhaLe nagara samorIla , Pune, Maharashtra" }, "geometry": { "type": "Point", "coordinates": [ 73.948902, 18.4941368 ] } },
{ "type": "Feature", "properties": { "ccd_name": "Making street light functional", "com_location": "phurasuMgI bhakarAInagara , Pune, Maharashtra" }, "geometry": { "type": "Point", "coordinates": [ 73.8786239, 18.5246091 ] } },
{ "type": "Feature", "properties": { "ccd_name": "Making street light functional", "com_location": "prabhAga kramAMka 24 rAmaTekaDI sayyadanagara sarvhe naM 109 rAmanagara aMdha shALe samora  vAghamAre giraNIjavaLa rAmaTekaDI., Pune, Maharashtra" }, "geometry": { "type": "Point", "coordinates": [ 73.857185, 18.625148 ] } },
{ "type": "Feature", "properties": { "ccd_name": "Making street light functional", "com_location": "Survey number 215, Trimurti Nagar,Ganganagar, bhekrai Nagar, Fursungi,Pune 412308." }, "geometry": { "type": "Point", "coordinates": [ 73.9576916, 18.4902366 ] } },
{ "type": "Feature", "properties": { "ccd_name": "Repairing and maintenance of Signal", "com_location": "Sawant Petrol Pump, Vishrantwadi , Pune, Maharashtra" }, "geometry": { "type": "Point", "coordinates": [ 73.8846043, 18.5733549 ] } },
{ "type": "Feature", "properties": { "ccd_name": "Other (ELECTRICAL)", "com_location": "vAghajAI ka lanI gaMgAnagara bhekarAInagara phurasuMgI havelI puNe412308" }, "geometry": { "type": "Point", "coordinates": [ 73.9521468, 18.4819581 ] } },
{ "type": "Feature", "properties": { "ccd_name": "Making street light functional", "com_location": "kALUbAI maMdirA javaLa kALUbAI chauka rAyakara maLA dhAyarI gAva, Pune, Maharashtra" }, "geometry": { "type": "Point", "coordinates": [ 73.809384, 18.4366839 ] } },
{ "type": "Feature", "properties": { "ccd_name": "Making street light functional", "com_location": "pattA sarve naMbara 50 rAjagaDa sosAyaTI vAghajAI nagara AMbegAva khurda puNe 46" }, "geometry": { "type": "Point", "coordinates": [ 73.8786239, 18.5246091 ] } },
{ "type": "Feature", "properties": { "ccd_name": "Making street light functional", "com_location": "Hadpser kalepadal sanket vihar lane number 16,17,18. , Pune, Maharashtra" }, "geometry": { "type": "Point", "coordinates": [ 73.9497015, 18.4749834 ] } },
{ "type": "Feature", "properties": { "ccd_name": "Repairing and maintenance of Signal", "com_location": "Hutatma Rajguru Chowk Kothrud Pune Maharashtra  India" }, "geometry": { "type": "Point", "coordinates": [ 73.8185001, 18.5028049 ] } },
{ "type": "Feature", "properties": { "ccd_name": "Shut down street light", "com_location": "At Entry Gate No.2 of Haji Abdul Kader Memon English Medium School , Near Navgrah Shani Mandir, Santosh Nagar, Katraj, Pune " }, "geometry": { "type": "Point", "coordinates": [ 73.8580699, 18.4452015 ] } },
{ "type": "Feature", "properties": { "ccd_name": "Other (ELECTRICAL)", "com_location": " mundhwa river Bridge , Pune, Maharashtra" }, "geometry": { "type": "Point", "coordinates": [ 73.933003, 18.5330323 ] } },
{ "type": "Feature", "properties": { "ccd_name": "Other (ELECTRICAL)", "com_location": "Van Udhyan Wall main road Bavdhan, Pune, Maharashtra" }, "geometry": { "type": "Point", "coordinates": [ 73.7743783, 18.5181204 ] } },
{ "type": "Feature", "properties": { "ccd_name": "Making street light functional", "com_location": "Eon Free Zone, Eon IT Park Phase - 1 Kharadi  Pune - 411014" }, "geometry": { "type": "Point", "coordinates": [ 73.9514121, 18.5517641 ] } },
{ "type": "Feature", "properties": { "ccd_name": "Making street light functional", "com_location": "yojna nagar lohgaon wagholi road, diamond water park parynt , Pune, Maharashtra" }, "geometry": { "type": "Point", "coordinates": [ 73.9567982, 18.5892179 ] } },
{ "type": "Feature", "properties": { "ccd_name": "Making street light functional", "com_location": "Ambegaon BK, Pune, Maharashtra" }, "geometry": { "type": "Point", "coordinates": [ 73.8306278, 18.456677 ] } },
{ "type": "Feature", "properties": { "ccd_name": "Making street light functional", "com_location": "Area Sutarwadi pashan Pune Near Sutarwadi bus depot\t" }, "geometry": { "type": "Point", "coordinates": [ 73.7816154, 18.5419934 ] } },
{ "type": "Feature", "properties": { "ccd_name": "Making street light functional", "com_location": "Sukhsagar nagar, survey no-14, lane no-22, Pune, Maharashtra" }, "geometry": { "type": "Point", "coordinates": [ 73.8667848, 18.4560848 ] } },
{ "type": "Feature", "properties": { "ccd_name": "Making street light functional", "com_location": "Road no-06, tukai darshan, furusunghi, pune-412308" }, "geometry": { "type": "Point", "coordinates": [ 73.9503789, 18.4874995 ] } },
{ "type": "Feature", "properties": { "ccd_name": "Making street light functional", "com_location": "Samarth colony, wakeshwar chowk, Back side of Sai leela Hotel, Sus road, Pashan, Pune - 411021" }, "geometry": { "type": "Point", "coordinates": [ 73.7923386, 18.5412335 ] } },
{ "type": "Feature", "properties": { "ccd_name": "Making street light functional", "com_location": "Kanak Drapery Gate no 7 orient park malwadi road near handball stadium nilesh park hadapsar pune 411028" }, "geometry": { "type": "Point", "coordinates": [ 73.9406271, 18.5078952 ] } },
{ "type": "Feature", "properties": { "ccd_name": "Other (ELECTRICAL)", "com_location": "SP College chowk to nasi phadke chowk mohan dhari bangalaya samor vijay nagar colony pune 411030" }, "geometry": { "type": "Point", "coordinates": [ 73.8507149, 18.5043636 ] } },
{ "type": "Feature", "properties": { "ccd_name": "Making street light functional", "com_location": "appara oTA V I T roDa chALa naMbara A37, Pune, Maharashtra" }, "geometry": { "type": "Point", "coordinates": [ 73.8786239, 18.5246091 ] } },
{ "type": "Feature", "properties": { "ccd_name": "Making street light functional", "com_location": "Sr no 256 Road no 5 khese Park Lohegaon pune 32 " }, "geometry": { "type": "Point", "coordinates": [ 73.9126167, 18.5926532 ] } },
{ "type": "Feature", "properties": { "ccd_name": "Making street light functional", "com_location": "dattavADI rakShAlekhA sosAyaTI madhIla B2 ANi B3 bilDiMga , Pune, Maharashtra" }, "geometry": { "type": "Point", "coordinates": [ 73.9531189, 18.5646495 ] } },
{ "type": "Feature", "properties": { "ccd_name": "Making street light functional", "com_location": "Sr no. 132/5,near khandoba temple, chhatrapati sambhaji colony,pune 412308." }, "geometry": { "type": "Point", "coordinates": [ 73.9505419, 18.5275924 ] } },
{ "type": "Feature", "properties": { "ccd_name": "Making street light functional", "com_location": "Aaryan residency , Pune, Maharashtra" }, "geometry": { "type": "Point", "coordinates": [ 73.8618062, 18.4960058 ] } },
{ "type": "Feature", "properties": { "ccd_name": "Repairing street light pole (damaged / fallen)", "com_location": "242/2, near Serene Hospital, Maji Sainik Nagar, Mohanwadi, Yerawada, Pune, Maharashtra 411006, India" }, "geometry": { "type": "Point", "coordinates": [ 73.882108241323266, 18.569853891579378 ] } },
{ "type": "Feature", "properties": { "ccd_name": "Making street light functional", "com_location": "Vivaan Society, Near Teerth Technospace,Off Mumbai Bangalore Highway, Mahalunge, Baner 411045, Pune, Maharashtra" }, "geometry": { "type": "Point", "coordinates": [ 73.764086, 18.56298 ] } },
{ "type": "Feature", "properties": { "ccd_name": "Shut down street light", "com_location": " hingne khurd sainagar , Pune, Maharashtra" }, "geometry": { "type": "Point", "coordinates": [ 73.8279851, 18.4820314 ] } },
{ "type": "Feature", "properties": { "ccd_name": "Shut down street light", "com_location": "506 guruvAra peTha puNe," }, "geometry": { "type": "Point", "coordinates": [ 73.8606619, 18.5065892 ] } },
{ "type": "Feature", "properties": { "ccd_name": "Making street light functional", "com_location": "trimurtI pa.Nlesa samorIla  jhIla kA.Nleja chauka, iMgaLe vastI,\r\nnarhe, Pune, Maharashtra" }, "geometry": { "type": "Point", "coordinates": [ 73.8280415, 18.4491725 ] } },
{ "type": "Feature", "properties": { "ccd_name": "Making street light functional", "com_location": "pisoLI niMbALakara vastI , Pune, Maharashtra" }, "geometry": { "type": "Point", "coordinates": [ 73.9077818, 18.4491966 ] } },
{ "type": "Feature", "properties": { "ccd_name": "Other (ELECTRICAL)", "com_location": "on Mudliar road opposite Gloxinia society in sopan baug area under ward no 25 of Wanorie Ramtekdi ward office,PUNE" }, "geometry": { "type": "Point", "coordinates": [ 73.9003868, 18.501697 ] } },
{ "type": "Feature", "properties": { "ccd_name": "Making street light functional", "com_location": "shevALevADI madhIla bhavarA vastI , Pune, Maharashtra" }, "geometry": { "type": "Point", "coordinates": [ 73.8505741, 18.6303827 ] } },
{ "type": "Feature", "properties": { "ccd_name": "Making street light functional", "com_location": "kharADI bAyapAsa parAshara sosAyaTI lena naM 1 puNe 14" }, "geometry": { "type": "Point", "coordinates": [ 73.9531189, 18.5646495 ] } },
{ "type": "Feature", "properties": { "ccd_name": "A new street light (new demand)", "com_location": "Prospero BuildingD P Farm HWXVH Road Tulaja Bhawani Nagar Kharadi Pune Maharashtra Pin  India" }, "geometry": { "type": "Point", "coordinates": [ 73.948936, 18.562152 ] } },
{ "type": "Feature", "properties": { "ccd_name": "Making street light functional", "com_location": "Malwadi bus stop, malwadi manjari budruk, pune 412307 " }, "geometry": { "type": "Point", "coordinates": [ 73.9825844, 18.5211345 ] } },
{ "type": "Feature", "properties": { "ccd_name": "Making street light functional", "com_location": "pune" }, "geometry": { "type": "Point", "coordinates": [ 73.8864669, 18.4420733 ] } },
{ "type": "Feature", "properties": { "ccd_name": "Shut down street light", "com_location": "Sasane wasti lane no.9 mohmmad wadi road Hadapsar pune 411060" }, "geometry": { "type": "Point", "coordinates": [ 73.9190823, 18.4743346 ] } },
{ "type": "Feature", "properties": { "ccd_name": "Making street light functional", "com_location": "Road no A3, Gurudwara Colony, Lohegaon., Pune, Maharashtra" }, "geometry": { "type": "Point", "coordinates": [ 73.9275318, 18.5932724 ] } },
{ "type": "Feature", "properties": { "ccd_name": "Making street light functional", "com_location": "saras baug peshve park parking , Pune, Maharashtra" }, "geometry": { "type": "Point", "coordinates": [ 73.852232, 18.5023602 ] } },
{ "type": "Feature", "properties": { "ccd_name": "Making street light functional", "com_location": "Pashan Circle, registrar office road, Pune - 411021" }, "geometry": { "type": "Point", "coordinates": [ 73.7963142, 18.537721 ] } },
{ "type": "Feature", "properties": { "ccd_name": "Making street light functional", "com_location": "New Canal Rd, Janta Vasahat, Pune Okayama Friendship Garden, Dattawadi, Pune, Maharashtra 411030" }, "geometry": { "type": "Point", "coordinates": [ 73.8310296, 18.4815201 ] } },
{ "type": "Feature", "properties": { "ccd_name": "Stop line at Signal before Zebra Crossing", "com_location": "Location: In front of Dharmavat building/ pANapoI,Talab Masjid Gate , Kondhwa Budruk\t, Pune, Maharashtra" }, "geometry": { "type": "Point", "coordinates": [ 73.8905189, 18.4630573 ] } },
{ "type": "Feature", "properties": { "ccd_name": "Making street light functional", "com_location": "713 Budhwar peth, near sakal office, Pune 411002" }, "geometry": { "type": "Point", "coordinates": [ 73.8549619, 18.5181463 ] } },
{ "type": "Feature", "properties": { "ccd_name": "Making street light functional", "com_location": "Opp star bazar. Wagholi., Pune, Maharashtra" }, "geometry": { "type": "Point", "coordinates": [ 73.9883964, 18.5832344 ] } },
{ "type": "Feature", "properties": { "ccd_name": "No electricity in public toilet(s)", "com_location": "korTa roDa, ra.cmpa maMgaLavAra peTha 216,, Pune, Maharashtra" }, "geometry": { "type": "Point", "coordinates": [ 73.8786239, 18.5246091 ] } },
{ "type": "Feature", "properties": { "ccd_name": "Making street light functional", "com_location": "Avdhoot residency mahendra market ambegaon katraj pune 46.\r\n" }, "geometry": { "type": "Point", "coordinates": [ 73.8500559, 18.4500698 ] } },
{ "type": "Feature", "properties": { "ccd_name": "Making street light functional", "com_location": "Barometer restaurant to Paschima Nagari Society in Kothrud near city pride, Pune, Maharashtra" }, "geometry": { "type": "Point", "coordinates": [ 73.8194031, 18.4988544 ] } },
{ "type": "Feature", "properties": { "ccd_name": "Making street light functional", "com_location": "44/381, gokhle nagar pune 16 " }, "geometry": { "type": "Point", "coordinates": [ 73.829134, 18.5337531 ] } },
{ "type": "Feature", "properties": { "ccd_name": "Making street light functional", "com_location": "322 /12 Mahatma Phule Coloney, shanker shet road, Pune 411042 " }, "geometry": { "type": "Point", "coordinates": [ 73.8686347, 18.5012148 ] } },
{ "type": "Feature", "properties": { "ccd_name": "Making street light functional", "com_location": "Lane no 11h , backside of kishor garden ,tingare nagar ,vidya nagar , pune 411032" }, "geometry": { "type": "Point", "coordinates": [ 73.8943353, 18.5798563 ] } },
{ "type": "Feature", "properties": { "ccd_name": "Other (ELECTRICAL)", "com_location": "Viman Nagar 411014. , Pune, Maharashtra" }, "geometry": { "type": "Point", "coordinates": [ 73.9143637, 18.5678553 ] } },
{ "type": "Feature", "properties": { "ccd_name": "Making street light functional", "com_location": "chatrapati shahu bridge, Pune, Maharashtra" }, "geometry": { "type": "Point", "coordinates": [ 73.8178609, 18.4380377 ] } },
{ "type": "Feature", "properties": { "ccd_name": "Making street light functional", "com_location": "bANera roDa rAMkA jvelarsa te bANera pAShANa liMka roDa, Pune, Maharashtra" }, "geometry": { "type": "Point", "coordinates": [ 73.7923957, 18.5414267 ] } },
{ "type": "Feature", "properties": { "ccd_name": "Making street light functional", "com_location": "swaranagari co-op society sinhagad road Anand Nagar Pune 411051\r\n\r\n  \r\n" }, "geometry": { "type": "Point", "coordinates": [ 73.8256828, 18.4765783 ] } },
{ "type": "Feature", "properties": { "ccd_name": "A new street light (new demand)", "com_location": "Khedekar chuk te Naredra Maharj matha , Sr. No-8/3/2, Om Pearl Society, Abhinav college road,Narhe, Pune, Maharashtra" }, "geometry": { "type": "Point", "coordinates": [ 73.8283444, 18.44146 ] } },
{ "type": "Feature", "properties": { "ccd_name": "Making street light functional", "com_location": "33/1, Lane Number 9, Shejwal Park, Borate Vasti, Tukaram Nagar, Kharadi, Pune, Maharashtra 411014, India" }, "geometry": { "type": "Point", "coordinates": [ 73.9321015, 18.5526763 ] } },
{ "type": "Feature", "properties": { "ccd_name": "Making street light functional", "com_location": "rAjagaDa hall javaLIla roDa naM 4  roDa  usha raj dukAnA samorIla Kalwad\r\n, Pune, Maharashtra" }, "geometry": { "type": "Point", "coordinates": [ 73.9060775, 18.59205 ] } },
{ "type": "Feature", "properties": { "ccd_name": "Other (ELECTRICAL)", "com_location": "1258 kasabA peTha puNyasvara mitra maMDaLa yA ThikANI , Pune, Maharashtra" }, "geometry": { "type": "Point", "coordinates": [ 73.8128941, 18.5016417 ] } },
{ "type": "Feature", "properties": { "ccd_name": "Making street light functional", "com_location": "libero sosAyaTI va jubalI pArka roDavarIla, Pune, Maharashtra" }, "geometry": { "type": "Point", "coordinates": [ 73.9531189, 18.5646495 ] } },
{ "type": "Feature", "properties": { "ccd_name": "Making street light functional", "com_location": "Pune university circle to kendriya vidhyalay at aundh pcmc road." }, "geometry": { "type": "Point", "coordinates": [ 73.8222702, 18.5531724 ] } },
{ "type": "Feature", "properties": { "ccd_name": "Making street light functional", "com_location": "Trinity college  yewalewadi bopdev ghat, Pune, Maharashtra" }, "geometry": { "type": "Point", "coordinates": [ 73.9058564, 18.4215263 ] } },
{ "type": "Feature", "properties": { "ccd_name": "Making street light functional", "com_location": "Gali no 4 and gali no 5 , mahatma phule nagar , dhangar wasti , near shiv sena office , uruli devachi , pune 412308" }, "geometry": { "type": "Point", "coordinates": [ 73.9566119, 18.4475681 ] } },
{ "type": "Feature", "properties": { "ccd_name": "Making street light functional", "com_location": "1002-1018, Dada Chelaram Path, Sadar Bazaar, Pune, Maharashtra 411001" }, "geometry": { "type": "Point", "coordinates": [ 73.8743281, 18.5120327 ] } },
{ "type": "Feature", "properties": { "ccd_name": "Other (ELECTRICAL)", "com_location": " Aranyeshwar area, Pune. " }, "geometry": { "type": "Point", "coordinates": [ 73.8535968, 18.4859312 ] } },
{ "type": "Feature", "properties": { "ccd_name": "Other (Traffic-signal Electrical)", "com_location": "Garware College Karve Road Signal while going towards Deccan, on Karve Road, Pune, Maharashtra" }, "geometry": { "type": "Point", "coordinates": [ 73.8386061, 18.5117937 ] } },
{ "type": "Feature", "properties": { "ccd_name": "Making street light functional", "com_location": "Shree Satyam Housing Society, Khadki, Pune, Maharashtra 411003" }, "geometry": { "type": "Point", "coordinates": [ 73.855506, 18.550259 ] } },
{ "type": "Feature", "properties": { "ccd_name": "Making street light functional", "com_location": "anaMtakRRipA hAusiMga sosAyaTI janatA ba.Nka lena pauDa roDa kotharUDa puNe 411038" },