{
"type": "FeatureCollection",
"name": "2024_Road",
"crs": { "type": "name", "properties": { "name": "urn:ogc:def:crs:OGC:1.3:CRS84" } },
"features": [
{ "type": "Feature", "properties": { "ccd_name": "Repairing potholes on Road", "com_location": "kesnand road ,konark exotica chya opposite side la,relience mart point wagholi ,pune" }, "geometry": { "type": "Point", "coordinates": [ 73.9976696, 18.584357 ] } },
{ "type": "Feature", "properties": { "ccd_name": "Others road", "com_location": "rAmoDI jakAta nAkA, Pune, Maharashtra" }, "geometry": { "type": "Point", "coordinates": [ 73.9527066, 18.4835253 ] } },
{ "type": "Feature", "properties": { "ccd_name": "Others road", "com_location": "mahalunge area., Pune, Maharashtra" }, "geometry": { "type": "Point", "coordinates": [ 73.7561594, 18.57382 ] } },
{ "type": "Feature", "properties": { "ccd_name": "Others road", "com_location": "Bhosale nagar hadapsar \r\n , Pune, Maharashtra" }, "geometry": { "type": "Point", "coordinates": [ 73.931139, 18.5060533 ] } },
{ "type": "Feature", "properties": { "ccd_name": "Repairing potholes on Road", "com_location": "service road from Pan Card club road to Sus Pashan bridge, Pune, Maharashtra" }, "geometry": { "type": "Point", "coordinates": [ 73.7722954, 18.5475402 ] } },
{ "type": "Feature", "properties": { "ccd_name": "Repair/re-sufacing of roads/footpaths", "com_location": "Skyways Sereno Road Lohegaon Pune 411047" }, "geometry": { "type": "Point", "coordinates": [ 73.9089744, 18.6126515 ] } },
{ "type": "Feature", "properties": { "ccd_name": "Sweeping /cleaning the road", "com_location": "GWWF+9FG, Ganesh Nagar Rd, opposite Stella Maria School, Survey Number 2, Mahaveer Nagar, Wadgaon Sheri, Pune, Maharashtra 411014, India" }, "geometry": { "type": "Point", "coordinates": [ 73.9237447, 18.5459028 ] } },
{ "type": "Feature", "properties": { "ccd_name": "Trimming of branches in government / public place / road", "com_location": " 32/B/121, Varkhade Nagar, Gijar Vasti, Katraj, Pune, Maharashtra 411046, India " }, "geometry": { "type": "Point", "coordinates": [ 73.8645725, 18.4434631 ] } },
{ "type": "Feature", "properties": { "ccd_name": "Others road", "com_location": "Bopodi - Aundh road, Pune, Maharashtra" }, "geometry": { "type": "Point", "coordinates": [ 73.8337563, 18.5623815 ] } },
{ "type": "Feature", "properties": { "ccd_name": "Repair/re-sufacing of roads/footpaths", "com_location": "SH-44 Bramha Majestic BL, B-6-SN-15/1/1, Kondhwa Kadinibm Road, Bramha Avenue Society, Shreehans Nagar, Kondhwa, Pune, Maharashtra 411048, India" }, "geometry": { "type": "Point", "coordinates": [ 73.886098994898987, 18.478208604020185 ] } },
{ "type": "Feature", "properties": { "ccd_name": "Development of Bridge , Sub-ways & Pedestrian", "com_location": "vAkaDevADI St  navIna basa AgAra va AgArAchyA samora palIkaDIla bAjUsa asaNArA siTI basa sTa pa ( sArvajAnika shauchAlaya shejArI) yAMchyA madhye skAya va ka (lokhaMDI pUla), Pune, Maharashtra" }, "geometry": { "type": "Point", "coordinates": [ 73.8786239, 18.5246091 ] } },
{ "type": "Feature", "properties": { "ccd_name": "Repair/re-sufacing of roads/footpaths", "com_location": "Mitra housing society \r\nModel colony \r\nShivaji nagar\r\n411016, Pune, Maharashtra" }, "geometry": { "type": "Point", "coordinates": [ 73.8374954, 18.5324846 ] } },
{ "type": "Feature", "properties": { "ccd_name": "Others road", "com_location": "Pune University main chuk Ganeshkhind Rd, Pune, Maharashtra 411007" }, "geometry": { "type": "Point", "coordinates": [ 73.8245935, 18.5530759 ] } },
{ "type": "Feature", "properties": { "ccd_name": "Repair/re-sufacing of roads/footpaths", "com_location": "Swami Samrtha Math Front of  WSb Bakers Uttareshwar Nagar Lohgaon Pune 411047" }, "geometry": { "type": "Point", "coordinates": [ 73.924319, 18.5992531 ] } },
{ "type": "Feature", "properties": { "ccd_name": "Sweeping /cleaning the road", "com_location": "Riddhi Enclave 2 Ananda Vidya Niketan High School Road Viman Nagar Pune 411014" }, "geometry": { "type": "Point", "coordinates": [ 73.9170374, 18.5678889 ] } },
{ "type": "Feature", "properties": { "ccd_name": "Repair/re-sufacing of roads/footpaths", "com_location": "This is between kondhwa Dmart and Punnyadham Ashram, Pune, Maharashtra" }, "geometry": { "type": "Point", "coordinates": [ 73.9005099, 18.4600957 ] } },
{ "type": "Feature", "properties": { "ccd_name": "Others road", "com_location": "Mental  corner and Post office ( Jail Road ) ,Yerwada ,, Pune, Maharashtra" }, "geometry": { "type": "Point", "coordinates": [ 73.8852597, 18.5638985 ] } },
{ "type": "Feature", "properties": { "ccd_name": "Repairing potholes on Road", "com_location": "1272  Thorat Estates\r\nopp Deccan Gymkhana post office\r\nnear Garware circal\r\nat \r\nout side of Mayoor Dresses shop, Pune, Maharashtra" }, "geometry": { "type": "Point", "coordinates": [ 73.8424082, 18.5149726 ] } },
{ "type": "Feature", "properties": { "ccd_name": "Others road", "com_location": " dArUvAlA pUla maMDaLa samora ANi maMDaLa puDhe shejArI sarakArI naLA shejArI , Pune, Maharashtra" }, "geometry": { "type": "Point", "coordinates": [ 73.8786239, 18.5246091 ] } },
{ "type": "Feature", "properties": { "ccd_name": "Repair/re-sufacing of roads/footpaths", "com_location": "dAMgaTa iMDasTriyala isTeTa dusarI kamAna, shivaNe puNe 23 ," }, "geometry": { "type": "Point", "coordinates": [ 73.7786684, 18.4670703 ] } },
{ "type": "Feature", "properties": { "ccd_name": "Repair/re-sufacing of roads/footpaths", "com_location": "1454, Sadashiv Peth Rd, Perugate, Sadashiv Peth, Pune, Maharashtra 411030, India" }, "geometry": { "type": "Point", "coordinates": [ 73.849829073342889, 18.50988773277501 ] } },
{ "type": "Feature", "properties": { "ccd_name": "Others road", "com_location": "sthaLa : Dr bAbAsAheba AMbeDakara chauka, #vAraje, Pune, Maharashtra" }, "geometry": { "type": "Point", "coordinates": [ 73.796834, 18.4864727 ] } },
{ "type": "Feature", "properties": { "ccd_name": "Others road", "com_location": "Kharadi Parmar Square, Pune, Maharashtra" }, "geometry": { "type": "Point", "coordinates": [ 73.9390361, 18.5503972 ] } },
{ "type": "Feature", "properties": { "ccd_name": "Repair/re-sufacing of roads/footpaths", "com_location": "Upper Indira Nagar Corner From Mango Mata Mandirakade Road, Pune, Maharashtra" }, "geometry": { "type": "Point", "coordinates": [ 73.9570345, 18.5212272 ] } },
{ "type": "Feature", "properties": { "ccd_name": "Fallen tree on road", "com_location": "lane no 13 e akshat classic society pragati chouk front of jay vaishnavi computer institute tingare nagar pune " }, "geometry": { "type": "Point", "coordinates": [ 73.8930827, 18.575865 ] } },
{ "type": "Feature", "properties": { "ccd_name": "Repair/re-sufacing of roads/footpaths", "com_location": "668A, Perugate, Sadashiv Peth, Pune, Maharashtra 411030, India" }, "geometry": { "type": "Point", "coordinates": [ 73.852259, 18.513259 ] } },
{ "type": "Feature", "properties": { "ccd_name": "Others road", "com_location": " pAMDavadaMDa phurasuMgI rastA vara,pune" }, "geometry": { "type": "Point", "coordinates": [ 73.7865743, 18.5613061 ] } },
{ "type": "Feature", "properties": { "ccd_name": "Others road", "com_location": "Panchawati, Gokhalenagar, Pune, Maharashtra 411008" }, "geometry": { "type": "Point", "coordinates": [ 73.8117632, 18.5309553 ] } },
{ "type": "Feature", "properties": { "ccd_name": "Repairing potholes on Road", "com_location": "opp Sanman Car Decor # Ambegaon -katraj Road , Pune. 03. " }, "geometry": { "type": "Point", "coordinates": [ 73.8484528, 18.4492369 ] } },
{ "type": "Feature", "properties": { "ccd_name": "Trimming of branches in Roadside trees", "com_location": "Range hill road \r\nOpposite to daulata baMgalA near bank of Baroda branch Ashok nagar, Pune, Maharashtra" }, "geometry": { "type": "Point", "coordinates": [ 73.8382025, 18.5426299 ] } },
{ "type": "Feature", "properties": { "ccd_name": "Others road", "com_location": "15/1/2, Tilekar Nagar, Hadapsar, Pune, Maharashtra 411028, India" }, "geometry": { "type": "Point", "coordinates": [ 73.9248443, 18.5075682 ] } },
{ "type": "Feature", "properties": { "ccd_name": "Others road", "com_location": "'Swargate Chowk' of Pune" }, "geometry": { "type": "Point", "coordinates": [ 73.8581559, 18.4987196 ] } },
{ "type": "Feature", "properties": { "ccd_name": "Others road", "com_location": "Address : Canopy society,Gokul nagar chowk,katraj-46 Road Direction starts with the ekadashi hotel and touches us with main highway.\"\t, Pune, Maharashtra" }, "geometry": { "type": "Point", "coordinates": [ 73.873515, 18.4470625 ] } },
{ "type": "Feature", "properties": { "ccd_name": "Repair/re-sufacing of roads/footpaths", "com_location": "Kumar Princetown near Sanskriti school leading towards Bajirao Road, Pune, Maharashtra" }, "geometry": { "type": "Point", "coordinates": [ 73.9041164, 18.4602509 ] } },
{ "type": "Feature", "properties": { "ccd_name": "Repairing potholes on Road", "com_location": "Kesnand Rd, Wagholi, Pune, Maharashtra 412207, India" }, "geometry": { "type": "Point", "coordinates": [ 73.9969703, 18.5778896 ] } },
{ "type": "Feature", "properties": { "ccd_name": "Others road", "com_location": " parla sosAyaTI  bAlevADI , Pune, Maharashtra" }, "geometry": { "type": "Point", "coordinates": [ 73.7706807, 18.5788913 ] } },
{ "type": "Feature", "properties": { "ccd_name": "Others road", "com_location": "Navi Peth near Sachin Tendulkar Garden., Pune, Maharashtra" }, "geometry": { "type": "Point", "coordinates": [ 73.840436, 18.506821 ] } },
{ "type": "Feature", "properties": { "ccd_name": "Trimming of branches in government / public place / road", "com_location": "Bang garden burning ghat road\" Near gera society, Pune, Maharashtra" }, "geometry": { "type": "Point", "coordinates": [ 73.8892521, 18.542204 ] } },
{ "type": "Feature", "properties": { "ccd_name": "Repairing potholes on Road", "com_location": "Park Ridge road, New baner pashan link road, pashan., Pune, Maharashtra" }, "geometry": { "type": "Point", "coordinates": [ 73.7911009, 18.5480592 ] } },
{ "type": "Feature", "properties": { "ccd_name": "Sweeping /cleaning the road", "com_location": "prabhAga na.29 shanI maMdira mAge, bAuddha vihAra lena, dattavADI oTA kramAMka 71 yethe rastyAvarIla , Pune, Maharashtra" }, "geometry": { "type": "Point", "coordinates": [ 73.8384476, 18.4961383 ] } },
{ "type": "Feature", "properties": { "ccd_name": "Repairing potholes on Road", "com_location": "26.2, Tukaram Nagar, Kharadi, Pune, Maharashtra 411014" }, "geometry": { "type": "Point", "coordinates": [ 73.9315733, 18.5493214 ] } },
{ "type": "Feature", "properties": { "ccd_name": "Others road", "com_location": "svArageTa yethIla lakShmInArAyaNa chitrapaTa gRRihAsamora vholagA chauka, Pune, Maharashtra" }, "geometry": { "type": "Point", "coordinates": [ 73.8786239, 18.5246091 ] } },
{ "type": "Feature", "properties": { "ccd_name": "Repair/re-sufacing of roads/footpaths", "com_location": "Shri Home Housing Society, Wadgaon Sheri, Pune, Maharashtra 411014" }, "geometry": { "type": "Point", "coordinates": [ 73.9234903, 18.5565424 ] } },
{ "type": "Feature", "properties": { "ccd_name": "Repairing potholes on Road", "com_location": "Somji Dmart to Punyadham ashram pune 411048" }, "geometry": { "type": "Point", "coordinates": [ 73.9005099, 18.4600957 ] } },
{ "type": "Feature", "properties": { "ccd_name": "Others road", "com_location": "Arihant Avenue Divya Nagar Wanwadi Gaon near shivaji maharaj Statue Pune" }, "geometry": { "type": "Point", "coordinates": [ 73.8972194, 18.4959176 ] } },
{ "type": "Feature", "properties": { "ccd_name": "Repair/re-sufacing of roads/footpaths", "com_location": "Shubh evan, Keshavnagar Pune - 411036" }, "geometry": { "type": "Point", "coordinates": [ 73.9461402, 18.5389093 ] } },
{ "type": "Feature", "properties": { "ccd_name": "Others road", "com_location": "pattA: rAjeMdranagara, anaMta kAnhere patha, navI peTha, puNe 30" }, "geometry": { "type": "Point", "coordinates": [ 73.842892, 18.5048641 ] } },
{ "type": "Feature", "properties": { "ccd_name": "Fallen tree on road", "com_location": "parvati gaon in front of purohit hospital pune 411009" }, "geometry": { "type": "Point", "coordinates": [ 73.8514974, 18.4976041 ] } },
{ "type": "Feature", "properties": { "ccd_name": "Repairing potholes on Road (HO)", "com_location": "ka.cla-sa phTa kaMpanI chA AtalA rastA, athashrI pebalsa sosAyaTI, bAvadhana., Pune, Maharashtra" }, "geometry": { "type": "Point", "coordinates": [ 73.7670914, 18.5218234 ] } },
{ "type": "Feature", "properties": { "ccd_name": "Trimming of branches in Roadside trees", "com_location": "479 ghorapaDe peTha, jhagaDevADI pAyaguDe nivAsa , Pune, Maharashtra" }, "geometry": { "type": "Point", "coordinates": [ 73.8630475, 18.50135 ] } },
{ "type": "Feature", "properties": { "ccd_name": "Fallen tree on road", "com_location": "pattA. shrIdhara nagara, dhanakavaDI bhAratI hospital samora, Pune, Maharashtra" }, "geometry": { "type": "Point", "coordinates": [ 73.8580541, 18.4606988 ] } },
{ "type": "Feature", "properties": { "ccd_name": "Lifiting of debris on road and footpath", "com_location": "Late Laxmibai Shetiba, 101/23, Dhotre Path, Janwadi, Gokhalenagar, Pune, Maharashtra 411016" }, "geometry": { "type": "Point", "coordinates": [ 73.8339797, 18.5328218 ] } },
{ "type": "Feature", "properties": { "ccd_name": "Others road", "com_location": "Location - Rahul East view Society, Kale Padal, Hadapsar. , Pune, Maharashtra" }, "geometry": { "type": "Point", "coordinates": [ 73.9446846, 18.4863343 ] } },
{ "type": "Feature", "properties": { "ccd_name": "Repairing potholes on Road", "com_location": "kailAsa jIvana kArakhAnA samora, dhAyarI narhe roDa dhAyarI \r\n, Pune, Maharashtra" }, "geometry": { "type": "Point", "coordinates": [ 73.8223717, 18.4461631 ] } },
{ "type": "Feature", "properties": { "ccd_name": "Repair/re-sufacing of roads/footpaths", "com_location": "swaroop colony plot no 15 anand nagar Sinhgad Road pune 51" }, "geometry": { "type": "Point", "coordinates": [ 73.8244939, 18.4718677 ] } },
{ "type": "Feature", "properties": { "ccd_name": "Others (Road Project(H.O))", "com_location": "NEAR JESTHA NAGARIK SANGH KENDRA - GANPATI MANDIR, GANESH CHOWK, AMBEGAON PATHAR, , Pune, Maharashtra" }, "geometry": { "type": "Point", "coordinates": [ 73.8426415, 18.4587777 ] } },
{ "type": "Feature", "properties": { "ccd_name": "Repair/re-sufacing of roads/footpaths", "com_location": " pAnasarenagara, lena naMbara 3, koMDhavA bu. yevalevADI, puNe - 411048.  " }, "geometry": { "type": "Point", "coordinates": [ 73.8963496, 18.4363212 ] } },
{ "type": "Feature", "properties": { "ccd_name": "Others road", "com_location": "715 guruwar peth khadak mal ali near st teresa church pune 411042" }, "geometry": { "type": "Point", "coordinates": [ 73.8595401, 18.5039821 ] } },
{ "type": "Feature", "properties": { "ccd_name": "Fallen tree on road", "com_location": "crystal avenue society shejari kapil malhar society samor Shinde parkhe mala baner , Pune, Maharashtra" }, "geometry": { "type": "Point", "coordinates": [ 73.7915403, 18.5597926 ] } },
{ "type": "Feature", "properties": { "ccd_name": "Repair/re-sufacing of roads/footpaths", "com_location": "Shanti nagar chowk to PGKM school kondhwa bk near appar depo pune 411048" }, "geometry": { "type": "Point", "coordinates": [ 73.8778193, 18.4640864 ] } },
{ "type": "Feature", "properties": { "ccd_name": "Sweeping /cleaning the road", "com_location": "DANGAT  Industrial Estate Agrawal godown near Bhosle building Rohan packaging, Pune, Maharashtra" }, "geometry": { "type": "Point", "coordinates": [ 73.7909207, 18.4697988 ] } },
{ "type": "Feature", "properties": { "ccd_name": "Repairing potholes on Road", "com_location": "taniShka kasiTA sahakArI gRRihanirmANa saMsthA AMbegAva budruka puNe " }, "geometry": { "type": "Point", "coordinates": [ 73.8306278, 18.456677 ] } },
{ "type": "Feature", "properties": { "ccd_name": "Sweeping /cleaning the road", "com_location": "Adarsha nagara , Pune, Maharashtra" }, "geometry": { "type": "Point", "coordinates": [ 73.8491871, 18.4677507 ] } },
{ "type": "Feature", "properties": { "ccd_name": "Others road", "com_location": "oma sAI rasavaMtI gRRiha, muktAMgaNa shALejavaLa, araNeshvara roDa, puNe 09 " }, "geometry": { "type": "Point", "coordinates": [ 73.8518184, 18.4855607 ] } },
{ "type": "Feature", "properties": { "ccd_name": "Repairing potholes on Road", "com_location": "Skyway Sarno Road Near DY Patil College Lohgaon Pune 411047" }, "geometry": { "type": "Point", "coordinates": [ 73.9174847, 18.6094908 ] } },
{ "type": "Feature", "properties": { "ccd_name": "Repair/re-sufacing of roads/footpaths", "com_location": "opposite Reliance Centro till 1 Modibaug on Ganeshkhind Road, Shivajinagar, , Pune, Maharashtra" }, "geometry": { "type": "Point", "coordinates": [ 73.8424892, 18.5337925 ] } },
{ "type": "Feature", "properties": { "ccd_name": "Others road", "com_location": "chALa 57 parvatI darshana polIsa chaukI javaLa, Pune, Maharashtra" }, "geometry": { "type": "Point", "coordinates": [ 73.8550849, 18.4947486 ] } },
{ "type": "Feature", "properties": { "ccd_name": "Sweeping /cleaning the road", "com_location": "sarve naMbara 17 lena naMbara chAra guDavila shALe shejArI ,PUNE" }, "geometry": { "type": "Point", "coordinates": [ 73.8494578, 18.5179323 ] } },
{ "type": "Feature", "properties": { "ccd_name": "Fallen tree on road", "com_location": "Ivory Estates Baner  Opp Tiara soc, Pune, Maharashtra" }, "geometry": { "type": "Point", "coordinates": [ 73.8014545, 18.5517644 ] } },
{ "type": "Feature", "properties": { "ccd_name": "Repair/re-sufacing of roads/footpaths", "com_location": "GOLD FINCH, NIGHTINGALE APARTMENT, nyAtI kAuMTI, mohammada vADI, autAMDavADI hAMDevADI, puNe, mahArAShTra 411060, India" }, "geometry": { "type": "Point", "coordinates": [ 73.9228011, 18.4628116 ] } },
{ "type": "Feature", "properties": { "ccd_name": "Repair/re-sufacing of roads/footpaths", "com_location": "sthaLa - jupiTara ha spiTala bANera puNe. \r\n" }, "geometry": { "type": "Point", "coordinates": [ 73.8786239, 18.5246091 ] } },
{ "type": "Feature", "properties": { "ccd_name": "Others road", "com_location": "Area: Rakshaknagar Gold Society Road, Kharadi, Pune-14" }, "geometry": { "type": "Point", "coordinates": [ 73.9411813, 18.5511703 ] } },
{ "type": "Feature", "properties": { "ccd_name": "Lifiting of debris on road and footpath (HO)", "com_location": "No. 418, C/o Dr. M N Natu, Omkareshwar Path, Shaniwar Peth, Pune, Maharashtra 411030, India" }, "geometry": { "type": "Point", "coordinates": [ 73.8499823, 18.5195964 ] } },
{ "type": "Feature", "properties": { "ccd_name": "Fallen tree on road", "com_location": "Outside Silver Breeze Apartment and Kadunimb tree inside Bapuji Krupa Apartment in Bhonde Colony\r\n , Pune, Maharashtra" }, "geometry": { "type": "Point", "coordinates": [ 73.8344341, 18.512322 ] } },
{ "type": "Feature", "properties": { "ccd_name": "Repairing potholes on Road", "com_location": "near Padmavati Mandir Pisoli,\r\nCWX5+M4Q Pune, Maharashtra" }, "geometry": { "type": "Point", "coordinates": [ 73.908139300000016, 18.4492837 ] } },
{ "type": "Feature", "properties": { "ccd_name": "Others road", "com_location": "Near Muktangan School..Arunoday Society to Trazer park road , Pune, Maharashtra" }, "geometry": { "type": "Point", "coordinates": [ 73.8337213, 18.5576133 ] } },
{ "type": "Feature", "properties": { "ccd_name": "Repair/re-sufacing of roads/footpaths", "com_location": "from p. l. deshpande garden to rohan kritika, sinhagad road., Pune, Maharashtra" }, "geometry": { "type": "Point", "coordinates": [ 73.8340091, 18.4905923 ] } },
{ "type": "Feature", "properties": { "ccd_name": "Repairing potholes on Road", "com_location": "BHUSARI COLONY SAGAR COLONY SHANTI BAN, Pune, Maharashtra" }, "geometry": { "type": "Point", "coordinates": [ 73.8012855, 18.5032222 ] } },
{ "type": "Feature", "properties": { "ccd_name": "Repairing potholes on Road", "com_location": "ghole roDa niyara yuniyana ba.Nka, Pune, Maharashtra" }, "geometry": { "type": "Point", "coordinates": [ 73.8447579, 18.5240989 ] } },
{ "type": "Feature", "properties": { "ccd_name": "Sweeping /cleaning the road", "com_location": "gulaTekaDI bhAgA madhye,pune " }, "geometry": { "type": "Point", "coordinates": [ 73.8704877, 18.4877372 ] } },
{ "type": "Feature", "properties": { "ccd_name": "Repair/re-sufacing of roads/footpaths", "com_location": "Wadachiwadi undri Wadachi Wadi Road Wadachi Wadi Undri Pune Maharashtra India" }, "geometry": { "type": "Point", "coordinates": [ 73.9244921, 18.4366692 ] } },
{ "type": "Feature", "properties": { "ccd_name": "Others road", "com_location": "svAmI vivekAnaMda rastyAvarIla dugaDa chauka sAtArA rastA, siTI prAiDa thieTarachyAM puDhachyA chaukAtIla bhuyArI mArga 411037, Pune, Maharashtra" }, "geometry": { "type": "Point", "coordinates": [ 73.8786239, 18.5246091 ] } },
{ "type": "Feature", "properties": { "ccd_name": "Sweeping /cleaning the road", "com_location": "Sankalp Bunglow, Siddhivinayak Soc, Jambhulwadi road, Off viva sarovar bus stop. Ambegaon -46, Pune, Maharashtra" }, "geometry": { "type": "Point", "coordinates": [ 73.8449388, 18.4315096 ] } },
{ "type": "Feature", "properties": { "ccd_name": "Repairing potholes on Road", "com_location": "Address:  in front of The Laurels society,DP road Malawadi hadapsar Pune 411028" }, "geometry": { "type": "Point", "coordinates": [ 73.9416834, 18.505384 ] } },
{ "type": "Feature", "properties": { "ccd_name": "Repair/re-sufacing of roads/footpaths", "com_location": "Sr No 39 Aundh Road Ambedkar Chauk Chawan Wasti Pune 411020" }, "geometry": { "type": "Point", "coordinates": [ 73.8308329, 18.5628196 ] } },
{ "type": "Feature", "properties": { "ccd_name": "Repair/re-sufacing of roads/footpaths", "com_location": "HW3G+93G, Sri Nagar Society, Anand Park, Wadgaon Sheri, Pune, Maharashtra 411014, India" }, "geometry": { "type": "Point", "coordinates": [ 73.925261, 18.553487 ] } },
{ "type": "Feature", "properties": { "ccd_name": "Others road", "com_location": "Bella Casa to Vibgyor School, Sus , Pune, Maharashtra" }, "geometry": { "type": "Point", "coordinates": [ 73.7532189, 18.5534027 ] } },
{ "type": "Feature", "properties": { "ccd_name": "Others (Road Project(H.O))", "com_location": "https://maps.app.goo.gl/zxbKppuD1ZqXzTS18 pla.cTinama 9 sha piMga ma lachyA AdhI, mAuMTa yunika resiDensa naMtara, Pune, Maharashtra" }, "geometry": { "type": "Point", "coordinates": [ 73.827727, 18.5241651 ] } },
{ "type": "Feature", "properties": { "ccd_name": "Repairing potholes on Road", "com_location": "puNe manapA haddItIla nAMdoshI-kirakaTavADI " }, "geometry": { "type": "Point", "coordinates": [ 73.7957514, 18.4332515 ] } },
{ "type": "Feature", "properties": { "ccd_name": "Fallen tree on road", "com_location": "434 shukrawar peth behind pramod mahajan vyayam shala subhash nagar Vanje wada samor pune 411002" }, "geometry": { "type": "Point", "coordinates": [ 73.8587027, 18.5053954 ] } },
{ "type": "Feature", "properties": { "ccd_name": "Repair/re-sufacing of roads/footpaths", "com_location": "koMDhavA bu, PGKM shALepuDhe, jaya gurudeva mArbalsa samora, heriTeja sosAyaTI javaLa, sAvakAshanagarache puDhe, puNe-48" }, "geometry": { "type": "Point", "coordinates": [ 73.9531189, 18.5646495 ] } },
{ "type": "Feature", "properties": { "ccd_name": "Others road", "com_location": " Location - 411058, Warje, Rosary School Underpass. , Pune, Maharashtra" }, "geometry": { "type": "Point", "coordinates": [ 73.796834, 18.4864727 ] } },
{ "type": "Feature", "properties": { "ccd_name": "Repairing potholes on Road", "com_location": "pAnagaMjI chauka, pavAravADyAsamora , guruvAra peTha, Pune, Maharashtra" }, "geometry": { "type": "Point", "coordinates": [ 73.8440548, 18.5082486 ] } },
{ "type": "Feature", "properties": { "ccd_name": "Sweeping /cleaning the road", "com_location": "nanasaheb shendkar road and road in front of shiva chhatrapathi housing society, Pune, Maharashtra" }, "geometry": { "type": "Point", "coordinates": [ 73.8472373, 18.5144554 ] } },
{ "type": "Feature", "properties": { "ccd_name": "Others road", "com_location": "near grand stand that vedbhavan services road lane, Pune, Maharashtra" }, "geometry": { "type": "Point", "coordinates": [ 73.8987736, 18.5163474 ] } },
{ "type": "Feature", "properties": { "ccd_name": "Repairing potholes on Road", "com_location": "sr no 58, SBI lane Shikshak society, in front of Mataji Super Market, Pune, Maharashtra" }, "geometry": { "type": "Point", "coordinates": [ 73.8284521, 18.5050747 ] } },
{ "type": "Feature", "properties": { "ccd_name": "Repairing potholes on Road", "com_location": "The road from Kakdewasti to Swami Vivekananda Udhyan Kondhwa Budruk 411048, Pune, Maharashtra" }, "geometry": { "type": "Point", "coordinates": [ 73.87941, 18.462094 ] } },
{ "type": "Feature", "properties": { "ccd_name": "Fallen tree on road", "com_location": "warje service road RMD opposite sinhgad college , Pune, Maharashtra" }, "geometry": { "type": "Point", "coordinates": [ 73.7958662, 18.4873983 ] } },
{ "type": "Feature", "properties": { "ccd_name": "Sweeping /cleaning the road", "com_location": "In front of datta mandir and vimal nivas, pragati garden, mundhwa, pune 411036" }, "geometry": { "type": "Point", "coordinates": [ 73.9343518, 18.5309022 ] } },
{ "type": "Feature", "properties": { "ccd_name": "Trimming of branches in government / public place / road", "com_location": " vArDa 21- koregAMva pArka puNe 411001- gulamohara gArDana sosAyaTIchI " }, "geometry": { "type": "Point", "coordinates": [ 73.8765372, 18.5038196 ] } },
{ "type": "Feature", "properties": { "ccd_name": "Repair/re-sufacing of roads/footpaths", "com_location": "SR.NO.18/2, LANE NO.B1/19.RAYKAR NAGAR, DHAYRI PUNE 41" }, "geometry": { "type": "Point", "coordinates": [ 73.8127734, 18.4551928 ] } },
{ "type": "Feature", "properties": { "ccd_name": "Others road", "com_location": "Dharmavat, Corner Budruk, Kondhwa Main Rd, opposite Ranka Jewellers, Kondhwa, Pune, Maharashtra 411048, India" }, "geometry": { "type": "Point", "coordinates": [ 73.889980558638996, 18.462781016775999 ] } },
{ "type": "Feature", "properties": { "ccd_name": "Sweeping /cleaning the road", "com_location": "Allure Society, Survey No. 218, Parkhe Shinde Mala, Baner, Pune - 411045." }, "geometry": { "type": "Point", "coordinates": [ 73.795328, 18.5613854 ] } },
{ "type": "Feature", "properties": { "ccd_name": "Repair/re-sufacing of roads/footpaths", "com_location": "Mundhwa Bridge Santipur Thite Nagar Kharadi Pune Maharashtra India" }, "geometry": { "type": "Point", "coordinates": [ 73.9342652, 18.5373655 ] } },
{ "type": "Feature", "properties": { "ccd_name": "Others road", "com_location": "Location: Opp. PoonamBakery #PashanSusRoad \r\n, Pune, Maharashtra" }, "geometry": { "type": "Point", "coordinates": [ 73.7940097, 18.5399636 ] } },
{ "type": "Feature", "properties": { "ccd_name": "Others road", "com_location": " Narayan Peth Pune patrya Maruti chowk " }, "geometry": { "type": "Point", "coordinates": [ 73.8500831, 18.5153635 ] } },
{ "type": "Feature", "properties": { "ccd_name": "Repairing potholes on Road", "com_location": "Satav auto care ,  old Mundhwa road, pune-411014./ Location:- Sangharsha chowk, Biryani line, Sudama bhel, Kharadi -411014." }, "geometry": { "type": "Point", "coordinates": [ 73.9272507, 18.5600029 ] } },
{ "type": "Feature", "properties": { "ccd_name": "Others road", "com_location": "Narrow Pavement -Baltuka Corner to Pebbles urbania , Bavdhan BK, Pune, Maharashtra" }, "geometry": { "type": "Point", "coordinates": [ 73.7737101, 18.5137658 ] } },
{ "type": "Feature", "properties": { "ccd_name": "Trimming of branches in government / public place / road", "com_location": "Sinhgad road , umbary ganpati chowk to DSk vishwa , pune " }, "geometry": { "type": "Point", "coordinates": [ 73.8033639, 18.4571619 ] } },
{ "type": "Feature", "properties": { "ccd_name": "Fallen tree on road", "com_location": "Clover Crescent Coop Hdg Soc. Viman nagar, Pune, Maharashtra" }, "geometry": { "type": "Point", "coordinates": [ 73.9207615, 18.5660631 ] } },
{ "type": "Feature", "properties": { "ccd_name": "Others road", "com_location": "mohamadavADI yethIla pIra maMdirAkaDe jANARyA roDa, Pune, Maharashtra" }, "geometry": { "type": "Point", "coordinates": [ 73.8786239, 18.5246091 ] } },
{ "type": "Feature", "properties": { "ccd_name": "Others road", "com_location": "136/1, 3rd Floor, Srushti Elegance, Balewadi Phata, Baner Balewadi Phata, Baner Pune, Maharashtra 411045, near Salt Hotel" }, "geometry": { "type": "Point", "coordinates": [ 73.7840211, 18.5645362 ] } },
{ "type": "Feature", "properties": { "ccd_name": "Others road", "com_location": "pa.cnakArDa klaba roDa\r\nbANera - puNe 45" }, "geometry": { "type": "Point", "coordinates": [ 73.8786239, 18.5246091 ] } },
{ "type": "Feature", "properties": { "ccd_name": "Lifiting of debris on road and footpath", "com_location": "Shop No 04, Api Address : Shukhanand Complex, Kai Vishwanath Bolhuji Hole Road, Gokhalenagar, Satavwadi, Hadapsar, Pune, Maharashtra 411028" }, "geometry": { "type": "Point", "coordinates": [ 73.9478532, 18.4948885 ] } },
{ "type": "Feature", "properties": { "ccd_name": "Trimming of branches in Roadside trees", "com_location": "Kumar Selena Whispering Wind Society Rd Pashan Pune Maharashtra India" }, "geometry": { "type": "Point", "coordinates": [ 73.7934186, 18.5492272 ] } },
{ "type": "Feature", "properties": { "ccd_name": "Others road", "com_location": "Hadapsar railway station to Mundhwa gaon, Pune, Maharashtra" }, "geometry": { "type": "Point", "coordinates": [ 73.9278195, 18.5269591 ] } },
{ "type": "Feature", "properties": { "ccd_name": "Others road", "com_location": "kotharuDa gAvaThANa mhAtobA maMdira mAge rastyA, Pune, Maharashtra" }, "geometry": { "type": "Point", "coordinates": [ 73.8028276, 18.5642859 ] } },
{ "type": "Feature", "properties": { "ccd_name": "Repairing potholes on Road", "com_location": "gopInAtha muMDe vyAyAma shALA hagavaNe vastI koMDhavA budruka puNe 411048." }, "geometry": { "type": "Point", "coordinates": [ 73.8754258, 18.4504283 ] } },
{ "type": "Feature", "properties": { "ccd_name": "Others road", "com_location": "sarve naMbara 3 lena naMbara 10  lakShmI nagara koMDhavA budruka Pune 48 " }, "geometry": { "type": "Point", "coordinates": [ 73.8828145, 18.5524478 ] } },
{ "type": "Feature", "properties": { "ccd_name": "Repairing potholes on Road", "com_location": "AMbegAva paThAra polIsa sTeshana samora niragila chauka te rAma maMdira AMbegAva paThAra puNe 411046  " }, "geometry": { "type": "Point", "coordinates": [ 73.859549, 18.4321722 ] } },
{ "type": "Feature", "properties": { "ccd_name": "Lifiting of debris on road and footpath (HO)", "com_location": "Tower C, C/5, Samarth Colony, Baner, Pune, Maharashtra 411045, India" }, "geometry": { "type": "Point", "coordinates": [ 73.773818969727003, 18.55676651001 ] } },
{ "type": "Feature", "properties": { "ccd_name": "Repair/re-sufacing of roads/footpaths", "com_location": "sharmA ANi kaMpanI ,keLakara roDa nArAyaNa peTha , kesarIvADA basa sTa pa samora , AThavale DearI samora., Pune, Maharashtra" }, "geometry": { "type": "Point", "coordinates": [ 73.848911, 18.51621 ] } },
{ "type": "Feature", "properties": { "ccd_name": "Lifiting of debris on road and footpath", "com_location": "pauMDa roDa, ema.rA.vidhuta vitaraNa kaMpanI javaLa.rAmabAga ka lanI kotharuDa , Pune, Maharashtra" }, "geometry": { "type": "Point", "coordinates": [ 73.8786239, 18.5246091 ] } },
{ "type": "Feature", "properties": { "ccd_name": "Repair/re-sufacing of roads/footpaths", "com_location": "66,Silver spring apartment Pancard club road Baner Near krushna medical\r\n Pune 411045" }, "geometry": { "type": "Point", "coordinates": [ 73.7759409, 18.5590066 ] } },
{ "type": "Feature", "properties": { "ccd_name": "Repair/re-sufacing of roads/footpaths", "com_location": "Location:Shri Swami Samarth Society, Main Gate, Sus Road, Pashan, Pune, Maharashtra" }, "geometry": { "type": "Point", "coordinates": [ 73.7838441, 18.5440545 ] } },
{ "type": "Feature", "properties": { "ccd_name": "Repairing potholes on Road", "com_location": "Dhanori DP Junction  (Bharat Mata Road) at Dhanori Jakat Naka (411015)\r\nDhanori DP Road (Bharat Mata Road) near Water tank junction , Pune, Maharashtra" }, "geometry": { "type": "Point", "coordinates": [ 73.907267, 18.5971101 ] } },
{ "type": "Feature", "properties": { "ccd_name": "Repair/re-sufacing of roads/footpaths", "com_location": "Diamond Water Park Road,\r\nRohan Abhilasha Phase 2,\r\nGAT No 1447(P), Wagholi, Maharashtra 412207, Pune, Maharashtra" }, "geometry": { "type": "Point", "coordinates": [ 73.9592167, 18.5978536 ] } },
{ "type": "Feature", "properties": { "ccd_name": "Repair/re-sufacing of roads/footpaths", "com_location": "7/Mula road in front of Dass Automobiles.pune" }, "geometry": { "type": "Point", "coordinates": [ 73.8559163, 18.5508607 ] } },
{ "type": "Feature", "properties": { "ccd_name": "Others road", "com_location": "FV6H+QP7, Kondhwa Budruk, Pune, Maharashtra 411048, India" }, "geometry": { "type": "Point", "coordinates": [ 73.879268, 18.4618108 ] } },
{ "type": "Feature", "properties": { "ccd_name": "Others road", "com_location": "from Gate 4, Hills and Dales to Sanskriti school main gate, Pune, Maharashtra" }, "geometry": { "type": "Point", "coordinates": [ 73.9332071, 18.5151482 ] } },
{ "type": "Feature", "properties": { "ccd_name": "Others road", "com_location": " keshavanagara AnaMda nagara, lena 2 madhIla rastyAvara, Pune, Maharashtra" }, "geometry": { "type": "Point", "coordinates": [ 73.8786239, 18.5246091 ] } },
{ "type": "Feature", "properties": { "ccd_name": "Repair/re-sufacing of roads/footpaths", "com_location": "Kondhwa NIBM road to magarpatta road pune " }, "geometry": { "type": "Point", "coordinates": [ 73.9323078, 18.5267015 ] } },
{ "type": "Feature", "properties": { "ccd_name": "Repair/re-sufacing of roads/footpaths", "com_location": "AbAsAheba garavAre mahAvidyAlaya karve roDa geTa kramAMka 3 seMTara ma la ka rnara Ayurvedika rasashALA ha spiTala, saMjIvana ha spiTala , Pune, Maharashtra" }, "geometry": { "type": "Point", "coordinates": [ 73.8368473, 18.5110819 ] } },
{ "type": "Feature", "properties": { "ccd_name": "Others road", "com_location": "saptagirI sosAyaTI sarve naM 51 jAMbhulavADI roDa AMbegAMva khurda puNe 46" }, "geometry": { "type": "Point", "coordinates": [ 73.8489582, 18.4459986 ] } },
{ "type": "Feature", "properties": { "ccd_name": "Repair/re-sufacing of roads/footpaths", "com_location": "Chandrai spandan Near Narayani Dham Temple Wonder city Road , Pune, Maharashtra" }, "geometry": { "type": "Point", "coordinates": [ 73.8534156, 18.4525384 ] } },
{ "type": "Feature", "properties": { "ccd_name": "Repair/re-sufacing of roads/footpaths", "com_location": "Susgaon roads  Area Pin 411021 Susgaon , Pune, Maharashtra" }, "geometry": { "type": "Point", "coordinates": [ 73.7542646, 18.5532653 ] } },
{ "type": "Feature", "properties": { "ccd_name": "Repairing potholes on Road", "com_location": "Shop no 2, Building, 3, behind Mahesh Society, Umashankar Society, Mahesh Society, Bibwewadi, Pune, Maharashtra 411037" }, "geometry": { "type": "Point", "coordinates": [ 73.868495, 18.46474 ] } },
{ "type": "Feature", "properties": { "ccd_name": "Repair/re-sufacing of roads/footpaths", "com_location": "Shop No 4/1, B32, opposite Ababil Plaza, next to Nyati Exotica, Nyati County, Mohammed Wadi, Pune, Autadwadi Handewadi, Maharashtra 411060, India" }, "geometry": { "type": "Point", "coordinates": [ 73.923255920410156, 18.464021682739254 ] } },
{ "type": "Feature", "properties": { "ccd_name": "Repair/re-sufacing of roads/footpaths", "com_location": "BLOCK-A, SANJAY RESIDENCY-2, prabhAga kra. 8, someshvaravADI, pAShANa, puNe, mahArAShTra 411045, India" }, "geometry": { "type": "Point", "coordinates": [ 73.8043069, 18.5501796 ] } },
{ "type": "Feature", "properties": { "ccd_name": "Repair/re-sufacing of roads/footpaths", "com_location": "Dukre Wasti, survey no.27,behind Hotel Ralax, sainathnagar road, Kharadi Industrial lane, Kharadi,pune" }, "geometry": { "type": "Point", "coordinates": [ 73.9378969, 18.5624529 ] } },
{ "type": "Feature", "properties": { "ccd_name": "Sweeping /cleaning the road", "com_location": "24/10, Sawant Nagari, Bopodi Gaonthan, Bopodi, Pune, Maharashtra 411003, India" }, "geometry": { "type": "Point", "coordinates": [ 73.8363932, 18.5708657 ] } },
{ "type": "Feature", "properties": { "ccd_name": "Repairing potholes on Road", "com_location": "Kalu Bai Mandir Near Shivaji Putal Market Yars Gate No 4 Pune 37 4110" }, "geometry": { "type": "Point", "coordinates": [ 73.8957205, 18.4989676 ] } },
{ "type": "Feature", "properties": { "ccd_name": "Others road", "com_location": "14D, Suraksha Nagar, Sasane Nagar, Hadapsar, Pune, Maharashtra 411028, India" }, "geometry": { "type": "Point", "coordinates": [ 73.9262459, 18.4979007 ] } },
{ "type": "Feature", "properties": { "ccd_name": "Repairing potholes on Road", "com_location": " mAtoshrI vRRiddhAshramachyA dArAta  , Pune, Maharashtra" }, "geometry": { "type": "Point", "coordinates": [ 73.8786239, 18.5246091 ] } },
{ "type": "Feature", "properties": { "ccd_name": "Repair/re-sufacing of roads/footpaths", "com_location": "Kondhwa Main Rd, Betal Nagar, Kondhwa, Pune, Maharashtra 411048" }, "geometry": { "type": "Point", "coordinates": [ 73.8892909, 18.466656 ] } },
{ "type": "Feature", "properties": { "ccd_name": "Repair/re-sufacing of roads/footpaths", "com_location": "Purva Silversands Sharad Nagar Mundhwa Pune Maharashtra India" }, "geometry": { "type": "Point", "coordinates": [ 73.947845, 18.543206 ] } },
{ "type": "Feature", "properties": { "ccd_name": "Repairing potholes on Road", "com_location": "WHC5081 patne \r\nmArkeTa yArDa chauka gujara mastAnI samora, Pune, Maharashtra" }, "geometry": { "type": "Point", "coordinates": [ 73.8786239, 18.5246091 ] } },
{ "type": "Feature", "properties": { "ccd_name": "Repair/re-sufacing of roads/footpaths", "com_location": "Gananjay Society Badminton Hall  Shastri Nagar Kothrud Pune Maharashtra India" }, "geometry": { "type": "Point", "coordinates": [ 73.8058079, 18.5029895 ] } },
{ "type": "Feature", "properties": { "ccd_name": "Sweeping /cleaning the road", "com_location": "Mitra Mandal Chowk Parvati Parvati Paytha Pune Maharashtra India" }, "geometry": { "type": "Point", "coordinates": [ 73.8540147, 18.4973437 ] } },
{ "type": "Feature", "properties": { "ccd_name": "Repairing potholes on Road", "com_location": " Baner phata, Pune, Maharashtra" }, "geometry": { "type": "Point", "coordinates": [ 73.815226, 18.547735 ] } },
{ "type": "Feature", "properties": { "ccd_name": "Repair/re-sufacing of roads/footpaths", "com_location": "Sterling Nisarga II, Dhayari Phata, Pune, Maharashtra 411041" }, "geometry": { "type": "Point", "coordinates": [ 73.8160359, 18.4482759 ] } },
{ "type": "Feature", "properties": { "ccd_name": "Repair/re-sufacing of roads/footpaths", "com_location": "Magarpatta Hadapsar Pune Maharashtra India" }, "geometry": { "type": "Point", "coordinates": [ 73.9271644, 18.5158057 ] } },
{ "type": "Feature", "properties": { "ccd_name": "Repair/re-sufacing of roads/footpaths", "com_location": "K J College  Yewakewadi Gaon Kamani Samor Main Road Kondwa Pune " }, "geometry": { "type": "Point", "coordinates": [ 73.9051185, 18.4462026 ] } },
{ "type": "Feature", "properties": { "ccd_name": "Repairing potholes on Road", "com_location": "near VIT college Upper indira nagar near police station, Pune, Maharashtra" }, "geometry": { "type": "Point", "coordinates": [ 73.8686856, 18.46476 ] } },
{ "type": "Feature", "properties": { "ccd_name": "Repair/re-sufacing of roads/footpaths", "com_location": "ka.cpiTala ha spiTala te basaDepo chaukAtIla gaNesha bheLa, heltha keara meDiko te basa Depo chauka, Pune, Maharashtra" }, "geometry": { "type": "Point", "coordinates": [ 73.8786239, 18.5246091 ] } },
{ "type": "Feature", "properties": { "ccd_name": "Repair/re-sufacing of roads/footpaths", "com_location": "sukhasAgara nagara samrATa Ta vara near AMbA mAtA maMdIra puNe 411046" }, "geometry": { "type": "Point", "coordinates": [ 73.8691428, 18.4537431 ] } },
{ "type": "Feature", "properties": { "ccd_name": "Repair/re-sufacing of roads/footpaths", "com_location": "NavSahyadri Society Near Tol Hospital Navasahyadri Society Ganesh Nagar Karve Nagar Pune Maharashtra India" }, "geometry": { "type": "Point", "coordinates": [ 73.8291458, 18.4954489 ] } },
{ "type": "Feature", "properties": { "ccd_name": "Repair/re-sufacing of roads/footpaths", "com_location": "from Madhur Bhav to someshwar wadi  pune" }, "geometry": { "type": "Point", "coordinates": [ 73.8022046, 18.5466777 ] } },
{ "type": "Feature", "properties": { "ccd_name": "Repairing potholes on Road", "com_location": "Gulmohar rennaisance road, near solecia society , off baif road Wagholi , Pune, Maharashtra" }, "geometry": { "type": "Point", "coordinates": [ 73.9746, 18.570918 ] } },
{ "type": "Feature", "properties": { "ccd_name": "Repair/re-sufacing of roads/footpaths", "com_location": "537/1,sadashiv peth, jondhale chowk , vishrambaug wada shatri arogya, prasanna watch,pune - 411030." }, "geometry": { "type": "Point", "coordinates": [ 73.845822, 18.513044 ] } },
{ "type": "Feature", "properties": { "ccd_name": "Repair/re-sufacing of roads/footpaths", "com_location": "in Yerwada Area from Netaji chowk to Sir Bhandarkar road,pune\t" }, "geometry": { "type": "Point", "coordinates": [ 73.8361462, 18.5180824 ] } },
{ "type": "Feature", "properties": { "ccd_name": "Fallen tree on road", "com_location": "MILKAT NO. 07323 NAVYUG COLONY, near PMPML depot, bhekrainagar,  FURSUNGI PUNE 412308" }, "geometry": { "type": "Point", "coordinates": [ 73.9527661, 18.4844831 ] } },
{ "type": "Feature", "properties": { "ccd_name": "Repairing potholes on Road", "com_location": "Blue Berry Society in Kharadi , Pune, Maharashtra" }, "geometry": { "type": "Point", "coordinates": [ 73.9494507, 18.5640768 ] } },
{ "type": "Feature", "properties": { "ccd_name": "Sweeping /cleaning the road", "com_location": " CCD chauka te siMbAyosisa , vimAnanagara, Pune, Maharashtra" }, "geometry": { "type": "Point", "coordinates": [ 73.8614218, 18.4754285 ] } },
{ "type": "Feature", "properties": { "ccd_name": "Repairing potholes on Road", "com_location": "Astha Residency 286/1 D, Opposite Shiv Pride Building, Sathe Vasti Lane No.14, Lohegaon, Pune\t" }, "geometry": { "type": "Point", "coordinates": [ 73.9153899, 18.6040642 ] } },
{ "type": "Feature", "properties": { "ccd_name": "Others road", "com_location": "sALuMkhe vihAra  roDa rilAyansa  smArTa samora vAnavaDI chALIsa, Pune, Maharashtra" }, "geometry": { "type": "Point", "coordinates": [ 73.8984972, 18.4816012 ] } },
{ "type": "Feature", "properties": { "ccd_name": "Repairing potholes on Road", "com_location": "Shashitara society , In Anandnagar , Hingne khurd , Pune 411051" }, "geometry": { "type": "Point", "coordinates": [ 73.8284926, 18.4802382 ] } },
{ "type": "Feature", "properties": { "ccd_name": "Repair/re-sufacing of roads/footpaths", "com_location": "mahAvIra nagara lena 1, Pune, Maharashtra" }, "geometry": { "type": "Point", "coordinates": [ 73.8786239, 18.5246091 ] } },
{ "type": "Feature", "properties": { "ccd_name": "Sweeping /cleaning the road", "com_location": "apojiTa madhusadana baMgalA mAtoshrI baMgalyA shejArIla ghara AnaMda vihAra sosAyaTI phesa TU siMhagaDa roDa hiMgaNe khurda pinakoDa 411051, Pune, Maharashtra" }, "geometry": { "type": "Point", "coordinates": [ 73.8213213, 18.4777968 ] } },
{ "type": "Feature", "properties": { "ccd_name": "Other (Traffic-Planning)", "com_location": "Shahu college Gate public parking, Pune, Maharashtra" }, "geometry": { "type": "Point", "coordinates": [ 73.8522064, 18.4925577 ] } },
{ "type": "Feature", "properties": { "ccd_name": "Repairing potholes on Road", "com_location": "lohegaon to Airport road , Pune, Maharashtra" }, "geometry": { "type": "Point", "coordinates": [ 73.8922416, 18.5615643 ] } },
{ "type": "Feature", "properties": { "ccd_name": "Sweeping /cleaning the road", "com_location": "saInagara/Aditya nAkoDA parisara .junA jakAta nAkA, siMhagaDa roDa., Pune, Maharashtra" }, "geometry": { "type": "Point", "coordinates": [ 73.9527066, 18.4835253 ] } },
{ "type": "Feature", "properties": { "ccd_name": "Sweeping /cleaning the road", "com_location": "ganpati visarjan ghat, near sant nirankari satsang bhavan, gondhalenagar hadapsar pune" }, "geometry": { "type": "Point", "coordinates": [ 73.949797, 18.4970781 ] } },
{ "type": "Feature", "properties": { "ccd_name": "Repair/re-sufacing of roads/footpaths", "com_location": "Unit No.3, Baner - Mahalunge Rd, opp. to Amrita Pure Veg, Baner, Pune, Maharashtra 411045" }, "geometry": { "type": "Point", "coordinates": [ 73.7780985, 18.564326 ] } },
{ "type": "Feature", "properties": { "ccd_name": "Lifiting of debris on road and footpath", "com_location": "New Road : Bella Cassa To Vibgyor school, Sus-Baner, Pune, Maharashtra" }, "geometry": { "type": "Point", "coordinates": [ 73.764712, 18.560345 ] } },
{ "type": "Feature", "properties": { "ccd_name": "Painting of Footpath / Divider / Beautification of Chowk etc", "com_location": " rIma skUla chauka  ena AyabIema 48, Pune, Maharashtra" }, "geometry": { "type": "Point", "coordinates": [ 73.8786239, 18.5246091 ] } },
{ "type": "Feature", "properties": { "ccd_name": "Others road", "com_location": " bhAMDArakara mArga  . puNe 4" }, "geometry": { "type": "Point", "coordinates": [ 73.8786239, 18.5246091 ] } },
{ "type": "Feature", "properties": { "ccd_name": "Others road", "com_location": "Deepashri apt Lane no 5 dahanukar Colony Kothrud, sagar sweets building,pune." }, "geometry": { "type": "Point", "coordinates": [ 73.8118251, 18.4950049 ] } },
{ "type": "Feature", "properties": { "ccd_name": "Repair/re-sufacing of roads/footpaths", "com_location": "near Ranka jewellers. karve road pune 411004" }, "geometry": { "type": "Point", "coordinates": [ 73.8338708, 18.5097835 ] } },
{ "type": "Feature", "properties": { "ccd_name": "Sweeping /cleaning the road", "com_location": "Padmaja park phase 1 and phase 2 near Laketown Bibvewadi, Pune, Maharashtra" }, "geometry": { "type": "Point", "coordinates": [ 73.8624955, 18.4589802 ] } },
{ "type": "Feature", "properties": { "ccd_name": "Repair/re-sufacing of roads/footpaths", "com_location": "CLUBHOUSE, MONT VERT PRISTINE, Chikhalwadi, Bopodi, Pune, Maharashtra 411020, India" }, "geometry": { "type": "Point", "coordinates": [ 73.837498303594941, 18.564559368610048 ] } },
{ "type": "Feature", "properties": { "ccd_name": "Others road", "com_location": "mArUtI nanAvare pulA huna rAhula ArkasakaDe jANArA rastA mohananagara bANera(mArUtI milenIyama samora), Pune, Maharashtra" }, "geometry": { "type": "Point", "coordinates": [ 73.8786239, 18.5246091 ] } },
{ "type": "Feature", "properties": { "ccd_name": "Repair/re-sufacing of roads/footpaths", "com_location": " at Supreme Amadore Near Pan Card Club Road, Pune, Maharashtra" }, "geometry": { "type": "Point", "coordinates": [ 73.7828104, 18.5551467 ] } },
{ "type": "Feature", "properties": { "ccd_name": "Fallen tree on road", "com_location": "Shop No 2, New Budhwar Peth, Rameshwar Chouk, Raviwar Peth, Pune, Maharashtra 411002" }, "geometry": { "type": "Point", "coordinates": [ 73.8594465, 18.5149559 ] } },
{ "type": "Feature", "properties": { "ccd_name": "Sweeping /cleaning the road", "com_location": "Sterling Towers Baner Pan Card Club Road Baner Pune Maharashtra India" }, "geometry": { "type": "Point", "coordinates": [ 73.7773742, 18.5547855 ] } },
{ "type": "Feature", "properties": { "ccd_name": "Repairing potholes on Road", "com_location": "Vaibhav Theatre Complex Solapur  Pune Highway Hadapsar Gaon Hadapsar Pune Maharashtra India" }, "geometry": { "type": "Point", "coordinates": [ 73.9301808, 18.5013425 ] } },
{ "type": "Feature", "properties": { "ccd_name": "Others road", "com_location": "TiMbara mArkeTa bhavAnI peTha mahesha bhuvana ha Tela, Pune, Maharashtra" }, "geometry": { "type": "Point", "coordinates": [ 73.8786239, 18.5246091 ] } },
{ "type": "Feature", "properties": { "ccd_name": "Repairing potholes on Road", "com_location": "dhAyarI pulApAsUna te umare gaNapatI chauka dhAyarI phATA chauka c, Pune, Maharashtra" }, "geometry": { "type": "Point", "coordinates": [ 73.8102051, 18.4471543 ] } },
{ "type": "Feature", "properties": { "ccd_name": "Sweeping /cleaning the road", "com_location": "Ram Indu Park, Lane No. 5 Aundh \r\n, Pune, Maharashtra" }, "geometry": { "type": "Point", "coordinates": [ 73.7798029, 18.5676121 ] } },
{ "type": "Feature", "properties": { "ccd_name": "Repair/re-sufacing of roads/footpaths", "com_location": "lAla bahAddUra shAstrI rastA, lokamAnya nagara chauka. , Pune, Maharashtra" }, "geometry": { "type": "Point", "coordinates": [ 73.8457311, 18.506685 ] } },
{ "type": "Feature", "properties": { "ccd_name": "Others road", "com_location": " Kondhwa Bhairavnath temple bus stop to Yelowadi Sinhgad college roads , Pune, Maharashtra" }, "geometry": { "type": "Point", "coordinates": [ 73.8359219, 18.4601321 ] } },
{ "type": "Feature", "properties": { "ccd_name": "Repair/re-sufacing of roads/footpaths", "com_location": "Pashan Pune Maharashtra India" }, "geometry": { "type": "Point", "coordinates": [ 73.7923957, 18.5414267 ] } },
{ "type": "Feature", "properties": { "ccd_name": "Development of Bridge , Sub-ways & Pedestrian", "com_location": "adavikA sosAiTI te elikA kaMpanI hoTala bAlAjI, yevale vA.DI prabhAga|, Pune, Maharashtra" }, "geometry": { "type": "Point", "coordinates": [ 73.931501, 18.5399134 ] } },
{ "type": "Feature", "properties": { "ccd_name": "Repair/re-sufacing of roads/footpaths", "com_location": "Sinhagad Road , Pune, Maharashtra" }, "geometry": { "type": "Point", "coordinates": [ 73.8188201, 18.4678997 ] } },
{ "type": "Feature", "properties": { "ccd_name": "Sweeping /cleaning the road", "com_location": "Borate nagar, lane no-04,5 and 6, near by chandan nagar police chandan nagar kharadi pune-14. " }, "geometry": { "type": "Point", "coordinates": [ 73.9350415, 18.5583168 ] } },
{ "type": "Feature", "properties": { "ccd_name": "Others road", "com_location": "ha Tela sUraja klAsika , PM chaure rastA,  somavAra peTha puNe sTeTa ba.Nka  mena bra.Ncha" }, "geometry": { "type": "Point", "coordinates": [ 73.8440548, 18.5082486 ] } },
{ "type": "Feature", "properties": { "ccd_name": "Trimming of branches in Roadside trees", "com_location": "23 A Ragvilas Society.\r\nLane C1\r\nKoregaon Park, Pune, Maharashtra" }, "geometry": { "type": "Point", "coordinates": [ 73.8919882, 18.5407298 ] } },
{ "type": "Feature", "properties": { "ccd_name": "Repairing potholes on Road", "com_location": " infront of Renault showroom, Baner, on the service road going from kia showroom towards Periwinkle society., Pune, Maharashtra" }, "geometry": { "type": "Point", "coordinates": [ 73.7724634, 18.5518872 ] } },
{ "type": "Feature", "properties": { "ccd_name": "Others road", "com_location": "42, Rambhau K Kamble Path, Narveer Tanaji Wadi, Shivajinagar, Pune, Maharashtra 411005, India" }, "geometry": { "type": "Point", "coordinates": [ 73.849866986274719, 18.535223007202148 ] } },
{ "type": "Feature", "properties": { "ccd_name": "Trimming of branches in Roadside trees", "com_location": "Kumar Paradise B BG Shirke Road near Magarpatta annexe Kirtane Baugh Magarpatta Hadapsar Pune Maharashtra India" }, "geometry": { "type": "Point", "coordinates": [ 73.9253044, 18.5216088 ] } },
{ "type": "Feature", "properties": { "ccd_name": "Lifiting of debris on road and footpath", "com_location": "ICICI bank,phadke haud,prem raj bhel center,ravivar peth,pune 411002.\r\n" }, "geometry": { "type": "Point", "coordinates": [ 73.8576678, 18.5207339 ] } },
{ "type": "Feature", "properties": { "ccd_name": "Repairing potholes on Road", "com_location": "The Kumar Classics road next to the McDonald's opposite The Westend mall in Aundh, Pune, Maharashtra" }, "geometry": { "type": "Point", "coordinates": [ 73.8071678, 18.5616924 ] } },
{ "type": "Feature", "properties": { "ccd_name": "Others road", "com_location": " DHANLAXMI MARKET, near Shree Hospital, Pandhari Nagar Kharadi , Pune, Maharashtra" }, "geometry": { "type": "Point", "coordinates": [ 73.9415406, 18.551713 ] } },
{ "type": "Feature", "properties": { "ccd_name": "Repair/re-sufacing of roads/footpaths", "com_location": "Sanu Villa Bungalow, Sun Empire- phase 1, Sinhagad Rd, Sun City, Anand Nagar, Pune, Maharashtra 411051, India" }, "geometry": { "type": "Point", "coordinates": [ 73.812187194824219, 18.476001739501957 ] } },
{ "type": "Feature", "properties": { "ccd_name": "Others road", "com_location": "mumbaI beMgalora hAyavevara  kotharUDa-Dukkara khiMDa,doDakepalAjho samorachA sarvisaroDa  , Pune, Maharashtra" }, "geometry": { "type": "Point", "coordinates": [ 73.7925132, 18.5025037 ] } },
{ "type": "Feature", "properties": { "ccd_name": "Repairing potholes on Road", "com_location": "289, ravivAra peTha, bhAMDe ALI, 298, subhAna shAha polIsa chaukI javaLa, ravivAra peTha, puNe, mahArAShTra  411002 " }, "geometry": { "type": "Point", "coordinates": [ 73.8590648, 18.5128038 ] } },
{ "type": "Feature", "properties": { "ccd_name": "Repairing potholes on Road", "com_location": "Bawadi road, Wagholi near Bhairavnath Mandir, Pune, Maharashtra" }, "geometry": { "type": "Point", "coordinates": [ 73.9795386, 18.583685 ] } },
{ "type": "Feature", "properties": { "ccd_name": "Others road", "com_location": " at Baner phata chauk, Aundh on Baner Aundh road. , Pune, Maharashtra" }, "geometry": { "type": "Point", "coordinates": [ 73.8099418, 18.5499924 ] } },
{ "type": "Feature", "properties": { "ccd_name": "Others road", "com_location": "rakshak nagar in kharadi pune " }, "geometry": { "type": "Point", "coordinates": [ 73.9440646, 18.5511264 ] } },
{ "type": "Feature", "properties": { "ccd_name": "Sweeping /cleaning the road", "com_location": "GRX8+VXH, Sadhu Vasvani Nagar, Aundh, Pune, Maharashtra 411007, India" }, "geometry": { "type": "Point", "coordinates": [ 73.8174383, 18.5496541 ] } },
{ "type": "Feature", "properties": { "ccd_name": "Trimming of branches in government / public place / road", "com_location": "Singhad Road Survey No 133/ Indira Gandhi vasahat Near Chaitnya Hospital , Pune, Maharashtra" }, "geometry": { "type": "Point", "coordinates": [ 73.8168712, 18.5527265 ] } },
{ "type": "Feature", "properties": { "ccd_name": "Others road", "com_location": "FV2G+475, Gokul Nagar, Shatrunjay Nagar, Kondhwa Budruk, Pune, Maharashtra 411048, India" }, "geometry": { "type": "Point", "coordinates": [ 73.8757562, 18.4502515 ] } },
{ "type": "Feature", "properties": { "ccd_name": "Repair/re-sufacing of roads/footpaths", "com_location": "puNe sAsavaDa roDa yevalevADI puNe 41 10 48 " }, "geometry": { "type": "Point", "coordinates": [ 73.9215596, 18.4519946 ] } },
{ "type": "Feature", "properties": { "ccd_name": "Others road", "com_location": "HQ5R+FPM, Aundh - Baner Link Rd, Baner, Pune,  opp Kapil Malhar scty Baner Maharashtra 411045" }, "geometry": { "type": "Point", "coordinates": [ 73.792806, 18.5604314 ] } },
{ "type": "Feature", "properties": { "ccd_name": "Others road", "com_location": "Images opp D cot showroom \r\nD Shantilal Gandhi \r\nChintamani bldg\r\nSujaygarden \r\nNext to Purohit sweets \r\nMukund Nagar \r\nPune 411037" }, "geometry": { "type": "Point", "coordinates": [ 73.8612727, 18.4967713 ] } },
{ "type": "Feature", "properties": { "ccd_name": "Repair/re-sufacing of roads/footpaths", "com_location": "Hadapsar, Pune, Maharashtra" }, "geometry": { "type": "Point", "coordinates": [ 73.9259102, 18.508934 ] } },
{ "type": "Feature", "properties": { "ccd_name": "Lifiting of debris on road and footpath", "com_location": "Christ the King Parish\r\nHW38+825, Sainikwadi, Wadgaon Sheri, Pune, Maharashtra 411014" }, "geometry": { "type": "Point", "coordinates": [ 73.9151123, 18.553264 ] } },
{ "type": "Feature", "properties": { "ccd_name": "Lifiting of debris on road and footpath", "com_location": "svArageTa ka rnara jedhe chaukAtalA, Pune, Maharashtra" }, "geometry": { "type": "Point", "coordinates": [ 73.8786239, 18.5246091 ] } },
{ "type": "Feature", "properties": { "ccd_name": "Fallen tree on road", "com_location": "salunke vihar road near jashn restaurant sr no 69 wanowadi pune 41048" }, "geometry": { "type": "Point", "coordinates": [ 73.8955304, 18.4824543 ] } },
{ "type": "Feature", "properties": { "ccd_name": "Repair/re-sufacing of roads/footpaths", "com_location": "A4/103, Kumar Prince Town, NIBM Undri Road, Undri, Palace Orchard, Mohammed Wadi, Pune, Maharashtra 411060, India" }, "geometry": { "type": "Point", "coordinates": [ 73.903571166048991, 18.460607044173319 ] } },
{ "type": "Feature", "properties": { "ccd_name": "Others road", "com_location": "Nathan Road Pune " }, "geometry": { "type": "Point", "coordinates": [ 73.882254, 18.533332 ] } },
{ "type": "Feature", "properties": { "ccd_name": "Others road", "com_location": "Navratna society vadgoan sheri, Pune, Maharashtra" }, "geometry": { "type": "Point", "coordinates": [ 73.9220091, 18.5432119 ] } },
{ "type": "Feature", "properties": { "ccd_name": "Repairing potholes on Road", "com_location": "sr no 55,lane no 24, bhagyodaya nagar kirti building front road kondhawa khurd pune 411048." }, "geometry": { "type": "Point", "coordinates": [ 73.886303, 18.4731985 ] } },
{ "type": "Feature", "properties": { "ccd_name": "Repair/re-sufacing of roads/footpaths", "com_location": "Market Yard Gultekadi Pune Maharashtra India" }, "geometry": { "type": "Point", "coordinates": [ 73.868369700000017, 18.4876541 ] } },
{ "type": "Feature", "properties": { "ccd_name": "Repairing potholes on Road", "com_location": "Balewadi Pune Maharashtra India" }, "geometry": { "type": "Point", "coordinates": [ 73.7706807, 18.5788913 ] } },
{ "type": "Feature", "properties": { "ccd_name": "Development of Bridge , Sub-ways & Pedestrian", "com_location": "Ganapati and Durga mata chowk 4 roads , Pune, Maharashtra" }, "geometry": { "type": "Point", "coordinates": [ 73.896895, 18.557395 ] } },
{ "type": "Feature", "properties": { "ccd_name": "Others road", "com_location": "Map :- GRQC+345, Dr. Homi Bhabha Rd, Pashan, Pune, Maharashtra 411008" }, "geometry": { "type": "Point", "coordinates": [ 73.8132075, 18.5397263 ] } },
{ "type": "Feature", "properties": { "ccd_name": "Others road", "com_location": "btp urban rise society,bhamavat petrol pump backside,pisole - 411028., Pune, Maharashtra" }, "geometry": { "type": "Point", "coordinates": [ 73.9017352, 18.4523397 ] } },
{ "type": "Feature", "properties": { "ccd_name": "Repair/re-sufacing of roads/footpaths", "com_location": "Chal no 15/113 laxminagar Parvti pune_9" }, "geometry": { "type": "Point", "coordinates": [ 73.8488163, 18.4922966 ] } },
{ "type": "Feature", "properties": { "ccd_name": "Repairing potholes on Road", "com_location": "Opp bafna compound bibavevADI gAMgAdhama satRRiMjaya roDa ikabAla TAyarsa samora puNe 411037 " }, "geometry": { "type": "Point", "coordinates": [ 73.8707157, 18.4861166 ] } },
{ "type": "Feature", "properties": { "ccd_name": "Others road", "com_location": "viDI kAmagAra vasAhata, kharADI  puNe " }, "geometry": { "type": "Point", "coordinates": [ 73.9476257, 18.5539311 ] } },
{ "type": "Feature", "properties": { "ccd_name": "Others road", "com_location": "pattA- khaDakI posTa  phisa javaLa,\r\n18.5543120, 73.8483445 , Pune, Maharashtra" }, "geometry": { "type": "Point", "coordinates": [ 73.8523582, 18.5625986 ] } },
{ "type": "Feature", "properties": { "ccd_name": "Trimming of branches in Roadside trees", "com_location": "euthenia homes ...opp Prabhat soc lane bhavdan, Pune, Maharashtra" }, "geometry": { "type": "Point", "coordinates": [ 73.7800323, 18.514692 ] } },
{ "type": "Feature", "properties": { "ccd_name": "Repair/re-sufacing of roads/footpaths", "com_location": "prabhag no 15,  chhatrapati shivaji maharaj road  vanraj mandal  samor near mamledar kacheri Pune 411002." }, "geometry": { "type": "Point", "coordinates": [ 73.8581319, 18.5061819 ] } },
{ "type": "Feature", "properties": { "ccd_name": "Repair/re-sufacing of roads/footpaths", "com_location": "FVH6+JJQ Pune, Maharashtra\r\nSwami vivekanand road. Near Bibwewadi post office signal" }, "geometry": { "type": "Point", "coordinates": [ 73.863654, 18.471214 ] } },
{ "type": "Feature", "properties": { "ccd_name": "Trimming of branches in government / public place / road", "com_location": "adjacent to wall from Runwal Panorama to Runwal Meadows, Pune, Maharashtra" }, "geometry": { "type": "Point", "coordinates": [ 73.7937612, 18.4873965 ] } },
{ "type": "Feature", "properties": { "ccd_name": "Sweeping /cleaning the road", "com_location": "19/8B, Hingane Home Colony, Karve Nagar, Pune, Maharashtra 411052, India" }, "geometry": { "type": "Point", "coordinates": [ 73.811424255371094, 18.489658355712891 ] } },
{ "type": "Feature", "properties": { "ccd_name": "Others road", "com_location": "puNe koMDhavA bu puNyadhAma Ashrama roDa varatI,PUNE" }, "geometry": { "type": "Point", "coordinates": [ 73.8786239, 18.5246091 ] } },
{ "type": "Feature", "properties": { "ccd_name": "Others road", "com_location": "Dutta Apartments B, Samarth Park - Brahma Garden Rd, Sunder Garden, Anand Nagar, Pune, Maharashtra 411051, India" }, "geometry": { "type": "Point", "coordinates": [ 73.820502748791228, 18.475422228429057 ] } },
{ "type": "Feature", "properties": { "ccd_name": "Others road", "com_location": "Sr. No. 5, Ashraf nagar, Opp. Alif Tower, Kondhwa budruk, Pune - 411048" }, "geometry": { "type": "Point", "coordinates": [ 73.8838939, 18.4634947 ] } },
{ "type": "Feature", "properties": { "ccd_name": "Others road", "com_location": "FV5C+4W9, Sukhsagar Nagar, Katraj, Pune, Maharashtra 411046, India" }, "geometry": { "type": "Point", "coordinates": [ 73.872465, 18.4578632 ] } },
{ "type": "Feature", "properties": { "ccd_name": "Others road", "com_location": "sa.naM.43 paThAre maLA takShashilA sosAyaTI javaLa bAyapAsa kharADI puNe-411014." }, "geometry": { "type": "Point", "coordinates": [ 73.9413093, 18.5625932 ] } },
{ "type": "Feature", "properties": { "ccd_name": "Others road", "com_location": "Adarsh Nagar ,sudarshan saur power system wagholi road lohegaon  411047 , Pune, Maharashtra" }, "geometry": { "type": "Point", "coordinates": [ 73.9397679, 18.5975386 ] } },
{ "type": "Feature", "properties": { "ccd_name": "Sweeping /cleaning the road", "com_location": "56, Ashtabhuja Devi Marg, Pulachi Wadi, Narayan Peth, Pune, Maharashtra 411030, India" }, "geometry": { "type": "Point", "coordinates": [ 73.8474466, 18.5169205 ] } },
{ "type": "Feature", "properties": { "ccd_name": "Repair/re-sufacing of roads/footpaths", "com_location": " Seasons Rd, Shambhu Vihar Society, Baner Chs, Aundh, Pune, Maharashtra 411007, " }, "geometry": { "type": "Point", "coordinates": [ 73.8030007, 18.5606165 ] } },
{ "type": "Feature", "properties": { "ccd_name": "Repair/re-sufacing of roads/footpaths", "com_location": "iMgaLe nagara,vAraje junA jakAta nAkA\r\n\r\n, Pune, Maharashtra" }, "geometry": { "type": "Point", "coordinates": [ 73.796834, 18.4864727 ] } },
{ "type": "Feature", "properties": { "ccd_name": "Sweeping /cleaning the road", "com_location": "Rajaram bridge signal to river side road,matoshri rajaram road right side footpath,sinhgad road,pune 411030." }, "geometry": { "type": "Point", "coordinates": [ 73.8397353, 18.5106714 ] } },
{ "type": "Feature", "properties": { "ccd_name": "Repairing potholes on Road", "com_location": "Sinhagad Collage Back Gate, Yewalewadi, Pune." }, "geometry": { "type": "Point", "coordinates": [ 73.894143, 18.442555 ] } },
{ "type": "Feature", "properties": { "ccd_name": "Repair and maintenance of Bridge ,Sub-ways & Pedestrian", "com_location": "AMbegAva bu parisarAta shivasRRiShTI kaDe jANARyA hAyave khAlIla asaNArA ovhara brIja , Pune, Maharashtra" }, "geometry": { "type": "Point", "coordinates": [ 73.8786239, 18.5246091 ] } },
{ "type": "Feature", "properties": { "ccd_name": "Repairing potholes on Road", "com_location": "Narhe Dhayri road - Navale Hospital back entry gate to Paranjpe Abhiruchi Parisar Society, Pune, Maharashtra" }, "geometry": { "type": "Point", "coordinates": [ 73.8185642, 18.4503829 ] } },
{ "type": "Feature", "properties": { "ccd_name": "Others road", "com_location": "61/62, near Mhatre Bridge, Himali Society, Erandwana Gaothan, Erandwane, Pune, Maharashtra 411004, India" }, "geometry": { "type": "Point", "coordinates": [ 73.835350036621094, 18.504634857177731 ] } },
{ "type": "Feature", "properties": { "ccd_name": "Repairing potholes on Road", "com_location": "Yerawada ward office main gate samor , Pune, Maharashtra" }, "geometry": { "type": "Point", "coordinates": [ 73.8875732, 18.5453524 ] } },
{ "type": "Feature", "properties": { "ccd_name": "Repairing potholes on Road", "com_location": "Mangesh Housing Society Mahadji Shinde Road Ward No  Aundh Gaon Aundh Pune Maharashtra India" }, "geometry": { "type": "Point", "coordinates": [ 73.8077422, 18.5652753 ] } },
{ "type": "Feature", "properties": { "ccd_name": "Repair/re-sufacing of roads/footpaths", "com_location": "rAjArAmapUlA javaLIla mAtoshrI Ashrama tethIla chauka karvenagara 411052, Pune, Maharashtra" }, "geometry": { "type": "Point", "coordinates": [ 73.8282973, 18.4881428 ] } },
{ "type": "Feature", "properties": { "ccd_name": "Lifiting of debris on road and footpath (HO)", "com_location": "87/70, Vinkar Society, Padamavti, Pune, Maharashtra 411009, India" }, "geometry": { "type": "Point", "coordinates": [ 73.8504089, 18.4831796 ] } },
{ "type": "Feature", "properties": { "ccd_name": "Sweeping /cleaning the road", "com_location": " Near datta dhyan mandir, Pashan-sus road, Pashan , Pune-411021" }, "geometry": { "type": "Point", "coordinates": [ 73.776713, 18.5458463 ] } },
{ "type": "Feature", "properties": { "ccd_name": "Others road", "com_location": "ulhAsa sosAyaTI, sahakAra nagara dona , Pune, Maharashtra" }, "geometry": { "type": "Point", "coordinates": [ 73.8786239, 18.5246091 ] } },
{ "type": "Feature", "properties": { "ccd_name": "Others road", "com_location": "mohaMmadavADI roDa haDapasara saMketa pArka javaLa ma.cjesTika memorIja javaLa\t, Pune, Maharashtra" }, "geometry": { "type": "Point", "coordinates": [ 73.8786239, 18.5246091 ] } },
{ "type": "Feature", "properties": { "ccd_name": "Others road", "com_location": "perIviMkala chI bhIMta, nakShatra baMgalA itara bANera puNe 45" }, "geometry": { "type": "Point", "coordinates": [ 73.8786239, 18.5246091 ] } },
{ "type": "Feature", "properties": { "ccd_name": "Others road", "com_location": " opposite Backstage bar in Mohammadwadi , Pune, Maharashtra" }, "geometry": { "type": "Point", "coordinates": [ 73.9179411, 18.5624744 ] } },
{ "type": "Feature", "properties": { "ccd_name": "Repair/re-sufacing of roads/footpaths", "com_location": "AXIS BANK - KHARADI CHOWK - , Pune, Maharashtra" }, "geometry": { "type": "Point", "coordinates": [ 73.9328965, 18.5324891 ] } },
{ "type": "Feature", "properties": { "ccd_name": "Others (Road Project(H.O))", "com_location": "chAMdere sIenajI paMpa susagAva samorIla mukhya rastyApAsUna, Pune, Maharashtra" }, "geometry": { "type": "Point", "coordinates": [ 73.8786239, 18.5246091 ] } },
{ "type": "Feature", "properties": { "ccd_name": "Others road", "com_location": "dhAyarI phATA lena naMbara 10 siMhagaDa roDa, Pune, Maharashtra" }, "geometry": { "type": "Point", "coordinates": [ 73.8163098, 18.4653016 ] } },
{ "type": "Feature", "properties": { "ccd_name": "Lifiting of debris on road and footpath (HO)", "com_location": "Shantiban building Dp Road nr shree ganesh temple Group floor, GQ3W+5XG, Shantiban Cooperative Housing Society, Kothrud, Pune, Maharashtra 411038, India" }, "geometry": { "type": "Point", "coordinates": [ 73.797502725864305, 18.502942473310515 ] } },
{ "type": "Feature", "properties": { "ccd_name": "Repair/re-sufacing of roads/footpaths", "com_location": "prabhAga kramAMka 36 shivanerI roDa premanagara vasAhata jhopaDapaTTI bauddha vihArA javaLa sugata dAsADe gallI kalkerI yAMchyA gharAjavaLa puNe 411037" }, "geometry": { "type": "Point", "coordinates": [ 73.8724301, 18.4807627 ] } },
{ "type": "Feature", "properties": { "ccd_name": "Regarding Pay and park on road", "com_location": "nirmala pArka sosAyaTI samorIla rastA , chavhANa nagara dhanakavaDI, puNe " }, "geometry": { "type": "Point", "coordinates": [ 73.8546821, 18.4654546 ] } },
{ "type": "Feature", "properties": { "ccd_name": "Repairing potholes on Road", "com_location": "MAP - Ganesh Nagar, Wadgaon Sheri, Pune, Maharashtra 411014" }, "geometry": { "type": "Point", "coordinates": [ 73.9252534, 18.5572414 ] } },
{ "type": "Feature", "properties": { "ccd_name": "Trimming of branches in Roadside trees", "com_location": "vaidehI enclave sosAyaTI (la.cna na. 4), bAvadhana, puNe 411021 " }, "geometry": { "type": "Point", "coordinates": [ 73.774997, 18.5118991 ] } },
{ "type": "Feature", "properties": { "ccd_name": "Repair/re-sufacing of roads/footpaths", "com_location": "saMta nagara , Pune, Maharashtra" }, "geometry": { "type": "Point", "coordinates": [ 73.8108134, 18.5795213 ] } },
{ "type": "Feature", "properties": { "ccd_name": "Repair/re-sufacing of roads/footpaths", "com_location": "No 2, B/2, Tupe Patil Rd, opp. Sadhna Vidalia, Utkarsh Nagar, Hadapsar, Pune, Maharashtra 411028, India" }, "geometry": { "type": "Point", "coordinates": [ 73.937133, 18.502177 ] } },
{ "type": "Feature", "properties": { "ccd_name": "Repair/re-sufacing of roads/footpaths", "com_location": " sAInagara sosAyaTI 846 sunItA nagara roDa sunItA nagara vaDagAva sherI, puNe" }, "geometry": { "type": "Point", "coordinates": [ 73.928153, 18.559684 ] } },
{ "type": "Feature", "properties": { "ccd_name": "Others road", "com_location": "94/B Naval Timber Traders\r\nNew timber market \r\nLane in front of Ramesh Bagve Office \r\nlohiyanagar.\r\nPune 411042." }, "geometry": { "type": "Point", "coordinates": [ 73.8666294, 18.5084102 ] } },
{ "type": "Feature", "properties": { "ccd_name": "Others road", "com_location": "Dibbar international pre School Taskan Estate B Choudhari vasti Ashoka Nagar Kharadi pune " }, "geometry": { "type": "Point", "coordinates": [ 73.9416492, 18.5571141 ] } },
{ "type": "Feature", "properties": { "ccd_name": "Repair/re-sufacing of roads/footpaths", "com_location": "pattA-\r\nbopoDI te khaDakI jANAra ra Da,kirloskara kaMpanI ,durgA mAtA maMdira samora bopoDI puNe 411003." }, "geometry": { "type": "Point", "coordinates": [ 73.838138, 18.569744 ] } },
{ "type": "Feature", "properties": { "ccd_name": "Repairing potholes on Road", "com_location": "gallI kra.9, ujavI bhusArI ka lanI, kotharUDa., Pune, Maharashtra" }, "geometry": { "type": "Point", "coordinates": [ 73.7948462, 18.5089646 ] } },
{ "type": "Feature", "properties": { "ccd_name": "Repairing potholes on Road", "com_location": "Manjari bk to keshava nagar road mhasoba vasti javal pune 412307" }, "geometry": { "type": "Point", "coordinates": [ 73.950232, 18.5347378 ] } },
{ "type": "Feature", "properties": { "ccd_name": "Others road", "com_location": "FV9M+637, Meeta Nagar, Kondhwa, Pune, Maharashtra 411048, India" }, "geometry": { "type": "Point", "coordinates": [ 73.8826135, 18.4681543 ] } },
{ "type": "Feature", "properties": { "ccd_name": "Others road", "com_location": "Nutan Marathi Vidyalaya (Appa Balwant Chowk), Narsinha Chintamani Kelkar Road, Narayan Peth, Pune, Maharashtra 411030, India" }, "geometry": { "type": "Point", "coordinates": [ 73.8529581, 18.516425 ] } },
{ "type": "Feature", "properties": { "ccd_name": "Repairing potholes on Road", "com_location": "Behind amanora mall , sade satra nali road , hadapsar , pune 411028" }, "geometry": { "type": "Point", "coordinates": [ 73.934866, 18.519194 ] } },
{ "type": "Feature", "properties": { "ccd_name": "Repairing potholes on Road", "com_location": "Yashwant nagar opposite juna sai baba mandir kharadi road pune 411014" }, "geometry": { "type": "Point", "coordinates": [ 73.933875700000016, 18.5554076 ] } },
{ "type": "Feature", "properties": { "ccd_name": "Repairing potholes on Road", "com_location": "FVW6+426, Mukund Nagar, Pune, Maharashtra 411037" }, "geometry": { "type": "Point", "coordinates": [ 73.8600156, 18.4952875 ] } },
{ "type": "Feature", "properties": { "ccd_name": "Others road", "com_location": "Road between Harikrupa Society plot no 56,Rambaug colony,Ranjit Heights.Vishwakarma Society,Rahul park Society,Shivchaitanya Hall Area Rambaug colony,Paud Road,near Bedekar Ganpati,pune." }, "geometry": { "type": "Point", "coordinates": [ 73.7933809, 18.5084698 ] } },
{ "type": "Feature", "properties": { "ccd_name": "Repair/re-sufacing of roads/footpaths", "com_location": "60, Bramha Avenue Society, Shreehans Nagar, Kondhwa, Pune, Maharashtra 411048, India" }, "geometry": { "type": "Point", "coordinates": [ 73.886098994899001, 18.478208604020001 ] } },
{ "type": "Feature", "properties": { "ccd_name": "Others road", "com_location": "sharapadmA sosAyaTI sosAyaTI, sAI nagara gallI kra-9 /10, koMDhavA budruka, puNe-48 " }, "geometry": { "type": "Point", "coordinates": [ 73.9531189, 18.5646495 ] } },
{ "type": "Feature", "properties": { "ccd_name": "Others road", "com_location": "326 rasta Peth, Pune, Maharashtra" }, "geometry": { "type": "Point", "coordinates": [ 73.8659281, 18.5189511 ] } },
{ "type": "Feature", "properties": { "ccd_name": "Sweeping /cleaning the road", "com_location": "equilife homes mahaluge behind balewadi stadium., Pune, Maharashtra" }, "geometry": { "type": "Point", "coordinates": [ 73.7610241, 18.5747407 ] } },
{ "type": "Feature", "properties": { "ccd_name": "Repair/re-sufacing of roads/footpaths", "com_location": "mAvaLe AIchyA toMDAshI mAvaLe ALI  karvenagara 411052, Pune, Maharashtra" }, "geometry": { "type": "Point", "coordinates": [ 73.821729, 18.4914883 ] } },
{ "type": "Feature", "properties": { "ccd_name": "Sweeping /cleaning the road", "com_location": "Natational park society,manik baug sinhgad road, near by siddharth hall, in between building A2 pune 4110051 " }, "geometry": { "type": "Point", "coordinates": [ 73.8033639, 18.4571619 ] } },
{ "type": "Feature", "properties": { "ccd_name": "Painting of Footpath / Divider / Beautification of Chowk etc", "com_location": "outside Mhasoba Mandir near Agriculture College Entrance on Ganeshkhind Road , Pune, Maharashtra" }, "geometry": { "type": "Point", "coordinates": [ 73.8441118, 18.5366626 ] } },
{ "type": "Feature", "properties": { "ccd_name": "Repairing potholes on Road", "com_location": "Location : Kesnand phata signal, #Wagholi., Pune, Maharashtra" }, "geometry": { "type": "Point", "coordinates": [ 73.986073, 18.581204 ] } },
{ "type": "Feature", "properties": { "ccd_name": "Trimming of branches in government / public place / road", "com_location": "From Milind Vaidya, Rohan Leher , Phase 1 , Baner Sus Road , Baner , Pune 411045 , PMC Aundh ward office" }, "geometry": { "type": "Point", "coordinates": [ 73.7682725, 18.5552102 ] } },
{ "type": "Feature", "properties": { "ccd_name": "Repairing potholes on Road", "com_location": "pattA lena kramAMka dona niraMtara kaMDominiyama bibevADI puNe 411047" }, "geometry": { "type": "Point", "coordinates": [ 73.8640944, 18.4690213 ] } },
{ "type": "Feature", "properties": { "ccd_name": "Others road", "com_location": "California Apartment Block-B, Bajirao Rd, Palace Orchard, Mohammed Wadi, Pune, Maharashtra 411060, India" }, "geometry": { "type": "Point", "coordinates": [ 73.902824688702793, 18.4598689433187 ] } },
{ "type": "Feature", "properties": { "ccd_name": "Others road", "com_location": " Near Mehendale Garage Road Jadio  Zudio Shop Karnataka High School Erndawane Pune 4" }, "geometry": { "type": "Point", "coordinates": [ 73.827673, 18.501902 ] } },
{ "type": "Feature", "properties": { "ccd_name": "Repair/re-sufacing of roads/footpaths", "com_location": "Santosh Tonde Bunglow, Server No 112 Shiv Nagar Sutarwadi Pashan Pune 411021" }, "geometry": { "type": "Point", "coordinates": [ 73.7841849, 18.5375163 ] } },
{ "type": "Feature", "properties": { "ccd_name": "Trimming of branches in Roadside trees", "com_location": "DIAT KHADAKWASLA BYPASS ROAD, KHADAKWASLA, PUNE 411024" }, "geometry": { "type": "Point", "coordinates": [ 73.7860332, 18.4426966 ] } },
{ "type": "Feature", "properties": { "ccd_name": "Others road", "com_location": "Balaji circle Signal, Pashan Sus Road., Pune, Maharashtra" }, "geometry": { "type": "Point", "coordinates": [ 73.7692252, 18.548845 ] } },
{ "type": "Feature", "properties": { "ccd_name": "Repair/re-sufacing of roads/footpaths", "com_location": "ORIEAL, NIGHTINGALE APARTMENT, nyAtI kAuMTI, mohammada vADI, puNe, mahArAShTra 411060, India" }, "geometry": { "type": "Point", "coordinates": [ 73.922362194335591, 18.461807229514687 ] } },
{ "type": "Feature", "properties": { "ccd_name": "Trimming of branches in Roadside trees", "com_location": "AMbegAva budruka velAna shahA sosAyaTI devAMshI bAjAra , svAnaMda ha spiTala, ena ke sALave sITa kavhara te dattanagara chauka\t, Pune, Maharashtra" }, "geometry": { "type": "Point", "coordinates": [ 73.8786239, 18.5246091 ] } },
{ "type": "Feature", "properties": { "ccd_name": "Others (Road Project(H.O))", "com_location": "Bopodi: Aundh road (Khadki to Spicer college), Pune, Maharashtra" }, "geometry": { "type": "Point", "coordinates": [ 73.8193083, 18.5636636 ] } },
{ "type": "Feature", "properties": { "ccd_name": "Shopkeeper s material on road/footpath", "com_location": "bashil amora jambhulwadi road shaninagar ambegaon pune 411046" }, "geometry": { "type": "Point", "coordinates": [ 73.8475626, 18.4418775 ] } },
{ "type": "Feature", "properties": { "ccd_name": "Repair/re-sufacing of roads/footpaths", "com_location": "Infront of Anna  restaurant, Baner road  https://maps.app.goo.gl/4my85k31d43SJNjv5, Pune, Maharashtra" }, "geometry": { "type": "Point", "coordinates": [ 73.8033011, 18.5528569 ] } },
{ "type": "Feature", "properties": { "ccd_name": "Repair/re-sufacing of roads/footpaths", "com_location": "prayejA siTI to dhyari ka.cnAla roDa tvarita karAvA, Pune, Maharashtra" }, "geometry": { "type": "Point", "coordinates": [ 73.8567005, 18.5203896 ] } },
{ "type": "Feature", "properties": { "ccd_name": "Repair/re-sufacing of roads/footpaths", "com_location": "On Prabhat Road, near Ghodke Chowk, just outside Hotel Royalty., Pune, Maharashtra" }, "geometry": { "type": "Point", "coordinates": [ 73.8330317, 18.5143341 ] } },
{ "type": "Feature", "properties": { "ccd_name": "Trimming of branches in Roadside trees", "com_location": "puShpanagarI imAratI shejArIla rAmabANa kAryAlaya,nyU iMDiyA skUla (sutAra shALA) 411038\t, Pune, Maharashtra" }, "geometry": { "type": "Point", "coordinates": [ 73.8113496, 18.5094561 ] } },
{ "type": "Feature", "properties": { "ccd_name": "Others road", "com_location": "Ganga vihar HSCs Madhav Snack Pingle Vasti pin: 411036, Pune, Maharashtra" }, "geometry": { "type": "Point", "coordinates": [ 73.9111072, 18.5302711 ] } },
{ "type": "Feature", "properties": { "ccd_name": "Repair/re-sufacing of roads/footpaths", "com_location": "Sharad Nagar Mundhwa Pune Maharashtra India" }, "geometry": { "type": "Point", "coordinates": [ 73.9455341, 18.536847 ] } },
{ "type": "Feature", "properties": { "ccd_name": "Sweeping /cleaning the road", "com_location": "puNya nagarI bhAjI maMDaI samora , Pune, Maharashtra" }, "geometry": { "type": "Point", "coordinates": [ 73.9054859, 18.5258067 ] } },
{ "type": "Feature", "properties": { "ccd_name": "Trimming of branches in Roadside trees", "com_location": "Senadatta Peth Society Lal Bahadur Shastri Road Senadutta Peth Lokamanya Nagar Navi Peth Sadashiv Peth Pune Maharashtra India" }, "geometry": { "type": "Point", "coordinates": [ 73.8423658, 18.5058193 ] } },
{ "type": "Feature", "properties": { "ccd_name": "Repair/re-sufacing of roads/footpaths", "com_location": "ORIEAL, NIGHTINGALE APARTMENT, nyAtI kAuMTI, mohammada vADI, puNe, mahArAShTra 411060, India" }, "geometry": { "type": "Point", "coordinates": [ 73.92236328125, 18.461807250976559 ] } },
{ "type": "Feature", "properties": { "ccd_name": "Shopkeeper s material on road/footpath", "com_location": "phurasuMgI Maharashtra India, Pune, Maharashtra" }, "geometry": { "type": "Point", "coordinates": [ 73.9784573, 18.4726725 ] } },
{ "type": "Feature", "properties": { "ccd_name": "Sweeping /cleaning the road", "com_location": "Mangesh Soc.Aundh gaon,Pune\r\n411007\r\nnext to Conversgys call centre,\r\nPetkar marg" }, "geometry": { "type": "Point", "coordinates": [ 73.8085293, 18.5652212 ] } },
{ "type": "Feature", "properties": { "ccd_name": "Others road", "com_location": "kumar classic Aundh pune 7 " }, "geometry": { "type": "Point", "coordinates": [ 73.806987, 18.561912 ] } },
{ "type": "Feature", "properties": { "ccd_name": "Others road", "com_location": " Undri near Palace Orchard and California societies., Pune, Maharashtra" }, "geometry": { "type": "Point", "coordinates": [ 73.9031319, 18.4604945 ] } },
{ "type": "Feature", "properties": { "ccd_name": "Others road", "com_location": "pATIla isTeTa chauka che varIla brijavara vAya jaMkshana yethe  Old Mumbai - Pune Hwy, Shivajinagar, Pune, Maharashtra 411005 " }, "geometry": { "type": "Point", "coordinates": [ 73.7854128, 18.5621074 ] } },
{ "type": "Feature", "properties": { "ccd_name": "Others road", "com_location": "Cru mall ,federal bank , new era housing society , Kondhwa bibewadi road, near  Gangadham chowk .\r\nPune - 411037  " }, "geometry": { "type": "Point", "coordinates": [ 73.8754846, 18.481361 ] } },
{ "type": "Feature", "properties": { "ccd_name": "Trimming of branches in Roadside trees", "com_location": "This is Near LMD Chowk, behind Maratha Mandir, Bavdhan., Pune, Maharashtra" }, "geometry": { "type": "Point", "coordinates": [ 73.7814985, 18.5117709 ] } },
{ "type": "Feature", "properties": { "ccd_name": "Repairing potholes on Road", "com_location": "Prayeja City society \r\nSurve no 71 Sinhagad Road Wadgaon Budruk \r\nPune 411068 \r\nPrayeja City Road vara cannel Ithe Funtime ANi madhukosh kaDe walnawar" }, "geometry": { "type": "Point", "coordinates": [ 73.8165579, 18.4656971 ] } },
{ "type": "Feature", "properties": { "ccd_name": "Lifiting of debris on road and footpath", "com_location": "KONARK POORAM HOUSING SOCIETY, koMDhavA, puNe, mahArAShTra 411048,  ward 26 near sayanad hospital India" }, "geometry": { "type": "Point", "coordinates": [ 73.8900523, 18.4711774 ] } },
{ "type": "Feature", "properties": { "ccd_name": "Sweeping /cleaning the road", "com_location": "Deccan college back side footpath,puratatva vibhag,pune,yerwada,pune 411006. " }, "geometry": { "type": "Point", "coordinates": [ 73.8918647, 18.5583204 ] } },
{ "type": "Feature", "properties": { "ccd_name": "Repairing potholes on Road", "com_location": "metro pol no 162  164 near khadki railway station, Pune, Maharashtra" }, "geometry": { "type": "Point", "coordinates": [ 73.8406198, 18.5631806 ] } },
{ "type": "Feature", "properties": { "ccd_name": "Repair/re-sufacing of roads/footpaths", "com_location": "ahiregeTa shivaNe RR WINE sha pa shejArI, Pune, Maharashtra" }, "geometry": { "type": "Point", "coordinates": [ 73.7736584, 18.4632096 ] } },
{ "type": "Feature", "properties": { "ccd_name": "Trimming of branches in Roadside trees", "com_location": "Raj Restaurant rAja resTa raMTa pauDa phATA karve rastA puNe." }, "geometry": { "type": "Point", "coordinates": [ 73.8786239, 18.5246091 ] } },
{ "type": "Feature", "properties": { "ccd_name": "Sweeping /cleaning the road", "com_location": "Pan Card Road Baner Pune Maharashtra India" }, "geometry": { "type": "Point", "coordinates": [ 73.7790829, 18.5554344 ] } },
{ "type": "Feature", "properties": { "ccd_name": "Sweeping /cleaning the road", "com_location": "Riverdale Residences Thite Nagar Kharadi Pune Maharashtra" }, "geometry": { "type": "Point", "coordinates": [ 73.9404954, 18.5405718 ] } },
{ "type": "Feature", "properties": { "ccd_name": "Others road", "com_location": " Dhanori to Viman Nagar., Pune, Maharashtra" }, "geometry": { "type": "Point", "coordinates": [ 73.9143637, 18.5678553 ] } },
{ "type": "Feature", "properties": { "ccd_name": "Repairing potholes on Road", "com_location": "Sr. No. 79 , Hingane Mala, New conol, Between Lane No 4 and 5  Hadapsar, Pune, Maharashtra 411028, India" }, "geometry": { "type": "Point", "coordinates": [ 73.930735200000015, 18.4967707 ] } },
{ "type": "Feature", "properties": { "ccd_name": "Sweeping /cleaning the road", "com_location": "Pan Card Club Road Baner Pune Maharashtra India" }, "geometry": { "type": "Point", "coordinates": [ 73.7782154, 18.5590074 ] } },
{ "type": "Feature", "properties": { "ccd_name": "Others road", "com_location": "Kk market samor dankawadi-bibwewadi rasta 411037\r\n, Pune, Maharashtra" }, "geometry": { "type": "Point", "coordinates": [ 73.8601855, 18.4696296 ] } },
{ "type": "Feature", "properties": { "ccd_name": "Repair/re-sufacing of roads/footpaths", "com_location": "prabhAga kramAMka 25 vAnavaDI madhIla gArgI apArameMTa  , Pune, Maharashtra" }, "geometry": { "type": "Point", "coordinates": [ 73.900691, 18.49799 ] } },
{ "type": "Feature", "properties": { "ccd_name": "Repairing potholes on Road", "com_location": "vIra gogAdeva jima  pAsUna dhammapAla saMgha paryaMta kAshevADI 493 bhavAnI peTha puNe " }, "geometry": { "type": "Point", "coordinates": [ 73.8699182, 18.5116565 ] } },
{ "type": "Feature", "properties": { "ccd_name": "Repair/re-sufacing of roads/footpaths", "com_location": "1221, Bapusaheb Gupte Marg, Shivajinagar, Pune, Maharashtra 411004, India" }, "geometry": { "type": "Point", "coordinates": [ 73.8439, 18.520554 ] } },
{ "type": "Feature", "properties": { "ccd_name": "Sweeping /cleaning the road", "com_location": "Aundh Bridge Footpath , Near Dmart, Pune, Maharashtra" }, "geometry": { "type": "Point", "coordinates": [ 73.8077178, 18.56816 ] } },
{ "type": "Feature", "properties": { "ccd_name": "Repairing potholes on Road", "com_location": "Samartha Krupa Apartment, Lane Number 13, Adarsh Colony, Tingre Nagar, Pune, Maharashtra 411032, India" }, "geometry": { "type": "Point", "coordinates": [ 73.8951281, 18.57683 ] } },
{ "type": "Feature", "properties": { "ccd_name": "Repair and maintenance of Bridge ,Sub-ways & Pedestrian", "com_location": "Shankar maharaj math bridge both sides,pune satara road,pune" }, "geometry": { "type": "Point", "coordinates": [ 73.8573179, 18.4706803 ] } },
{ "type": "Feature", "properties": { "ccd_name": "Repair/re-sufacing of roads/footpaths", "com_location": "202 Fortune House, Survey Number 131/1B/1,, Baner Road, Pune, Maharashtra 411045" }, "geometry": { "type": "Point", "coordinates": [ 73.7800223, 18.564468 ] } },
{ "type": "Feature", "properties": { "ccd_name": "Repair/re-sufacing of roads/footpaths", "com_location": "Mangalwar Peth Kasba Peth Pune Maharashtra India" }, "geometry": { "type": "Point", "coordinates": [ 73.8646945, 18.5240566 ] } },
{ "type": "Feature", "properties": { "ccd_name": "Repair/re-sufacing of roads/footpaths", "com_location": "ma. e. so. bAla shikShaNa maMdira shALA geTa samora pyc hiMdU jimakhAnA samora puNe 41104" }, "geometry": { "type": "Point", "coordinates": [ 73.83999630000001, 18.5172507 ] } },
{ "type": "Feature", "properties": { "ccd_name": "Repair and maintenance of Bridge ,Sub-ways & Pedestrian", "com_location": "viThThalavADI signala, siMhagaDa rastA uDDANapulAvara , Pune, Maharashtra" }, "geometry": { "type": "Point", "coordinates": [ 73.8786239, 18.5246091 ] } },
{ "type": "Feature", "properties": { "ccd_name": "Others road", "com_location": "Shivarkar Udyan, Natraj Enclave Society, Shivam, Wanwadi, Pune, Maharashtra 411040, India" }, "geometry": { "type": "Point", "coordinates": [ 73.900444030761719, 18.498323440551761 ] } },
{ "type": "Feature", "properties": { "ccd_name": "Others road", "com_location": "At Ambedkar chowk\r\nWarje\r\nJuna jakat naka, Pune, Maharashtra" }, "geometry": { "type": "Point", "coordinates": [ 73.810334, 18.484644 ] } },
{ "type": "Feature", "properties": { "ccd_name": "Repair/re-sufacing of roads/footpaths", "com_location": "Baner Smashanbhumi to baner gaon road pune 411045 " }, "geometry": { "type": "Point", "coordinates": [ 73.787447, 18.561142 ] } },
{ "type": "Feature", "properties": { "ccd_name": "Sweeping /cleaning the road", "com_location": "Paradise Housing Society , Pune, Maharashtra" }, "geometry": { "type": "Point", "coordinates": [ 73.7941659, 18.5542542 ] } },
{ "type": "Feature", "properties": { "ccd_name": "Development of Bridge , Sub-ways & Pedestrian", "com_location": "Bramha Majestic, Kubera Colony , Manish   Plaza etc. NIBM Road, PUNE 411 048" }, "geometry": { "type": "Point", "coordinates": [ 73.8944391, 18.477746 ] } },
{ "type": "Feature", "properties": { "ccd_name": "Repair/re-sufacing of roads/footpaths", "com_location": "Shop No.107 Sheetal Square Building, Main, Kondhwa Main Rd, next to Sheetal Petrol Pump, Kondhwa, Pune, Maharashtra 411048, India" }, "geometry": { "type": "Point", "coordinates": [ 73.889139368290728, 18.4695536964594 ] } },
{ "type": "Feature", "properties": { "ccd_name": "Repairing potholes on Road", "com_location": "model colony in front of Ekash apartment near canal road, Pune, Maharashtra" }, "geometry": { "type": "Point", "coordinates": [ 73.8318405, 18.5168817 ] } },
{ "type": "Feature", "properties": { "ccd_name": "Repairing potholes on Road", "com_location": "14 Chaturshringi Opp NIC building in front of Emke medical pride house \r\nGaneshkhind road \r\nPune 411016." }, "geometry": { "type": "Point", "coordinates": [ 73.8286405, 18.5385952 ] } },
{ "type": "Feature", "properties": { "ccd_name": "Trimming of branches in government / public place / road", "com_location": "prabhAga 38 rAjasa so kAtraja puNe.\t" }, "geometry": { "type": "Point", "coordinates": [ 73.8544493, 18.4498612 ] } },
{ "type": "Feature", "properties": { "ccd_name": "Fallen tree on road", "com_location": "Rajiv heights society,viman nagar,pune 411014" }, "geometry": { "type": "Point", "coordinates": [ 73.9143637, 18.5678553 ] } },
{ "type": "Feature", "properties": { "ccd_name": "Repairing potholes on Road", "com_location": "Sus-Nande Road, near Shitole Vasti Stop, Sus (Sus Hospital Lane-1), Pune, Maharashtra" }, "geometry": { "type": "Point", "coordinates": [ 73.7073559, 18.5552358 ] } },
{ "type": "Feature", "properties": { "ccd_name": "Repair/re-sufacing of roads/footpaths", "com_location": " kedAra nagarI,hiMgaNe khurda,rokaDobA mArutI maMdira puDhe,siMhagaDa roDa,puNe -51" }, "geometry": { "type": "Point", "coordinates": [ 73.795512, 18.4532213 ] } },
{ "type": "Feature", "properties": { "ccd_name": "Repair and maintenance of Bridge ,Sub-ways & Pedestrian", "com_location": "jAdhavarAva vADA nAMdeDa puNe 411041" }, "geometry": { "type": "Point", "coordinates": [ 73.7900982, 18.4600108 ] } },
{ "type": "Feature", "properties": { "ccd_name": "Others road", "com_location": "Punyadham Ashram / Utsav Lawns Road  Notting Hill Society, Pune, Maharashtra" }, "geometry": { "type": "Point", "coordinates": [ 73.8950984, 18.4583792 ] } },
{ "type": "Feature", "properties": { "ccd_name": "Sweeping /cleaning the road", "com_location": "Lane No. 1, Rutuja Park, Baner, Pune, Maharashtra" }, "geometry": { "type": "Point", "coordinates": [ 73.8148729, 18.4866163 ] } },
{ "type": "Feature", "properties": { "ccd_name": "Repairing potholes on Road", "com_location": "Navale Bridge-Warje Bridge, Pune, Maharashtra" }, "geometry": { "type": "Point", "coordinates": [ 73.8235749, 18.4597794 ] } },
{ "type": "Feature", "properties": { "ccd_name": "Others road", "com_location": "Sr.no47, bfc raod, dhwale wasti,lane no 2,near,bharat forge company,mundhwa 411036, Pune, Maharashtra" }, "geometry": { "type": "Point", "coordinates": [ 73.956876, 18.5279087 ] } },
{ "type": "Feature", "properties": { "ccd_name": "Others road", "com_location": "kvArTara geTa chauka yethIla , Pune, Maharashtra" }, "geometry": { "type": "Point", "coordinates": [ 73.8786239, 18.5246091 ] } },
{ "type": "Feature", "properties": { "ccd_name": "Sweeping /cleaning the road", "com_location": " Sahakar nagar police station, anna jagtap chowk,vijaykambale path,sahakar nagar,pune 411009." }, "geometry": { "type": "Point", "coordinates": [ 73.8540171, 18.4835971 ] } },
{ "type": "Feature", "properties": { "ccd_name": "Trimming of branches in government / public place / road", "com_location": "pla.cATa naM.2, bhuShaNa sosAyaTI, kAtraja - koMDhavA roDa , paMchamukhI gaNapatI maMdirA mAge, rAjasa sosAyaTI javaLa, kAtraja, puNe 46" }, "geometry": { "type": "Point", "coordinates": [ 73.865238, 18.4529322 ] } },
{ "type": "Feature", "properties": { "ccd_name": "Others road", "com_location": "Kankalia House, S. No. 33/23, Shiv Shambhu Nagar, Lane 1, Katraj-Kondhwa Road, Katraj, Pune, Maharashtra 411046.\t" }, "geometry": { "type": "Point", "coordinates": [ 73.8747884, 18.4498829 ] } },
{ "type": "Feature", "properties": { "ccd_name": "Fallen tree on road", "com_location": "Florentine Housing Society Bhagwan Tatyasaheb Kawade Road Near Sopan Baug Kavade Mala Ghorpadi Pune Maharashtra India" }, "geometry": { "type": "Point", "coordinates": [ 73.9040898, 18.5163307 ] } },
{ "type": "Feature", "properties": { "ccd_name": "PMC Parking Related Complaint", "com_location": " lakShmI roDavarIla puNe mahAnagara pAlikechA pe a.NDa pArka vAhanataLa" }, "geometry": { "type": "Point", "coordinates": [ 73.8909648, 18.4791489 ] } },
{ "type": "Feature", "properties": { "ccd_name": "Repairing potholes on Road", "com_location": "Shivne  warje malwadi shinde pul ramnangar ramesh wanjale bridge parisar, Pune, Maharashtra" }, "geometry": { "type": "Point", "coordinates": [ 73.8325882, 18.5430169 ] } },
{ "type": "Feature", "properties": { "ccd_name": "Others road", "com_location": "51/2, Vikas Nagar, Wanwadi, Pune, Maharashtra 411040, India" }, "geometry": { "type": "Point", "coordinates": [ 73.9033003, 18.4931407 ] } },
{ "type": "Feature", "properties": { "ccd_name": "Repair/re-sufacing of roads/footpaths", "com_location": "CVXF+WQQ, Katraj - Kondhwa Rd, Gokul Nagar, Kondhwa Budruk, Pune, Maharashtra 411048, India" }, "geometry": { "type": "Point", "coordinates": [ 73.8745332, 18.4498589 ] } },
{ "type": "Feature", "properties": { "ccd_name": "Repairing potholes on Road", "com_location": "ma Dela ka leja geTa yunivharsiTI chauka pAShANa kaDe jANArA mArga, Pune, Maharashtra" }, "geometry": { "type": "Point", "coordinates": [ 73.7923957, 18.5414267 ] } },
{ "type": "Feature", "properties": { "ccd_name": "Sweeping /cleaning the road", "com_location": "lokeshana : AnaMdavana resiDensI vasaMta vihAra aishvaryA vhilA, ityAdI sosAyaTI javaLachA eriyA roDa.    , Pune, Maharashtra" }, "geometry": { "type": "Point", "coordinates": [ 73.9531189, 18.5646495 ] } },
{ "type": "Feature", "properties": { "ccd_name": "Others road", "com_location": "Kondhwa Main Rd, Mallik Nagar, Kondhwa, Pune, Maharashtra 411048" }, "geometry": { "type": "Point", "coordinates": [ 73.8801073, 18.4670731 ] } },
{ "type": "Feature", "properties": { "ccd_name": "Repairing potholes on Road", "com_location": "1200, White House Road, Subhash Nagar Rd Number 3, Subhash Nagar, Shukrawar Peth, Pune, Maharashtra 411002, India" }, "geometry": { "type": "Point", "coordinates": [ 73.8565311, 18.5047134 ] } },
{ "type": "Feature", "properties": { "ccd_name": "Shopkeeper s material on road/footpath", "com_location": "Bridge on Ram nadi, near DSK Ranwara, Patil Nagar, Bavdhan, Pune" }, "geometry": { "type": "Point", "coordinates": [ 73.7719277, 18.5202732 ] } },
{ "type": "Feature", "properties": { "ccd_name": "Repair/re-sufacing of roads/footpaths", "com_location": "pa.crAmAMUTa gArDana va Iroja sosAyaTI kAtraja koMDhavA roDa gokuLa nagara bAhera , Pune, Maharashtra" }, "geometry": { "type": "Point", "coordinates": [ 73.865238, 18.4529322 ] } },
{ "type": "Feature", "properties": { "ccd_name": "Repair/re-sufacing of roads/footpaths", "com_location": "FVR7+VJ6, Kushaba Zanjale Rd, Market Yard, Gultekadi, Pune, Maharashtra 411037, India" }, "geometry": { "type": "Point", "coordinates": [ 73.863903656602005, 18.492021590749001 ] } },
{ "type": "Feature", "properties": { "ccd_name": "Others road", "com_location": "kAsaTa peTrola paMpa puNe 38 " }, "geometry": { "type": "Point", "coordinates": [ 73.8446777, 18.5131992 ] } },
{ "type": "Feature", "properties": { "ccd_name": "Trimming of branches in Roadside trees", "com_location": "Wakeshwar chowk to new upcoming project livience, Pune, Maharashtra" }, "geometry": { "type": "Point", "coordinates": [ 73.9385306, 18.5590617 ] } },
{ "type": "Feature", "properties": { "ccd_name": "Repairing potholes on Road", "com_location": "puNe yUnivarsiTI tUna, vaikuMTha mehatA madhUna bAhera paDatAnA \r\nsikyuriTI geTa javaLa, " }, "geometry": { "type": "Point", "coordinates": [ 73.8265425, 18.5529684 ] } },
{ "type": "Feature", "properties": { "ccd_name": "Repair/re-sufacing of roads/footpaths", "com_location": "Bombay Sappers  chaukAta Dekkana ka lejachyA purAtatva vibhAgAchyA bAjUne pAdachArI mArgAvara simeMTachA moThA bla, Pune, Maharashtra" }, "geometry": { "type": "Point", "coordinates": [ 73.8786239, 18.5246091 ] } },
{ "type": "Feature", "properties": { "ccd_name": "Repairing potholes on Road", "com_location": "AMbekara chauka pisoLI, Pune, Maharashtra" }, "geometry": { "type": "Point", "coordinates": [ 73.9077818, 18.4491966 ] } },
{ "type": "Feature", "properties": { "ccd_name": "Others (Road Project(H.O))", "com_location": "puNe solApUra rastA , svArageTa pAsUna haDapasara paryaMta ," }, "geometry": { "type": "Point", "coordinates": [ 73.9259102, 18.508934 ] } },
{ "type": "Feature", "properties": { "ccd_name": "Trimming of branches in Roadside trees", "com_location": "prasAda nagara , Pune, Maharashtra" }, "geometry": { "type": "Point", "coordinates": [ 73.9372291, 18.5626928 ] } },
{ "type": "Feature", "properties": { "ccd_name": "Repairing potholes on Road", "com_location": "Near Rituparna Society, Opposite Jupiter Hospital, Baner 411045, Pune, Maharashtra" }, "geometry": { "type": "Point", "coordinates": [ 73.785962, 18.5657127 ] } },
{ "type": "Feature", "properties": { "ccd_name": "Fallen tree on road", "com_location": "Kalyannidhi Sanskritik bhavan, Patwardhan Baug, Erandwane,\r\nNear Gomati Apartment.  , Pune, Maharashtra" }, "geometry": { "type": "Point", "coordinates": [ 73.8299634, 18.5022378 ] } },
{ "type": "Feature", "properties": { "ccd_name": "Others road", "com_location": "Atul Avenue Datt Nagar Canal Road Warje Pune" }, "geometry": { "type": "Point", "coordinates": [ 73.8050956, 18.4771872 ] } },
{ "type": "Feature", "properties": { "ccd_name": "Repairing potholes on Road", "com_location": "MAP FR2V+M26 Pune, Maharashtra rAmanagarI pisTana AMbegAva budruka" }, "geometry": { "type": "Point", "coordinates": [ 73.8425156, 18.4516625 ] } },
{ "type": "Feature", "properties": { "ccd_name": "Repairing potholes on Road", "com_location": "Sanket vihar road lane 1 to sanket vihar lane no 17, Pune, Maharashtra" }, "geometry": { "type": "Point", "coordinates": [ 73.9489479, 18.4748509 ] } },
{ "type": "Feature", "properties": { "ccd_name": "Repairing potholes on Road", "com_location": "Opposite Sanjay Sports Club Someshwar temple road Pashan\r\n, Pune, Maharashtra" }, "geometry": { "type": "Point", "coordinates": [ 73.8038377, 18.5455662 ] } },
{ "type": "Feature", "properties": { "ccd_name": "Repair/re-sufacing of roads/footpaths", "com_location": "Aeemata chowk to CRU mall on bibwewadi Lullanagar Road,, Pune, Maharashtra" }, "geometry": { "type": "Point", "coordinates": [ 73.8764665, 18.4821592 ] } },
{ "type": "Feature", "properties": { "ccd_name": "Others road", "com_location": " S.No.25/4 lonkar vasti suvarnayug colony keshavnagar., Pune, Maharashtra" },