{
"type": "FeatureCollection",
"name": "2024_Drainage",
"crs": { "type": "name", "properties": { "name": "urn:ogc:def:crs:OGC:1.3:CRS84" } },
"features": [
{ "type": "Feature", "properties": { "ccd_name": "Cleaning / Overflowing choked drains or manholes", "com_location": "Shravani Niwas Thite Nagar Near Chetna Recidency Kharadi , Pune, Maharashtra" }, "geometry": { "type": "Point", "coordinates": [ 73.9403908, 18.5443244 ] } },
{ "type": "Feature", "properties": { "ccd_name": "Cleaning / Overflowing choked drains or manholes", "com_location": "Arya Recidensy Behind Garva Biryani Sidhhi Lawns Samor Narhe Gaon Pune" }, "geometry": { "type": "Point", "coordinates": [ 73.828783, 18.446593 ] } },
{ "type": "Feature", "properties": { "ccd_name": "Cleaning / Overflowing choked drains or manholes", "com_location": "sarvhe naMbara 25/6 shrI svAmI samartha nagara nAMdeDa phATA puNe 411041" }, "geometry": { "type": "Point", "coordinates": [ 73.7958549, 18.4569151 ] } },
{ "type": "Feature", "properties": { "ccd_name": "Repairing pothole around manhole", "com_location": "Umbrya Ganpati Mandir Sitaee Nagar Dhayari Khadewadi Maharashtra India, Pune, Maharashtra" }, "geometry": { "type": "Point", "coordinates": [ 73.8101572, 18.4475479 ] } },
{ "type": "Feature", "properties": { "ccd_name": "Cleaning / Overflowing choked drains or manholes", "com_location": "MIG Shahu College road near Parvati police station, Parvati Pune  411009" }, "geometry": { "type": "Point", "coordinates": [ 73.8546009, 18.4925595 ] } },
{ "type": "Feature", "properties": { "ccd_name": "Cleaning / Overflowing choked drains or manholes", "com_location": "Dr Babasadeb Ambedkar Vasahat Sundra Bai Shala Chandan Nagar, Pune, Maharashtra" }, "geometry": { "type": "Point", "coordinates": [ 73.9325552, 18.5635511 ] } },
{ "type": "Feature", "properties": { "ccd_name": "Stopping chamber overflow (HO)", "com_location": "sTeTa ba.Nka nagara karve nagara State Bank Nagar Panchawati Karve Nagar Pune Maharashtra India" }, "geometry": { "type": "Point", "coordinates": [ 73.8142029, 18.4893901 ] } },
{ "type": "Feature", "properties": { "ccd_name": "Cleaning / Overflowing choked drains or manholes", "com_location": "Parc estique hotel's pune nagar Highway at viman Nagar" }, "geometry": { "type": "Point", "coordinates": [ 73.9196255, 18.5620766 ] } },
{ "type": "Feature", "properties": { "ccd_name": "Cleaning / Overflowing choked drains or manholes", "com_location": "sTeTa ba.Nka nagara , hingane home colony karve nagar , pune 411052" }, "geometry": { "type": "Point", "coordinates": [ 73.8102927, 18.489072 ] } },
{ "type": "Feature", "properties": { "ccd_name": "Cleaning / Overflowing choked drains or manholes", "com_location": "ghulenagara mAMjarI budruka saM naM 141 ghulenagara lena naM  6 sAI suShTI ka lanI, Pune, Maharashtra" }, "geometry": { "type": "Point", "coordinates": [ 73.7601605, 18.5614933 ] } },
{ "type": "Feature", "properties": { "ccd_name": "Cleaning / Overflowing choked drains or manholes", "com_location": "Vidya vhali Road S.K.Tower Near Sus gaon Pune\t" }, "geometry": { "type": "Point", "coordinates": [ 73.753006, 18.5528609 ] } },
{ "type": "Feature", "properties": { "ccd_name": "Cleaning / Overflowing choked drains or manholes", "com_location": "Balaji Residency Manaji Nagar Near Surubhi Dhayreshwar Industry  Narhe , Pune, Maharashtra" }, "geometry": { "type": "Point", "coordinates": [ 73.8198631, 18.4530648 ] } },
{ "type": "Feature", "properties": { "ccd_name": "Cleaning / Overflowing choked drains or manholes", "com_location": "64,ground floor, shivaji housing society, opp sb road, opp by cloud nine hospital, Pune, Maharashtra" }, "geometry": { "type": "Point", "coordinates": [ 73.8297966, 18.5278148 ] } },
{ "type": "Feature", "properties": { "ccd_name": "Cleaning / Overflowing choked drains or manholes", "com_location": "khaDakavAsalA vArDa kramAMka 1 Da kTara pemiNA baMgalyAchyA mAge , Pune, Maharashtra" }, "geometry": { "type": "Point", "coordinates": [ 73.8028276, 18.5642859 ] } },
{ "type": "Feature", "properties": { "ccd_name": "Cleaning / Overflowing choked drains or manholes", "com_location": "Sr No.36, Kharadi Road, Chandan Nagar, Pune, near Old Sai Baba Temple, Raghavendra Nagar, Kharadi, Pune, Maharashtra 411014, India" }, "geometry": { "type": "Point", "coordinates": [ 73.9334505, 18.5560359 ] } },
{ "type": "Feature", "properties": { "ccd_name": "Cleaning / Overflowing choked drains or manholes", "com_location": "National Park A6 mANikabAga siMhagaDa roDa puNe 51" }, "geometry": { "type": "Point", "coordinates": [ 73.8786239, 18.5246091 ] } },
{ "type": "Feature", "properties": { "ccd_name": "Cleaning / Overflowing choked drains or manholes", "com_location": "33/39, Shahu Colony, Warje, Pune, Maharashtra 411058, India" }, "geometry": { "type": "Point", "coordinates": [ 73.8022817, 18.477298 ] } },
{ "type": "Feature", "properties": { "ccd_name": "Cleaning / Overflowing choked drains or manholes", "com_location": "Sai Vihar Colony Sai Vihar Ashtvinayak Colony Shiv Nagar Hadapsar Pune Maharashtra India" }, "geometry": { "type": "Point", "coordinates": [ 73.9423488, 18.4812263 ] } },
{ "type": "Feature", "properties": { "ccd_name": "Cleaning / Overflowing choked drains or manholes", "com_location": "Sai Vasantham building kids school by froad Wagholi pune 412207" }, "geometry": { "type": "Point", "coordinates": [ 73.9957228, 18.5308562 ] } },
{ "type": "Feature", "properties": { "ccd_name": "Cleaning / Overflowing choked drains or manholes", "com_location": "Wagholi Pune Maharashtra India" }, "geometry": { "type": "Point", "coordinates": [ 73.9787063, 18.5807719 ] } },
{ "type": "Feature", "properties": { "ccd_name": "Cleaning / Overflowing choked drains or manholes", "com_location": "Koregaon Park lane No 7 Madari vasti survey no 17, Pune, Maharashtra" }, "geometry": { "type": "Point", "coordinates": [ 73.8993622, 18.5391261 ] } },
{ "type": "Feature", "properties": { "ccd_name": "Cleaning / Overflowing choked drains or manholes", "com_location": "Sr no 13 Gore chal Satavwadi hadapsar pune 28" }, "geometry": { "type": "Point", "coordinates": [ 73.9445742, 18.4987788 ] } },
{ "type": "Feature", "properties": { "ccd_name": "Cleaning / Overflowing choked drains or manholes", "com_location": "Sr no 12 Laxmi nagar yerwada opp golden bakery ,juna mhashicha gota jawal pune 411006" }, "geometry": { "type": "Point", "coordinates": [ 73.8836809, 18.5494253 ] } },
{ "type": "Feature", "properties": { "ccd_name": "Cleaning / Overflowing choked drains or manholes", "com_location": "seMTrala ba.Nka samora sevana la ka chauka svArageTa puNe 411037" }, "geometry": { "type": "Point", "coordinates": [ 73.8653886, 18.4888762 ] } },
{ "type": "Feature", "properties": { "ccd_name": "Cleaning / Overflowing choked drains or manholes", "com_location": "pisoLI kALabhoranagara, Pune, Maharashtra" }, "geometry": { "type": "Point", "coordinates": [ 73.9077818, 18.4491966 ] } },
{ "type": "Feature", "properties": { "ccd_name": "Cleaning / Overflowing choked drains or manholes", "com_location": "mArUtI maMdira pAThImAgIla boLa nAMdeDa gAva kArporeshana Aphisa samora nAMdeDa grAmapaMchAyata samorIla gaMllI bALAsAheba deDage yAchyA gharA shejArI,PUNE." }, "geometry": { "type": "Point", "coordinates": [ 73.8786239, 18.5246091 ] } },
{ "type": "Feature", "properties": { "ccd_name": "Cleaning / Overflowing choked drains or manholes", "com_location": "Akshay Flora Society, Kharadi, Pune 411014" }, "geometry": { "type": "Point", "coordinates": [ 73.9390131, 18.546816 ] } },
{ "type": "Feature", "properties": { "ccd_name": "Cleaning / Overflowing choked drains or manholes", "com_location": "Outside main gate of Paranjape Abhiruchi Parisar, Pune, Maharashtra" }, "geometry": { "type": "Point", "coordinates": [ 73.8185642, 18.4503829 ] } },
{ "type": "Feature", "properties": { "ccd_name": "Cleaning / Overflowing choked drains or manholes", "com_location": "Jawaharlal Nehru Rd, Vrindavan Society, Guru Nanak Nagar, Pune, Maharashtra 411037" }, "geometry": { "type": "Point", "coordinates": [ 73.8694366, 18.5003549 ] } },
{ "type": "Feature", "properties": { "ccd_name": "Cleaning / Overflowing choked drains or manholes", "com_location": "chawl no 45/231 PMC colony near janawadi police chowki, Pune, Maharashtra" }, "geometry": { "type": "Point", "coordinates": [ 73.8267951, 18.5286191 ] } },
{ "type": "Feature", "properties": { "ccd_name": "Cleaning / Overflowing choked drains or manholes", "com_location": "1 Raheja chowk opp Raheja Vista Centre in Mohammadwadi \r\n2. Krishna Nagar Opposite to Lane 40 near Crematorium \r\n, Pune, Maharashtra" }, "geometry": { "type": "Point", "coordinates": [ 73.9083517, 18.4713009 ] } },
{ "type": "Feature", "properties": { "ccd_name": "Cleaning / Overflowing choked drains or manholes", "com_location": "Kalwad wasti , near JJ english medium school , pune 411032" }, "geometry": { "type": "Point", "coordinates": [ 73.9038805, 18.5921693 ] } },
{ "type": "Feature", "properties": { "ccd_name": "Cleaning / Overflowing choked drains or manholes", "com_location": "Cloud 9 hospital,Near jw Marriott hotel S B road, Pune, Maharashtra" }, "geometry": { "type": "Point", "coordinates": [ 73.829592300000016, 18.5323341 ] } },
{ "type": "Feature", "properties": { "ccd_name": "Cleaning / Overflowing choked drains or manholes", "com_location": "Asia Kitchen Hub, 1st floor, S. No. 48/4, Old Mundhwa Road Lane Number 6, near Kuba Masjid, Ganesh Nagar, Wadgaon Sheri, Pune, Maharashtra 411014, India" }, "geometry": { "type": "Point", "coordinates": [ 73.9282739, 18.5550762 ] } },
{ "type": "Feature", "properties": { "ccd_name": "Cleaning / Overflowing choked drains or manholes", "com_location": "Akruti Hubtown Countrywoods Tilekar Nagar, Kondhwa Budruk, Pune, Maharashtra 411048, India" }, "geometry": { "type": "Point", "coordinates": [ 73.8839176, 18.4442222 ] } },
{ "type": "Feature", "properties": { "ccd_name": "Cleaning / Overflowing choked drains or manholes", "com_location": "1527, Dr Ambedkar Path, Ambedkar Society, Ashok Nagar, Yerawada, Pune, Maharashtra 411006, India" }, "geometry": { "type": "Point", "coordinates": [ 73.8798766, 18.5527092 ] } },
{ "type": "Feature", "properties": { "ccd_name": "Cleaning / Overflowing choked drains or manholes", "com_location": "1, Bypass Rd, North Hadapsar, Hadapsar, Pune, Maharashtra 411028, India" }, "geometry": { "type": "Point", "coordinates": [ 73.9254186, 18.5055564 ] } },
{ "type": "Feature", "properties": { "ccd_name": "Cleaning / Overflowing choked drains or manholes", "com_location": "survey 20/4 kharadkar park near mundhwa bridge ,behind bharat  petrol pump kharadi pune 411014." }, "geometry": { "type": "Point", "coordinates": [ 73.9357385, 18.5385762 ] } },
{ "type": "Feature", "properties": { "ccd_name": "Cleaning / Overflowing choked drains or manholes", "com_location": "Behind Aai Mata Temple Galli No 4 Bibwewdi, Pune, Maharashtra" }, "geometry": { "type": "Point", "coordinates": [ 73.8854116, 18.4579754 ] } },
{ "type": "Feature", "properties": { "ccd_name": "Cleaning / Overflowing choked drains or manholes", "com_location": "siMbAyosisa garlsa ha sTela DyAphoDIla, siMbAyosisa roDa, Da kTara lAla pyAtha la.cbachyA mAge, sAkore nagara., Pune, Maharashtra" }, "geometry": { "type": "Point", "coordinates": [ 73.9109977, 18.5619384 ] } },
{ "type": "Feature", "properties": { "ccd_name": "Cleaning / Overflowing choked drains or manholes", "com_location": "141, B Near Shani Mandir,  Near Ambika Bakery, Yerwada Bazar, Pune-411006." }, "geometry": { "type": "Point", "coordinates": [ 73.8896445, 18.5527212 ] } },
{ "type": "Feature", "properties": { "ccd_name": "Cleaning / Overflowing choked drains or manholes", "com_location": "187, Shukrawar Peth, Pune, Maharashtra 411002, India" }, "geometry": { "type": "Point", "coordinates": [ 73.855300903320312, 18.493190765380859 ] } },
{ "type": "Feature", "properties": { "ccd_name": "Cleaning / Overflowing choked drains or manholes", "com_location": "At Madari Vasti , Sr no 17/B, \r\nKoregaon Park,\r\nPune" }, "geometry": { "type": "Point", "coordinates": [ 73.894058, 18.533998 ] } },
{ "type": "Feature", "properties": { "ccd_name": "Cleaning / Overflowing choked drains or manholes", "com_location": "Sadashiv Peth Pune Maharashtra India" }, "geometry": { "type": "Point", "coordinates": [ 73.8440548, 18.5082486 ] } },
{ "type": "Feature", "properties": { "ccd_name": "Cleaning / Overflowing choked drains or manholes", "com_location": "Regency Classic Mohan Nagar CoOp Society Baner Pune Maharashtra India" }, "geometry": { "type": "Point", "coordinates": [ 73.7692976, 18.5547705 ] } },
{ "type": "Feature", "properties": { "ccd_name": "Cleaning / Overflowing choked drains or manholes", "com_location": "mohan nagar sr no. 94 baner pune 411045." }, "geometry": { "type": "Point", "coordinates": [ 73.7743934, 18.5639827 ] } },
{ "type": "Feature", "properties": { "ccd_name": "Cleaning / Overflowing choked drains or manholes", "com_location": "hadapsar industrial estate at kirsloskar service gate, Pune, Maharashtra" }, "geometry": { "type": "Point", "coordinates": [ 73.9160571, 18.5111574 ] } },
{ "type": "Feature", "properties": { "ccd_name": "Cleaning / Overflowing choked drains or manholes", "com_location": "gulaTekaDI DAyasa pla Ta , Pune, Maharashtra" }, "geometry": { "type": "Point", "coordinates": [ 73.7799243, 18.4643011 ] } },
{ "type": "Feature", "properties": { "ccd_name": "Cleaning / Overflowing choked drains or manholes", "com_location": "puraMdara DearI pAsUna mahApAlIkA shALA, viThThala maMdIra te puDhe saraLa donashe mITara,yevalevADI gAvaThANa mukhya rastA,pune. " }, "geometry": { "type": "Point", "coordinates": [ 73.8963496, 18.4363212 ] } },
{ "type": "Feature", "properties": { "ccd_name": "Cleaning / Overflowing choked drains or manholes", "com_location": "vaiShNava hAUsa 429/30 DAyasa pla Ta gulaTekaDI mAge, pUnama desI dArU dukana puNe 411037" }, "geometry": { "type": "Point", "coordinates": [ 73.8704877, 18.4877372 ] } },
{ "type": "Feature", "properties": { "ccd_name": "Cleaning / Overflowing choked drains or manholes", "com_location": " near Bishop School, Undri , Pune-411060. " }, "geometry": { "type": "Point", "coordinates": [ 73.9154453, 18.4583814 ] } },
{ "type": "Feature", "properties": { "ccd_name": "Cleaning / Overflowing choked drains or manholes", "com_location": " khese park Dhanori , Pune, Maharashtra" }, "geometry": { "type": "Point", "coordinates": [ 73.9109977, 18.5907515 ] } },
{ "type": "Feature", "properties": { "ccd_name": "Cleaning / Overflowing choked drains or manholes", "com_location": "ganesh vihar, svAmI vivekAnaMda road, bibvewadi pune 411037" }, "geometry": { "type": "Point", "coordinates": [ 73.864536, 18.4708247 ] } },
{ "type": "Feature", "properties": { "ccd_name": "Replacement of missing/damaged manholes/inspection", "com_location": "E-2/20, E-2/20, Genba Moze Rd, Tridal Nagar, Shastrinagar, Yerawada, Pune, Maharashtra 411006, India" }, "geometry": { "type": "Point", "coordinates": [ 73.8979125, 18.5610227 ] } },
{ "type": "Feature", "properties": { "ccd_name": "Cleaning / Overflowing choked drains or manholes", "com_location": "380 Ganj peth,near mahatma phule wada,pune 411042." }, "geometry": { "type": "Point", "coordinates": [ 73.863622, 18.506352 ] } },
{ "type": "Feature", "properties": { "ccd_name": "Cleaning / Overflowing choked drains or manholes", "com_location": "vijaya vallabha shALe shejArI bhavAnI peTha vaTeshvara bhavana javaLa dALa ALI janatA ba ka javaLa, Pune, Maharashtra" }, "geometry": { "type": "Point", "coordinates": [ 73.8652469, 18.5113733 ] } },
{ "type": "Feature", "properties": { "ccd_name": "Cleaning / Overflowing choked drains or manholes", "com_location": "prabhAga kramAMka 35 padmAvatI sAraMga roDa svAmI piThAchI giraNa taLajAI mAtA vasAhata shanI maMdirAjavaLa , Pune, Maharashtra" }, "geometry": { "type": "Point", "coordinates": [ 73.8444187, 18.4762301 ] } },
{ "type": "Feature", "properties": { "ccd_name": "Cleaning / Overflowing choked drains or manholes", "com_location": "Lane no 1A Tingre nagar plot no 40 sr.161/2b , pune" }, "geometry": { "type": "Point", "coordinates": [ 73.8882256, 18.575414 ] } },
{ "type": "Feature", "properties": { "ccd_name": "Cleaning / Overflowing choked drains or manholes", "com_location": "Sr.No :13, Rahul colony , satavwadi, hadapsar ,pune :28\r\n" }, "geometry": { "type": "Point", "coordinates": [ 73.9484731, 18.4953248 ] } },
{ "type": "Feature", "properties": { "ccd_name": "Cleaning / Overflowing choked drains or manholes", "com_location": "Krushnai Colony Survey No 36/10 Kalepadal Hadapsar , Pune, Maharashtra" }, "geometry": { "type": "Point", "coordinates": [ 73.937265, 18.4910111 ] } },
{ "type": "Feature", "properties": { "ccd_name": "Cleaning / Overflowing choked drains or manholes", "com_location": "Ganpati Chowk Near Punjab National Bank Viman Nagar Pune." }, "geometry": { "type": "Point", "coordinates": [ 73.9185915, 18.5675531 ] } },
{ "type": "Feature", "properties": { "ccd_name": "Choke in main drain", "com_location": "12/1/2/1, Raj Bhavan Ganesh Khind, Pune University, Pune, Maharashtra 411007, India" }, "geometry": { "type": "Point", "coordinates": [ 73.820447, 18.54797 ] } },
{ "type": "Feature", "properties": { "ccd_name": "Cleaning / Overflowing choked drains or manholes", "com_location": "    address :-  sarve number 168/1B Tupe Nagar Malwadi Hadapsar Pune 411028, near keshv chowk." }, "geometry": { "type": "Point", "coordinates": [ 73.9389213, 18.5053012 ] } },
{ "type": "Feature", "properties": { "ccd_name": "Cleaning / Overflowing choked drains or manholes", "com_location": "Siddharth nagar lane no. 3,main road,dhanori,pune 411015." }, "geometry": { "type": "Point", "coordinates": [ 73.9059247, 18.5928993 ] } },
{ "type": "Feature", "properties": { "ccd_name": "Cleaning / Overflowing choked drains or manholes", "com_location": "anusayA pArka navIna bhAdale vastI vAgholI bolhAI mAtA kirANA dukAna samora, Pune, Maharashtra" }, "geometry": { "type": "Point", "coordinates": [ 73.9751718, 18.5768645 ] } },
{ "type": "Feature", "properties": { "ccd_name": "Cleaning / Overflowing choked drains or manholes", "com_location": "Swapnapurti Complex, Kharadi Rd, Chandan Nagar, Pune, Maharashtra 411014, India" }, "geometry": { "type": "Point", "coordinates": [ 73.9322392, 18.5623678 ] } },
{ "type": "Feature", "properties": { "ccd_name": "Cleaning / Overflowing choked drains or manholes", "com_location": " near Blue Berry, Kharadi , Pune, Maharashtra" }, "geometry": { "type": "Point", "coordinates": [ 73.9511152, 18.5515387 ] } },
{ "type": "Feature", "properties": { "ccd_name": "Cleaning / Overflowing choked drains or manholes", "com_location": "chawl no 45/231 PMC colony near janawadi police chowki, Pune, Maharashtra" }, "geometry": { "type": "Point", "coordinates": [ 73.8267951, 18.5286191 ] } },
{ "type": "Feature", "properties": { "ccd_name": "Stopping chamber overflow (HO)", "com_location": "nAMdeDa gAva madhye vaDajAI maMdirAchyA mAge, Pune, Maharashtra" }, "geometry": { "type": "Point", "coordinates": [ 73.9812963, 18.5610146 ] } },
{ "type": "Feature", "properties": { "ccd_name": "Raising of manhole (except in monsoon)", "com_location": "Siddharth Nagar Road Sidhart Nagar Wagholi Pune Maharashtra India" }, "geometry": { "type": "Point", "coordinates": [ 73.9840134, 18.5820654 ] } },
{ "type": "Feature", "properties": { "ccd_name": "Cleaning / Overflowing choked drains or manholes", "com_location": "mahatma gandhi society sahkar nagar 1 padmavati , Pune, Maharashtra" }, "geometry": { "type": "Point", "coordinates": [ 73.8515091, 18.4751953 ] } },
{ "type": "Feature", "properties": { "ccd_name": "Cleaning / Overflowing choked drains or manholes", "com_location": "jhAMbare heriTeja,\r\nchavhANa nagara\r\ndhanakavaDI  puNe 43 " }, "geometry": { "type": "Point", "coordinates": [ 73.8537421, 18.4660281 ] } },
{ "type": "Feature", "properties": { "ccd_name": "Cleaning / Overflowing choked drains or manholes", "com_location": " 5, P.P. Vasudevashram incometax office lane lane no 14 prabhat Raod,pune 04" }, "geometry": { "type": "Point", "coordinates": [ 73.8327296, 18.5099099 ] } },
{ "type": "Feature", "properties": { "ccd_name": "Cleaning / Overflowing choked drains or manholes", "com_location": "viThThala sAInagara AMbegAva paThAra , Pune, Maharashtra" }, "geometry": { "type": "Point", "coordinates": [ 73.874985, 18.4572694 ] } },
{ "type": "Feature", "properties": { "ccd_name": "Cleaning / Overflowing choked drains or manholes", "com_location": "sadashiv dangata nagar dhabade, samarth complex ambegaon budruk pune 411046." }, "geometry": { "type": "Point", "coordinates": [ 73.8278692, 18.4601237 ] } },
{ "type": "Feature", "properties": { "ccd_name": "Cleaning / Overflowing choked drains or manholes", "com_location": "mAnAjI nagara naRhegAva, Pune, Maharashtra" }, "geometry": { "type": "Point", "coordinates": [ 73.8239226, 18.4527749 ] } },
{ "type": "Feature", "properties": { "ccd_name": "Cleaning / Overflowing choked drains or manholes", "com_location": "sarve naMbara 41 niyaresTa rAja meDikala chaudharI vastI kharADI puNe 14" }, "geometry": { "type": "Point", "coordinates": [ 73.9411813, 18.5511703 ] } },
{ "type": "Feature", "properties": { "ccd_name": "Cleaning / Overflowing choked drains or manholes", "com_location": "old mundhwa road ganesh nagar lane no 10 sr. 48\\4 , Pune, Maharashtra" }, "geometry": { "type": "Point", "coordinates": [ 73.9278304, 18.5539709 ] } },
{ "type": "Feature", "properties": { "ccd_name": "Cleaning / Overflowing choked drains or manholes", "com_location": "Shramik Vasahat Lane no 12 Near Madan Market Karve Nagar Pune 411052" }, "geometry": { "type": "Point", "coordinates": [ 73.8132025, 18.491181 ] } },
{ "type": "Feature", "properties": { "ccd_name": "Cleaning / Overflowing choked drains or manholes", "com_location": "Nandan Acura corporation society Balewadi Pune" }, "geometry": { "type": "Point", "coordinates": [ 73.770125, 18.5695114 ] } },
{ "type": "Feature", "properties": { "ccd_name": "Cleaning / Overflowing choked drains or manholes", "com_location": "lane no 2 laxmi nagar kondhwa bk vit college shejari pune 411048" }, "geometry": { "type": "Point", "coordinates": [ 73.8847777, 18.4580998 ] } },
{ "type": "Feature", "properties": { "ccd_name": "Cleaning / Overflowing choked drains or manholes", "com_location": " 690 shukravAra peTha, shrInAtha Ta kIja samora shivashaktI apArTameMTa,pune" }, "geometry": { "type": "Point", "coordinates": [ 73.8570911, 18.4693711 ] } },
{ "type": "Feature", "properties": { "ccd_name": "Cleaning / Overflowing choked drains or manholes", "com_location": "chALa naMbara 41, 40, janavADI polisa chaukIjavaLa, pIemasI ka lanI naMbara 11,  puNe 411016 " }, "geometry": { "type": "Point", "coordinates": [ 73.8255387, 18.5304953 ] } },
{ "type": "Feature", "properties": { "ccd_name": "Cleaning / Overflowing choked drains or manholes", "com_location": "pavAra vastI roDa keshavanagara janasevA ba.Nka samora yethIla hA pra blema Ahe khAlIla vhiDiota, Pune, Maharashtra" }, "geometry": { "type": "Point", "coordinates": [ 73.9408654, 18.5300056 ] } },
{ "type": "Feature", "properties": { "ccd_name": "Cleaning / Overflowing choked drains or manholes", "com_location": "devarShI ka mpleksa, mAnAjI nagara naRhe puNe 411041.\r\n" }, "geometry": { "type": "Point", "coordinates": [ 73.8230904, 18.4513845 ] } },
{ "type": "Feature", "properties": { "ccd_name": "Replacement of missing/damaged manholes/inspection", "com_location": "ROW HOUSE-1, DSK TARANGAN PARK, Lane No. 12, DahANUkara ka lanI, kotharUDa, puNe, mahArAShTra 411038, India" }, "geometry": { "type": "Point", "coordinates": [ 73.8097913, 18.4958868 ] } },
{ "type": "Feature", "properties": { "ccd_name": "Cleaning / Overflowing choked drains or manholes", "com_location": "nava sahyAdrI madhye prospariTI sosAyaTIta rAhate. bilDiMgachaM nAva chaitanya rAma apArTameMTa. koThArI nAraLavAlA , Pune, Maharashtra" }, "geometry": { "type": "Point", "coordinates": [ 73.8083273, 18.4472707 ] } },
{ "type": "Feature", "properties": { "ccd_name": "Cleaning / Overflowing choked drains or manholes", "com_location": "Magarpatta Hadapsar Pune Maharashtra India" }, "geometry": { "type": "Point", "coordinates": [ 73.9271644, 18.5158057 ] } },
{ "type": "Feature", "properties": { "ccd_name": "Cleaning / Overflowing choked drains or manholes", "com_location": "Bombil market,1641 /42 Shukrawar peth Nehru chowk ,pune 411002." }, "geometry": { "type": "Point", "coordinates": [ 73.8589228, 18.512503 ] } },
{ "type": "Feature", "properties": { "ccd_name": "Cleaning / Overflowing choked drains or manholes", "com_location": " Vidya nagar katraj lane no 11 nr. Nana baraskar house, Pune, Maharashtra" }, "geometry": { "type": "Point", "coordinates": [ 73.8697445, 18.4512254 ] } },
{ "type": "Feature", "properties": { "ccd_name": "Replacement of missing/damaged manholes/inspection", "com_location": "b 411048, 604/B, NIBM Post Office Rd, Salunkhe Vihar Society, Kondhwa, Pune, Maharashtra 411048, India" }, "geometry": { "type": "Point", "coordinates": [ 73.902328491210938, 18.477611541748047 ] } },
{ "type": "Feature", "properties": { "ccd_name": "Septic Tank Cleaning", "com_location": "6, Jai Maharashtra Colony, Keshav Nagar, Mundhwa, Pune, Maharashtra 411036, India" }, "geometry": { "type": "Point", "coordinates": [ 73.939822, 18.529872 ] } },
{ "type": "Feature", "properties": { "ccd_name": "Cleaning / Overflowing choked drains or manholes", "com_location": "Venkatesh Sankul Mahadev nagar Hadapsar Pune" }, "geometry": { "type": "Point", "coordinates": [ 73.9562771, 18.5077812 ] } },
{ "type": "Feature", "properties": { "ccd_name": "Cleaning / Overflowing choked drains or manholes", "com_location": "2, Road, next to Hotel Ambassador, Model Colony, Shivajinagar, Pune, Maharashtra 411016, India" }, "geometry": { "type": "Point", "coordinates": [ 73.841537475585938, 18.527965545654297 ] } },
{ "type": "Feature", "properties": { "ccd_name": "Cleaning / Overflowing choked drains or manholes", "com_location": "163 budhwar peth , Pune, Maharashtra" }, "geometry": { "type": "Point", "coordinates": [ 73.8580397, 18.5158792 ] } },
{ "type": "Feature", "properties": { "ccd_name": "Cleaning / Overflowing choked drains or manholes", "com_location": "37/12/5, Kale Borate Nagar S No 37 Lane No 13, Bijle Nagar, Padal, Hadapsar, Pune, Maharashtra 411028" }, "geometry": { "type": "Point", "coordinates": [ 73.9420211, 18.4847507 ] } },
{ "type": "Feature", "properties": { "ccd_name": "Cleaning / Overflowing choked drains or manholes", "com_location": "Kabir narayan 9 apartment,361 Shaniwar peth,pune 411030." }, "geometry": { "type": "Point", "coordinates": [ 73.8519356, 18.5194431 ] } },
{ "type": "Feature", "properties": { "ccd_name": "Cleaning / Overflowing choked drains or manholes", "com_location": "HW4G+6MH, Lane No. 8, Ganesh Nagar, Wadgaon Sheri, Pune, Maharashtra 411014, India" }, "geometry": { "type": "Point", "coordinates": [ 73.9267873, 18.5556007 ] } },
{ "type": "Feature", "properties": { "ccd_name": "Replacement of missing/damaged manholes/inspection", "com_location": "3/4, Rakshak Nagar Gold Rd, Rakshak Nagar, Kharadi, Pune, Maharashtra 411014, India" }, "geometry": { "type": "Point", "coordinates": [ 73.944473266601562, 18.553012847900391 ] } },
{ "type": "Feature", "properties": { "ccd_name": "Cleaning / Overflowing choked drains or manholes", "com_location": "Salve garden chowk,near maurya hotel,kondhwa bk,pune 411046." }, "geometry": { "type": "Point", "coordinates": [ 73.8790846, 18.4581225 ] } },
{ "type": "Feature", "properties": { "ccd_name": "Cleaning / Overflowing choked drains or manholes", "com_location": "1, Sphurti Society, Wakadewadi, Shivajinagar, Pune, Maharashtra 411005, India" }, "geometry": { "type": "Point", "coordinates": [ 73.851425170897997, 18.540208816528001 ] } },
{ "type": "Feature", "properties": { "ccd_name": "Cleaning / Overflowing choked drains or manholes", "com_location": "Madari Vasti , Sr no 17/B, \r\nKoregaon Park,\r\nPune" }, "geometry": { "type": "Point", "coordinates": [ 73.894058, 18.533998 ] } },
{ "type": "Feature", "properties": { "ccd_name": "Cleaning / Overflowing choked drains or manholes", "com_location": "pattA: sarve naMbara 41/2, siddhivinAyaka ka lanI, keshavanagara muMDhavA puNe 411036." }, "geometry": { "type": "Point", "coordinates": [ 73.9525145, 18.5340692 ] } },
{ "type": "Feature", "properties": { "ccd_name": "Cleaning / Overflowing choked drains or manholes", "com_location": "Address : Suvidha Ambar Society, Near Zeal College , Narhe , Pune - 41" }, "geometry": { "type": "Point", "coordinates": [ 73.8270011, 18.4465797 ] } },
{ "type": "Feature", "properties": { "ccd_name": "Cleaning / Overflowing choked drains or manholes", "com_location": "vAraje mALavADI polIsa chaukI mena roDa bhAjI mArkeTa samorIla bAjU lA svara DijITala sha pa puNe 58" }, "geometry": { "type": "Point", "coordinates": [ 73.8786239, 18.5246091 ] } },
{ "type": "Feature", "properties": { "ccd_name": "Cleaning / Overflowing choked drains or manholes", "com_location": "sr num 20/3 balaji nagar back side pawar hospital near venkatesh vidya prashalay\r\nNew Rajgad Society, Panchod, Balaji Nagar, Pune, Maharashtra 411043" }, "geometry": { "type": "Point", "coordinates": [ 73.8591535, 18.4659088 ] } },
{ "type": "Feature", "properties": { "ccd_name": "Cleaning / Overflowing choked drains or manholes", "com_location": "Sr. No. 37, Sasane colony, Keshavnagar, Mundhwa.\r\nDrainage line between Suntale, Shirke home., Pune, Maharashtra" }, "geometry": { "type": "Point", "coordinates": [ 73.9405926, 18.5324382 ] } },
{ "type": "Feature", "properties": { "ccd_name": "Cleaning / Overflowing choked drains or manholes", "com_location": "trimUrtI vihAra bekarAInagara madhIla mena roDa, Pune, Maharashtra" }, "geometry": { "type": "Point", "coordinates": [ 73.9509448, 18.4889097 ] } },
{ "type": "Feature", "properties": { "ccd_name": "Cleaning / Overflowing choked drains or manholes", "com_location": " Koregaon Park lane No 7 Madari vasti survey no 17 , Pune, Maharashtra" }, "geometry": { "type": "Point", "coordinates": [ 73.8993622, 18.5391261 ] } },
{ "type": "Feature", "properties": { "ccd_name": "Cleaning / Overflowing choked drains or manholes", "com_location": " bibavevADI iMdirA nagara supara B84 rUma naMbara 4 puNe 37 " }, "geometry": { "type": "Point", "coordinates": [ 73.8640944, 18.4690213 ] } },
{ "type": "Feature", "properties": { "ccd_name": "Cleaning / Overflowing choked drains or manholes", "com_location": "shrI AdishaktI  so.naM1 akShayanagara  dhanakavaDI  , Pune, Maharashtra" }, "geometry": { "type": "Point", "coordinates": [ 73.8546821, 18.4654546 ] } },
{ "type": "Feature", "properties": { "ccd_name": "Cleaning / Overflowing choked drains or manholes", "com_location": "Survey No. 39/2/2, Mate Nagar, Lane No. 4,Wadgoan Sheri, Pune 411014." }, "geometry": { "type": "Point", "coordinates": [ 73.9235338, 18.5490033 ] } },
{ "type": "Feature", "properties": { "ccd_name": "Cleaning / Overflowing choked drains or manholes", "com_location": "Baner Gaon Than Ram Mandir Bol Maruti Mandir Samor Main Road Pune " }, "geometry": { "type": "Point", "coordinates": [ 73.7867629, 18.5590032 ] } },
{ "type": "Feature", "properties": { "ccd_name": "Cleaning / Overflowing choked drains or manholes", "com_location": "mAUlI sosAyaTI ,mAtoshrI AshramAchyA pAThImAge ,reDDIja kichanachyA bAjUlA,pune" }, "geometry": { "type": "Point", "coordinates": [ 73.9531189, 18.5646495 ] } },
{ "type": "Feature", "properties": { "ccd_name": "Cleaning / Overflowing choked drains or manholes", "com_location": "Lane no 1 chaudharI vastI, shAMtInagara, kharADI, puNe 411014. " }, "geometry": { "type": "Point", "coordinates": [ 73.9420411, 18.5575712 ] } },
{ "type": "Feature", "properties": { "ccd_name": "Cleaning / Overflowing choked drains or manholes", "com_location": "near KODE,Montvert Finesse, Baner Pashan Link Road,pune" }, "geometry": { "type": "Point", "coordinates": [ 73.7916532, 18.5506787 ] } },
{ "type": "Feature", "properties": { "ccd_name": "Cleaning / Overflowing choked drains or manholes", "com_location": "90/1-22, Blossom Villa Rd, Veerbhadra Nagar, Baner, Pune, Maharashtra 411045, India" }, "geometry": { "type": "Point", "coordinates": [ 73.772715775148654, 18.56030807293364 ] } },
{ "type": "Feature", "properties": { "ccd_name": "Cleaning / Overflowing choked drains or manholes", "com_location": "24/38 shram safalya society,PMC colony,pune mumbai road,shivaji nagar,wakdewadi,pune 411003." }, "geometry": { "type": "Point", "coordinates": [ 73.7737101, 18.6447989 ] } },
{ "type": "Feature", "properties": { "ccd_name": "Cleaning / Overflowing choked drains or manholes", "com_location": "Pavilion Residency Mahalunge near suryamukhi ganesh temple road pune 411045" }, "geometry": { "type": "Point", "coordinates": [ 73.7571434, 18.5742581 ] } },
{ "type": "Feature", "properties": { "ccd_name": "Cleaning / Overflowing choked drains or manholes", "com_location": "kAtraja maMtaravADI rastyAvara pisoLI yethIla padmAvatI maMdirAjavaLa, Pune, Maharashtra" }, "geometry": { "type": "Point", "coordinates": [ 73.8580788, 18.476679 ] } },
{ "type": "Feature", "properties": { "ccd_name": "Cleaning / Overflowing choked drains or manholes", "com_location": "Head Office, Warje Malwadi Rd, Rahul Nagar, Kothrud, Pune, Maharashtra 411058, India" }, "geometry": { "type": "Point", "coordinates": [ 73.814327929415811, 18.500126510493992 ] } },
{ "type": "Feature", "properties": { "ccd_name": "Cleaning / Overflowing choked drains or manholes", "com_location": "LANE NO A2, NIVRUTTI NAGAR, WADGAON BUDRUK, \r\nPUNE" }, "geometry": { "type": "Point", "coordinates": [ 73.9414903, 18.5578486 ] } },
{ "type": "Feature", "properties": { "ccd_name": "Cleaning / Overflowing choked drains or manholes", "com_location": "Acolade road, Tukaram Nagar, Kharadi 411014., Pune, Maharashtra" }, "geometry": { "type": "Point", "coordinates": [ 73.9350212, 18.5471992 ] } },
{ "type": "Feature", "properties": { "ccd_name": "Cleaning / Overflowing choked drains or manholes", "com_location": "Aditi Samruddhi, Baner Rd, Baner, Pune, Maharashtra 411045, India" }, "geometry": { "type": "Point", "coordinates": [ 73.788110093268998, 18.561874712581002 ] } },
{ "type": "Feature", "properties": { "ccd_name": "Replacement of missing/damaged manholes/inspection", "com_location": "Near IISER, Pune main gate at NDA Pashan Road" }, "geometry": { "type": "Point", "coordinates": [ 73.8073516, 18.5449686 ] } },
{ "type": "Feature", "properties": { "ccd_name": "Stopping chamber overflow (HO)", "com_location": "Sant Nagar Lohegaon Pune Maharashtra India" }, "geometry": { "type": "Point", "coordinates": [ 73.9345125, 18.5985629 ] } },
{ "type": "Feature", "properties": { "ccd_name": "Cleaning / Overflowing choked drains or manholes", "com_location": "near KODE and Star Bazaar,Baner , Pune, Maharashtra" }, "geometry": { "type": "Point", "coordinates": [ 73.7948821, 18.5516078 ] } },
{ "type": "Feature", "properties": { "ccd_name": "Cleaning / Overflowing choked drains or manholes", "com_location": "sarve naMbara 286 svAmI samartha nagara lena naMbara 2 sAThe vastI lohagAva puNe 47" }, "geometry": { "type": "Point", "coordinates": [ 73.924319, 18.5992531 ] } },
{ "type": "Feature", "properties": { "ccd_name": "Cleaning / Overflowing choked drains or manholes", "com_location": "jogeshvarI ka lanI 2 kALepaDaLa haDapasara puNe- 411028" }, "geometry": { "type": "Point", "coordinates": [ 73.9411815, 18.4780322 ] } },
{ "type": "Feature", "properties": { "ccd_name": "Cleaning / Overflowing choked drains or manholes", "com_location": "modI menshana, sevhana lava chauka, Pune, Maharashtra" }, "geometry": { "type": "Point", "coordinates": [ 73.8786239, 18.5246091 ] } },
{ "type": "Feature", "properties": { "ccd_name": "Replacement of missing/damaged manholes/inspection", "com_location": "GRCX+RV2, Congress House Rd, Shivajinagar, Pune, Maharashtra 411005, India" }, "geometry": { "type": "Point", "coordinates": [ 73.8496535, 18.5220442 ] } },
{ "type": "Feature", "properties": { "ccd_name": "Cleaning / Overflowing choked drains or manholes", "com_location": "sAInAtha nagara lAcha basa sTa pa navajIvana sosAyaTI sarve naMbara 20 21 rAghobA pATIla nagara kharADI puNe 14 " }, "geometry": { "type": "Point", "coordinates": [ 73.931638, 18.5417597 ] } },
{ "type": "Feature", "properties": { "ccd_name": "Cleaning / Overflowing choked drains or manholes", "com_location": "9, Baner - Pashan Link Rd, Pashan, Pune, Maharashtra 411008, India" }, "geometry": { "type": "Point", "coordinates": [ 73.79375, 18.551563 ] } },
{ "type": "Feature", "properties": { "ccd_name": "Cleaning / Overflowing choked drains or manholes", "com_location": "Gananjay Society, Maurya Vihar, Kothrud, Pune, Maharashtra 411029" }, "geometry": { "type": "Point", "coordinates": [ 73.8011017, 18.5008666 ] } },
{ "type": "Feature", "properties": { "ccd_name": "Cleaning / Overflowing choked drains or manholes", "com_location": "-  e / 3 , rAgavilAsa sosAyaTI, lena naM. sI , koregAva pArka, puNe 411001." }, "geometry": { "type": "Point", "coordinates": [ 73.9531189, 18.5646495 ] } },
{ "type": "Feature", "properties": { "ccd_name": "Cleaning / Overflowing choked drains or manholes", "com_location": "Shastri Road, at Kaka halawai sweet Shop and at Vikasnagar, Pune, Maharashtra" }, "geometry": { "type": "Point", "coordinates": [ 73.8443349, 18.5064863 ] } },
{ "type": "Feature", "properties": { "ccd_name": "Cleaning / Overflowing choked drains or manholes", "com_location": "Gulam Ali Nagar Sai Colony Hadapsar Pune Maharashtra India" }, "geometry": { "type": "Point", "coordinates": [ 73.9302874, 18.4824069 ] } },
{ "type": "Feature", "properties": { "ccd_name": "Cleaning / Overflowing choked drains or manholes", "com_location": "pisoLI gAva padamAvatI maMdIra, Pune, Maharashtra" }, "geometry": { "type": "Point", "coordinates": [ 73.8580788, 18.476679 ] } },
{ "type": "Feature", "properties": { "ccd_name": "Cleaning / Overflowing choked drains or manholes", "com_location": "Bhosale complex, opposite vaibhav theatre, next to aaryan centre. Solapur road, hadapsar. Pune 411028" }, "geometry": { "type": "Point", "coordinates": [ 73.9306778, 18.5019985 ] } },
{ "type": "Feature", "properties": { "ccd_name": "Cleaning / Overflowing choked drains or manholes", "com_location": "326-Somvar peth, devkunj appartment, flat no-03,  1st flor, pune-11" }, "geometry": { "type": "Point", "coordinates": [ 73.86732, 18.521656 ] } },
{ "type": "Feature", "properties": { "ccd_name": "Cleaning / Overflowing choked drains or manholes", "com_location": "C wing Building, kopare gaothan society, opp Kakade city, Karne nahar.pune.\r\nFRP6+6V2 Pune, Maharashtra" }, "geometry": { "type": "Point", "coordinates": [ 73.811947, 18.4857971 ] } },
{ "type": "Feature", "properties": { "ccd_name": "Cleaning / Overflowing choked drains or manholes", "com_location": "Plot no 37/3/4 Onyx building North main road next to westin hotel ghorpadi pune " }, "geometry": { "type": "Point", "coordinates": [ 73.9071292, 18.5383734 ] } },
{ "type": "Feature", "properties": { "ccd_name": "Stopping chamber overflow (HO)", "com_location": "Shivajinagar Pune Maharashtra India" }, "geometry": { "type": "Point", "coordinates": [ 73.8445617, 18.5314419 ] } },
{ "type": "Feature", "properties": { "ccd_name": "Cleaning / Overflowing choked drains or manholes", "com_location": "Aagam Tekdi Schhaimata  roDa Save No  68  Balaji  Sankul  Back  sAIT  Saimandir  javaL SaiHil Sosaity sarve   Pin  No  411046, Pune, Maharashtra" }, "geometry": { "type": "Point", "coordinates": [ 73.8529344, 18.4429443 ] } },
{ "type": "Feature", "properties": { "ccd_name": "Repairing pothole around manhole", "com_location": "Lane No 40, High Bliss society lane, Bunglow No 4., Pune, Maharashtra" }, "geometry": { "type": "Point", "coordinates": [ 73.898512, 18.5445916 ] } },
{ "type": "Feature", "properties": { "ccd_name": "Cleaning / Overflowing choked drains or manholes", "com_location": "sutAra ka mpleksa, siddhI la na samora, naRhe, puNe\r\n" }, "geometry": { "type": "Point", "coordinates": [ 73.8219658, 18.4459006 ] } },
{ "type": "Feature", "properties": { "ccd_name": "Cleaning / Overflowing choked drains or manholes", "com_location": "sr no 19 dhayari garmaal sidhivinayak manas society mage riddhi siddhi javal pune 411041" }, "geometry": { "type": "Point", "coordinates": [ 73.8139, 18.4571969 ] } },
{ "type": "Feature", "properties": { "ccd_name": "Replacement of missing/damaged manholes/inspection", "com_location": "74/A/28/11, Sayyad Nagar, Hadapsar, Pune, Autadwadi Handewadi, Maharashtra 411028, India" }, "geometry": { "type": "Point", "coordinates": [ 73.9290569, 18.4842964 ] } },
{ "type": "Feature", "properties": { "ccd_name": "Cleaning / Overflowing choked drains or manholes", "com_location": "Sr No.28 Sai Residency,Jijamata Chowk,Ambegaon Pathar,Pune 411046." }, "geometry": { "type": "Point", "coordinates": [ 73.8432608, 18.4564826 ] } },
{ "type": "Feature", "properties": { "ccd_name": "Cleaning / Overflowing choked drains or manholes", "com_location": ".no. 15/17 ,\r\nLane no 4\r\nJay malhar nagar \r\nNear pride school,\r\nAmbegav pathar,\r\nPune 411046" }, "geometry": { "type": "Point", "coordinates": [ 73.8748329, 18.4538114 ] } },
{ "type": "Feature", "properties": { "ccd_name": "Cleaning / Overflowing choked drains or manholes", "com_location": "3/4/5, Cummins College Rd, Yajurved Society, Hingne Budrukh, Karve Nagar, Pune, Maharashtra 411052, India" }, "geometry": { "type": "Point", "coordinates": [ 73.8258006, 18.4882272 ] } },
{ "type": "Feature", "properties": { "ccd_name": "Cleaning / Overflowing choked drains or manholes", "com_location": "Adharsh nagar, bhau patil, bhopodi, Near by DHL Company , Pune, Maharashtra" }, "geometry": { "type": "Point", "coordinates": [ 73.8321013, 18.5682809 ] } },
{ "type": "Feature", "properties": { "ccd_name": "Cleaning / Overflowing choked drains or manholes", "com_location": "21/7/F/7, Shri Krishna Society Lane No 2, Ragoba Patil Nagar, Kharadi, Pune, Maharashtra 411014, India" }, "geometry": { "type": "Point", "coordinates": [ 73.93249, 18.5413959 ] } },
{ "type": "Feature", "properties": { "ccd_name": "Cleaning / Overflowing choked drains or manholes", "com_location": "bhumakara nagara narhe, Pune, Maharashtra" }, "geometry": { "type": "Point", "coordinates": [ 73.8334404, 18.4499566 ] } },
{ "type": "Feature", "properties": { "ccd_name": "Cleaning / Overflowing choked drains or manholes", "com_location": "lean no 25 shivneri nagar kondhwa khurdh pune 411048" }, "geometry": { "type": "Point", "coordinates": [ 73.8893174, 18.478314 ] } },
{ "type": "Feature", "properties": { "ccd_name": "Cleaning / Overflowing choked drains or manholes", "com_location": "Bombil market,1641 /42 Shukrawar peth Nehru chowk ,pune 411002." }, "geometry": { "type": "Point", "coordinates": [ 73.8589228, 18.512503 ] } },
{ "type": "Feature", "properties": { "ccd_name": "Cleaning / Overflowing choked drains or manholes", "com_location": "Mohmmadwadi Ghule Nagar, Kanifnath Colony, Hadapsar, Autadwadi Handewadi, Maharashtra 411028, India, Pune, Maharashtra" }, "geometry": { "type": "Point", "coordinates": [ 73.9297511, 18.4885427 ] } },
{ "type": "Feature", "properties": { "ccd_name": "Cleaning / Overflowing choked drains or manholes", "com_location": "Tales and spirits\r\n64,ground floor, shivaji housing society, opp sb road, opp by cloud nine hospital, Pune, Maharashtra" }, "geometry": { "type": "Point", "coordinates": [ 73.8286903, 18.530835 ] } },
{ "type": "Feature", "properties": { "ccd_name": "Cleaning / Overflowing choked drains or manholes", "com_location": "mAUlI nagara javaLIla peTrola pampachyA javaLIla  kAtraja koMDhavA roDa, Pune, Maharashtra" }, "geometry": { "type": "Point", "coordinates": [ 73.868517, 18.448526 ] } },
{ "type": "Feature", "properties": { "ccd_name": "Cleaning / Overflowing choked drains or manholes", "com_location": " kharadi \r\nGera bungalow society, near Jain mandir, grant main road, kharadi. 411014, Pune, Maharashtra" }, "geometry": { "type": "Point", "coordinates": [ 73.9552652, 18.5597335 ] } },
{ "type": "Feature", "properties": { "ccd_name": "Cleaning / Overflowing choked drains or manholes", "com_location": "Laxmi Nagar Lane No 2 Near Kaji Market Shop Kondwa Budruk Pune 48" }, "geometry": { "type": "Point", "coordinates": [ 73.885192, 18.4566364 ] } },
{ "type": "Feature", "properties": { "ccd_name": "Cleaning / Overflowing choked drains or manholes", "com_location": "siMhagaDa roDa... rohana kRRitikA, Pune, Maharashtra" }, "geometry": { "type": "Point", "coordinates": [ 73.8340091, 18.4905923 ] } },
{ "type": "Feature", "properties": { "ccd_name": "Cleaning / Overflowing choked drains or manholes", "com_location": "jAMbhULa vADI roDa vara yasha bAIka zone dukAnAchA samora, Pune, Maharashtra" }, "geometry": { "type": "Point", "coordinates": [ 73.9102857, 18.5049557 ] } },
{ "type": "Feature", "properties": { "ccd_name": "Cleaning / Overflowing choked drains or manholes", "com_location": "Area - Baner Gavthan Pune-Mhalunge Main Road Near Savtamali Mandir" }, "geometry": { "type": "Point", "coordinates": [ 73.851463, 18.5243431 ] } },
{ "type": "Feature", "properties": { "ccd_name": "Cleaning / Overflowing choked drains or manholes", "com_location": "prabhAga 29 madhIla 52 chALa chaitanya ha spiTala chyA javaLa yA vasAhatImadhye , Pune, Maharashtra" }, "geometry": { "type": "Point", "coordinates": [ 73.850462, 18.493906 ] } },
{ "type": "Feature", "properties": { "ccd_name": "Repairing pothole around manhole", "com_location": "Pune Satara Road Shankar Maharak Math Chauk Ahilyadevi Holkar Chauk Pune 411043" }, "geometry": { "type": "Point", "coordinates": [ 73.8786239, 18.5246091 ] } },
{ "type": "Feature", "properties": { "ccd_name": "Cleaning / Overflowing choked drains or manholes", "com_location": "Ganpati Chowk Viman Nagar Panama House Near PNB Bank, Pune, Maharashtra" }, "geometry": { "type": "Point", "coordinates": [ 73.918837, 18.56716 ] } },
{ "type": "Feature", "properties": { "ccd_name": "Cleaning / Overflowing choked drains or manholes", "com_location": "rAjesha ka mpleksa sosAyaTI , saMtoSha nagara, shanI maMdira javaLa, sAvaMta iMDiyana  ila peTrola paMpa mAge, TiMgare nagara, puNe " }, "geometry": { "type": "Point", "coordinates": [ 73.8786239, 18.5246091 ] } },
{ "type": "Feature", "properties": { "ccd_name": "Cleaning / Overflowing choked drains or manholes", "com_location": "Euro school,dhole patil Road back side,kharadi,pune" }, "geometry": { "type": "Point", "coordinates": [ 73.8767194, 18.5349483 ] } },
{ "type": "Feature", "properties": { "ccd_name": "Cleaning / Overflowing choked drains or manholes", "com_location": "Prabhat road lane no 8 hotel president samor pune 411004" }, "geometry": { "type": "Point", "coordinates": [ 73.8373211, 18.5138305 ] } },
{ "type": "Feature", "properties": { "ccd_name": "Cleaning / Overflowing choked drains or manholes", "com_location": "88/1 somvar peth, trishunda ganpati mandhir opposite Pune - 411011." }, "geometry": { "type": "Point", "coordinates": [ 73.8618404, 18.5216712 ] } },
{ "type": "Feature", "properties": { "ccd_name": "Cleaning / Overflowing choked drains or manholes", "com_location": "susagAva shItalAI devI maMdira javaLa prakAsha nagara mAUlI kRRipA bilDiMga samora menahola gola cheMbara , Pune, Maharashtra" }, "geometry": { "type": "Point", "coordinates": [ 73.8786239, 18.5246091 ] } },
{ "type": "Feature", "properties": { "ccd_name": "Repairing pothole around manhole", "com_location": "340 ghorpadi peth ,chandtra chowk pune -411042" }, "geometry": { "type": "Point", "coordinates": [ 73.8630486, 18.5013509 ] } },
{ "type": "Feature", "properties": { "ccd_name": "Cleaning / Overflowing choked drains or manholes", "com_location": "284, Late Sheth Chimanlal Chavan Path, New Shukrawar Peth, Raviwar Peth, Pune, Maharashtra 411002, India" }, "geometry": { "type": "Point", "coordinates": [ 73.8597357, 18.5118874 ] } },
{ "type": "Feature", "properties": { "ccd_name": "Cleaning / Overflowing choked drains or manholes", "com_location": "sr num 20/3 balaji nagar back side pawar hospital near venkatesh vidya prashalay, Pune, Maharashtra" }, "geometry": { "type": "Point", "coordinates": [ 73.861346, 18.465741 ] } },
{ "type": "Feature", "properties": { "ccd_name": "Cleaning / Overflowing choked drains or manholes", "com_location": "22/1, Thite Nagar, Kharadi, Pune, Maharashtra 411014, India" }, "geometry": { "type": "Point", "coordinates": [ 73.9384848, 18.5464444 ] } },
{ "type": "Feature", "properties": { "ccd_name": "Cleaning / Overflowing choked drains or manholes", "com_location": "Heaven park, lane no-02, mohamadwadi khind, jarande nagar, hadapsar-pune 60" }, "geometry": { "type": "Point", "coordinates": [ 73.9120388, 18.4814446 ] } },
{ "type": "Feature", "properties": { "ccd_name": "Cleaning / Overflowing choked drains or manholes", "com_location": "S.no.106, Mhatoba nagar, Lane no.5, opp. to pethkar projects, Nearby Vanaz co., Paud road, Kothrud, Pune " }, "geometry": { "type": "Point", "coordinates": [ 73.808925700000017, 18.5115157 ] } },
{ "type": "Feature", "properties": { "ccd_name": "Cleaning / Overflowing choked drains or manholes", "com_location": "20/1 Punyai nagar,KK market front side,akshaye 8 lane,dhankawadi,pune 411043." }, "geometry": { "type": "Point", "coordinates": [ 73.8586329, 18.4680531 ] } },
{ "type": "Feature", "properties": { "ccd_name": "Cleaning / Overflowing choked drains or manholes", "com_location": "Keshav Complex, Chandrabhaga Nagar, Dhankawadi, Pune, Maharashtra 411043, India" }, "geometry": { "type": "Point", "coordinates": [ 73.8492658, 18.4649981 ] } },
{ "type": "Feature", "properties": { "ccd_name": "Stopping chamber overflow (HO)", "com_location": "Maniyar House, Servey No.246, Near Datt Mandir Chowk, Khande Vasti, Kalwad, Lohegaon Road, Pune-32" }, "geometry": { "type": "Point", "coordinates": [ 73.9060775, 18.59205 ] } },
{ "type": "Feature", "properties": { "ccd_name": "Cleaning / Overflowing choked drains or manholes", "com_location": "109 Ganj peth \r\nNear sampada building \r\nChippa Medical \r\nPune " }, "geometry": { "type": "Point", "coordinates": [ 73.863441, 18.5091779 ] } },
{ "type": "Feature", "properties": { "ccd_name": "Cleaning / Overflowing choked drains or manholes", "com_location": "Opp. Navi peth Vitthal Mandir road, Ramashram SOciety side PMC chamber, Pune, Maharashtra" }, "geometry": { "type": "Point", "coordinates": [ 73.8475543, 18.5097358 ] } },
{ "type": "Feature", "properties": { "ccd_name": "Repairing pothole around manhole", "com_location": "Viman Nagar Pune Maharashtra India" }, "geometry": { "type": "Point", "coordinates": [ 73.9143637, 18.5678553 ] } },
{ "type": "Feature", "properties": { "ccd_name": "Cleaning / Overflowing choked drains or manholes", "com_location": "Bhonsale bungalow \r\nSHIV shahi Colony\r\nSr no 66\r\nNear Ayyappa mandir Santosh Nagar katraj Pune 46." }, "geometry": { "type": "Point", "coordinates": [ 73.8133695, 18.4861416 ] } },
{ "type": "Feature", "properties": { "ccd_name": "Cleaning / Overflowing choked drains or manholes", "com_location": " Delight Pride building Manjari budruk,, Pune, Maharashtra" }, "geometry": { "type": "Point", "coordinates": [ 73.9824434, 18.5792846 ] } },
{ "type": "Feature", "properties": { "ccd_name": "Repairing pothole around manhole", "com_location": "in front of DSK RANWAARA SOCIETY BAVDHAN , Pune, Maharashtra" }, "geometry": { "type": "Point", "coordinates": [ 73.7767436, 18.5211399 ] } },
{ "type": "Feature", "properties": { "ccd_name": "Cleaning / Overflowing choked drains or manholes", "com_location": "Sri sainath Colony Pune Solapur Road Manjri Budruk Siddhivinayak petrol pump samor pune 412307" }, "geometry": { "type": "Point", "coordinates": [ 73.96748, 18.4971574 ] } },
{ "type": "Feature", "properties": { "ccd_name": "Replacement of missing/damaged manholes/inspection", "com_location": "FRRX+5P8, Sarang Society, Tulshibagwale Colony, Parvati Paytha, Pune, Maharashtra 411009, India" }, "geometry": { "type": "Point", "coordinates": [ 73.8493282, 18.4904274 ] } },
{ "type": "Feature", "properties": { "ccd_name": "Cleaning / Overflowing choked drains or manholes", "com_location": "Kodre ground keshavnagar mundhwa , Pune, Maharashtra" }, "geometry": { "type": "Point", "coordinates": [ 73.9397049, 18.5316188 ] } },
{ "type": "Feature", "properties": { "ccd_name": "Cleaning / Overflowing choked drains or manholes", "com_location": "chall no a 35, upper depot priyadarshani chawl, bibwewadi pune " }, "geometry": { "type": "Point", "coordinates": [ 73.8692678, 18.4636211 ] } },
{ "type": "Feature", "properties": { "ccd_name": "Cleaning / Overflowing choked drains or manholes", "com_location": "Map :-  Gangadham - Shatrunjay Rd, Shatrunjay Nagar, Kondhwa Budruk, Pune, Maharashtra 411048" }, "geometry": { "type": "Point", "coordinates": [ 73.8789882, 18.4540405 ] } },
{ "type": "Feature", "properties": { "ccd_name": "Cleaning / Overflowing choked drains or manholes", "com_location": "Address Eve's Garden Society Baner Road Pune Maharashtra. " }, "geometry": { "type": "Point", "coordinates": [ 73.7956021, 18.5538158 ] } },
{ "type": "Feature", "properties": { "ccd_name": "Repairing pothole around manhole", "com_location": "OLD  ORBIT SCHOOL ROAD LONKAR WASTI KESHAV NAGAR MUNDHWA PUNE 411036." }, "geometry": { "type": "Point", "coordinates": [ 73.9456265, 18.5284802 ] } },
{ "type": "Feature", "properties": { "ccd_name": "Raising of manhole (except in monsoon)", "com_location": "Jadhav Nagar, Vadgaon Budruk, Pune, Maharashtra 411041, India" }, "geometry": { "type": "Point", "coordinates": [ 73.8279381, 18.4661359 ] } },
{ "type": "Feature", "properties": { "ccd_name": "Cleaning / Overflowing choked drains or manholes", "com_location": "A 202 , Rohan Leher phase 1, Baner Sus road , near Bitwise Terra Tower , Baner , Pune 411045" }, "geometry": { "type": "Point", "coordinates": [ 73.7682725, 18.5552102 ] } },
{ "type": "Feature", "properties": { "ccd_name": "Cleaning / Overflowing choked drains or manholes", "com_location": "122!8 shivadarshana puNe " }, "geometry": { "type": "Point", "coordinates": [ 73.79347, 18.571417 ] } },
{ "type": "Feature", "properties": { "ccd_name": "Cleaning / Overflowing choked drains or manholes", "com_location": "86, Yerwada Bazaar, Yerwada, opp. Vitthal Mandir, Nawanagar, Yerwada Village, Yerawada, Pune, Maharashtra 411006, India" }, "geometry": { "type": "Point", "coordinates": [ 73.8847269, 18.5463749 ] } },
{ "type": "Feature", "properties": { "ccd_name": "Cleaning / Overflowing choked drains or manholes", "com_location": "pakhadbag society Ramnagar,Bavdhan,Pune 411053. front of talathi office  " }, "geometry": { "type": "Point", "coordinates": [ 73.9331882, 18.5005062 ] } },
{ "type": "Feature", "properties": { "ccd_name": "Cleaning / Overflowing choked drains or manholes", "com_location": "Sr no 102 Prabhakar park, gopalpatti near Manjari railway station Bk, Pune 412307." }, "geometry": { "type": "Point", "coordinates": [ 73.9713047, 18.5111414 ] } },
{ "type": "Feature", "properties": { "ccd_name": "Cleaning / Overflowing choked drains or manholes", "com_location": "darekar line near vighnharta hospital fursungi road hadapsar 411002 , Pune, Maharashtra" }, "geometry": { "type": "Point", "coordinates": [ 73.9587182, 18.4823209 ] } },
{ "type": "Feature", "properties": { "ccd_name": "Cleaning / Overflowing choked drains or manholes", "com_location": " Address - sr no -13/1, opp hp petrol pump, behind balaji furniture , kalubai nagar thithe vasti kharadi pune -14 " }, "geometry": { "type": "Point", "coordinates": [ 73.9377225, 18.5460941 ] } },
{ "type": "Feature", "properties": { "ccd_name": "Cleaning / Overflowing choked drains or manholes", "com_location": "Dhyari Road Darmal Yashwant Vihar Samor , Pune, Maharashtra" }, "geometry": { "type": "Point", "coordinates": [ 73.8112043, 18.4513726 ] } },
{ "type": "Feature", "properties": { "ccd_name": "Cleaning / Overflowing choked drains or manholes", "com_location": "Tranquility phase 1, Shewalewadi, Pune " }, "geometry": { "type": "Point", "coordinates": [ 73.9680347, 18.4902642 ] } },
{ "type": "Feature", "properties": { "ccd_name": "Cleaning / Overflowing choked drains or manholes", "com_location": "231 Parvati  Shree Mahalaxami Sabhagruha Anant  Murlidhar  Chikaskar Path PUne 411009" }, "geometry": { "type": "Point", "coordinates": [ 73.8517382, 18.4961033 ] } },
{ "type": "Feature", "properties": { "ccd_name": "Cleaning / Overflowing choked drains or manholes", "com_location": "Shivdatta dairy Supriya building mhada society 37/1/1 kharadi chandan nagar near agrwal hospital pune 411014" }, "geometry": { "type": "Point", "coordinates": [ 73.9312807, 18.5581881 ] } },
{ "type": "Feature", "properties": { "ccd_name": "Cleaning / Overflowing choked drains or manholes", "com_location": "Mase Ali uthamnagar, , Pune, Maharashtra" }, "geometry": { "type": "Point", "coordinates": [ 73.7722979, 18.4610846 ] } },
{ "type": "Feature", "properties": { "ccd_name": "Cleaning / Overflowing choked drains or manholes", "com_location": "Bidi Kamgar Road Raghavendra Nagar Kharadi Pune Maharashtra India" }, "geometry": { "type": "Point", "coordinates": [ 73.9303075, 18.5575693 ] } },
{ "type": "Feature", "properties": { "ccd_name": "Cleaning / Overflowing choked drains or manholes", "com_location": "2, Bhau Patil Rd, Bapodi Gaothan, Bopodi, Pune, Maharashtra 411003, India" }, "geometry": { "type": "Point", "coordinates": [ 73.832756, 18.570799 ] } },
{ "type": "Feature", "properties": { "ccd_name": "Cleaning / Overflowing choked drains or manholes", "com_location": "grAma paMchAyata  phisa che pAThImAge keshavanagara muMDhavA yethIla , Pune, Maharashtra" }, "geometry": { "type": "Point", "coordinates": [ 73.8786239, 18.5246091 ] } },
{ "type": "Feature", "properties": { "ccd_name": "Cleaning / Overflowing choked drains or manholes", "com_location": "Prakash kholapur  masalawale samore neheru chowk  1494  pune 2  shukwar peth" }, "geometry": { "type": "Point", "coordinates": [ 73.8591012, 18.5109167 ] } },
{ "type": "Feature", "properties": { "ccd_name": "Cleaning / Overflowing choked drains or manholes", "com_location": "Dandekar Pool Opposite Petrol Pump Near Vishwakarma Garage Pune 30" }, "geometry": { "type": "Point", "coordinates": [ 73.8483006, 18.5006735 ] } },
{ "type": "Feature", "properties": { "ccd_name": "Cleaning / Overflowing choked drains or manholes", "com_location": "Sr no 42 sAgara vilA samora mena roDa nUra masjida mIThA nagara koMDhavA  -411048, Pune, Maharashtra" }, "geometry": { "type": "Point", "coordinates": [ 73.8935015, 18.4749125 ] } },
{ "type": "Feature", "properties": { "ccd_name": "Cleaning / Overflowing choked drains or manholes", "com_location": "Thite vasti,lane no 12,near samarth hospital,kharadi,pune 411014." }, "geometry": { "type": "Point", "coordinates": [ 73.9379343, 18.5445121 ] } },
{ "type": "Feature", "properties": { "ccd_name": "Cleaning / Overflowing choked drains or manholes", "com_location": "sarve kramAMka 12 yeravaDA lakShmI nagara bhArata bekarI sAmora, Pune, Maharashtra" }, "geometry": { "type": "Point", "coordinates": [ 73.8803713, 18.5527096 ] } },
{ "type": "Feature", "properties": { "ccd_name": "Cleaning / Overflowing choked drains or manholes", "com_location": "sukumAra baDave pUrvA hAITasa susa roDa pAShANa, Pune, Maharashtra" }, "geometry": { "type": "Point", "coordinates": [ 73.7923957, 18.5414267 ] } },
{ "type": "Feature", "properties": { "ccd_name": "Cleaning / Overflowing choked drains or manholes", "com_location": " ICICI-ATM  chyA samora  mArutI maMdira javaLa , AMbegAva budruka gAvaThANa ,puNe : 411046" }, "geometry": { "type": "Point", "coordinates": [ 73.8466304, 18.4408728 ] } },
{ "type": "Feature", "properties": { "ccd_name": "Cleaning / Overflowing choked drains or manholes", "com_location": "sr no 34/2, lane no 5, masjid near, sai park society , borate vasti kharadi pune -14" }, "geometry": { "type": "Point", "coordinates": [ 73.9232014, 18.5499456 ] } },
{ "type": "Feature", "properties": { "ccd_name": "Cleaning / Overflowing choked drains or manholes", "com_location": "13 Wireless Colony Aundh Pune 7" }, "geometry": { "type": "Point", "coordinates": [ 73.8062412, 18.564337 ] } },
{ "type": "Feature", "properties": { "ccd_name": "Raising of manhole(except in monsoon)", "com_location": "Reelicon alpine ridge road/pan card club road , baner gaon, Pune 411045\r\n" }, "geometry": { "type": "Point", "coordinates": [ 73.7837546, 18.554146 ] } },
{ "type": "Feature", "properties": { "ccd_name": "Cleaning / Overflowing choked drains or manholes", "com_location": "Mahadev nagar manjari near durga mata madir, sanmitra colony no .1   , Pune, Maharashtra" }, "geometry": { "type": "Point", "coordinates": [ 73.954458, 18.506902 ] } },
{ "type": "Feature", "properties": { "ccd_name": "Cleaning / Overflowing choked drains or manholes", "com_location": "Rhea Apartment, opp fish market, Aundh Road , kirkee pune " }, "geometry": { "type": "Point", "coordinates": [ 73.8373746, 18.5623072 ] } },
{ "type": "Feature", "properties": { "ccd_name": "Cleaning / Overflowing choked drains or manholes", "com_location": "vAkaDevADI esaTI sTa.NDa, Pune, Maharashtra" }, "geometry": { "type": "Point", "coordinates": [ 73.7591121, 18.4610977 ] } },
{ "type": "Feature", "properties": { "ccd_name": "Cleaning / Overflowing choked drains or manholes", "com_location": "Kalyani nagar, Pune, Maharashtra" }, "geometry": { "type": "Point", "coordinates": [ 73.903951, 18.5462313 ] } },
{ "type": "Feature", "properties": { "ccd_name": "Cleaning / Overflowing choked drains or manholes", "com_location": "Sr no 55 lane no 9 bhagyoday nagar kondhwa pune 411048" }, "geometry": { "type": "Point", "coordinates": [ 73.8834723, 18.46887 ] } },
{ "type": "Feature", "properties": { "ccd_name": "Cleaning / Overflowing choked drains or manholes", "com_location": "Jm road revenue colony,pune " }, "geometry": { "type": "Point", "coordinates": [ 73.8467508, 18.5211595 ] } },
{ "type": "Feature", "properties": { "ccd_name": "Cleaning / Overflowing choked drains or manholes", "com_location": "rAjArAma pATIla nagara lena kra 1 kharADI puNe 14" }, "geometry": { "type": "Point", "coordinates": [ 73.9440373, 18.5648624 ] } },
{ "type": "Feature", "properties": { "ccd_name": "Repairing pothole around manhole", "com_location": "Vadgaon Sheri, Ganesh Nagar chouk, opposite Swami Samarth mandir gate, Pune, Maharashtra" }, "geometry": { "type": "Point", "coordinates": [ 73.9257382, 18.5576285 ] } },
{ "type": "Feature", "properties": { "ccd_name": "Cleaning / Overflowing choked drains or manholes", "com_location": "BUILDING 2-A1, NEW AJANTA AVENUE, Ajantha Ave Rd, kotharUDa, puNe, mahArAShTra 411038, India" }, "geometry": { "type": "Point", "coordinates": [ 73.812357690771861, 18.506058261143121 ] } },
{ "type": "Feature", "properties": { "ccd_name": "Cleaning / Overflowing choked drains or manholes", "com_location": "Chandan Nagar Pune Maharashtra India" }, "geometry": { "type": "Point", "coordinates": [ 73.9325552, 18.5635511 ] } },
{ "type": "Feature", "properties": { "ccd_name": "Cleaning / Overflowing choked drains or manholes", "com_location": "28/2Suvidha ambar society, Zeel college road , narhe, Pune-411041" }, "geometry": { "type": "Point", "coordinates": [ 73.8261838, 18.4478989 ] } },
{ "type": "Feature", "properties": { "ccd_name": "Cleaning / Overflowing choked drains or manholes", "com_location": "Law College Road Shanti Sheela Society Apex Colony Deccan Gymkhana Pune Maharashtra India" }, "geometry": { "type": "Point", "coordinates": [ 73.8291638, 18.5117134 ] } },
{ "type": "Feature", "properties": { "ccd_name": "Cleaning / Overflowing choked drains or manholes", "com_location": "Ganga Pavilion Society Back Side, BT Kawade Road, Ram Nagar, Pune 411001." }, "geometry": { "type": "Point", "coordinates": [ 73.9072963, 18.5160599 ] } },
{ "type": "Feature", "properties": { "ccd_name": "Cleaning / Overflowing choked drains or manholes", "com_location": "Aundh Sheetal apartment ke pAsa  Near ASHAPURI DINING HALL,  AUNDH, Pune" }, "geometry": { "type": "Point", "coordinates": [ 73.790353, 18.5511492 ] } },
{ "type": "Feature", "properties": { "ccd_name": "Cleaning / Overflowing choked drains or manholes", "com_location": "vAnavaDI  rAmaTekaDI kShetrIya  kAryAlaya aMtargata junA mahADA bilDiMga kra 2, Pune, Maharashtra" }, "geometry": { "type": "Point", "coordinates": [ 73.8528419, 18.5128563 ] } },
{ "type": "Feature", "properties": { "ccd_name": "Cleaning / Overflowing choked drains or manholes", "com_location": "64, Lane Number 13, opp. Jogger's Park, Pluto Society, Kalyani Nagar, Pune, Maharashtra 411006, India" }, "geometry": { "type": "Point", "coordinates": [ 73.902416, 18.549197 ] } },
{ "type": "Feature", "properties": { "ccd_name": "Cleaning / Overflowing choked drains or manholes", "com_location": "ashvinI janarala sToarsa koNArka vihAra bilDiMga 6B bhuleshvara sosAyaTI ahilyAdevI chauka TATA shorUma dhanakavaDI puNe 43" }, "geometry": { "type": "Point", "coordinates": [ 73.8546821, 18.4654546 ] } },
{ "type": "Feature", "properties": { "ccd_name": "Cleaning / Overflowing choked drains or manholes", "com_location": "tulja bhavan park, sr no 40/1 manaji nagar narhe , pune 411041.\r\n" }, "geometry": { "type": "Point", "coordinates": [ 73.8239226, 18.4527749 ] } },
{ "type": "Feature", "properties": { "ccd_name": "Cleaning / Overflowing choked drains or manholes", "com_location": "Gurudatt Colony Lane no 1 Shiv Shakti Chowk Bhekrai Nagar Pune" }, "geometry": { "type": "Point", "coordinates": [ 73.8708097, 18.6197816 ] } },
{ "type": "Feature", "properties": { "ccd_name": "Cleaning / Overflowing choked drains or manholes", "com_location": "ashoka DhavaLe patha ..TiLaka roDa..sadAshiva peTha.. jijAmAtA ba.Nka samorIla , Pune, Maharashtra" }, "geometry": { "type": "Point", "coordinates": [ 73.8443143, 18.5063339 ] } },
{ "type": "Feature", "properties": { "ccd_name": "Cleaning / Overflowing choked drains or manholes", "com_location": "Nav Maharashtra Scty.Sahakar Nagar 1Bungalow no 265., Pune, Maharashtra" }, "geometry": { "type": "Point", "coordinates": [ 73.8023475, 18.6097955 ] } },
{ "type": "Feature", "properties": { "ccd_name": "Cleaning / Overflowing choked drains or manholes", "com_location": " Durvankur society in Narhe on JSPM college road , Pune, Maharashtra" }, "geometry": { "type": "Point", "coordinates": [ 73.9995947, 18.5852929 ] } },
{ "type": "Feature", "properties": { "ccd_name": "Cleaning / Overflowing choked drains or manholes", "com_location": "opposite vaishnavi heights ghar no 629 near olive blue sky society baif road wagholi pune 412207" }, "geometry": { "type": "Point", "coordinates": [ 73.9794217, 18.577338 ] } },
{ "type": "Feature", "properties": { "ccd_name": "Cleaning / Overflowing choked drains or manholes", "com_location": "Sr. No. 40, Colony No.3, Opp. Ganapati Mandir, Kalepadal, Hadapsar, Pune 411028." }, "geometry": { "type": "Point", "coordinates": [ 73.941631500000014, 18.4808873 ] } },
{ "type": "Feature", "properties": { "ccd_name": "Cleaning / Overflowing choked drains or manholes", "com_location": "Acme Foundry Flux Company\r\n264, Hadapsar Industrial Estate\r\nPune 411 013\r\n(M) - 9607572487" }, "geometry": { "type": "Point", "coordinates": [ 73.9145841, 18.5182644 ] } },
{ "type": "Feature", "properties": { "ccd_name": "Septic Tank Cleaning", "com_location": "132, SRA Buidling Shindevasti Hadapsar Pune 411013" }, "geometry": { "type": "Point", "coordinates": [ 73.914672, 18.516882 ] } },
{ "type": "Feature", "properties": { "ccd_name": "Cleaning / Overflowing choked drains or manholes", "com_location": "rAghobA pATIla nagara kharADI lakShmI maMgala kAryAlaya pAThImAgepuNe\t" }, "geometry": { "type": "Point", "coordinates": [ 73.9342239, 18.5389641 ] } },
{ "type": "Feature", "properties": { "ccd_name": "Cleaning / Overflowing choked drains or manholes", "com_location": "gopALa kRRiShNa so PMT sosA shejArI vAraje nAkA SN  6 / l / l / 2, Pune, Maharashtra" }, "geometry": { "type": "Point", "coordinates": [ 73.8110279, 18.4840972 ] } },
{ "type": "Feature", "properties": { "ccd_name": "Cleaning / Overflowing choked drains or manholes", "com_location": "Sr No 164 Shinde Building Front Of Swami Samarth Math Shastrinagar Kothrud Pune 411038" }, "geometry": { "type": "Point", "coordinates": [ 73.8029399, 18.5042667 ] } },
{ "type": "Feature", "properties": { "ccd_name": "Cleaning / Overflowing choked drains or manholes", "com_location": "shrI kRRiShNa sosAyaTI galI naMbara 3 sAInAtha nagara , Pune, Maharashtra" }, "geometry": { "type": "Point", "coordinates": [ 73.9531189, 18.5646495 ] } },
{ "type": "Feature", "properties": { "ccd_name": "Cleaning / Overflowing choked drains or manholes", "com_location": "Ubale nagar road,wagholi,pune 412207." }, "geometry": { "type": "Point", "coordinates": [ 73.968678, 18.5770093 ] } },
{ "type": "Feature", "properties": { "ccd_name": "Cleaning / Overflowing choked drains or manholes", "com_location": "457 Sanolai\r\nSalisbury Park \r\nOpp Punjabi Hall \r\nGultekdi Pune 411037" }, "geometry": { "type": "Point", "coordinates": [ 73.8728029, 18.4958475 ] } },
{ "type": "Feature", "properties": { "ccd_name": "Cleaning / Overflowing choked drains or manholes", "com_location": "Mahadev Nagar Ambika Niwas Indira School Ahalabad Bank Backside , Pune, Maharashtra" }, "geometry": { "type": "Point", "coordinates": [ 73.9544501, 18.5061904 ] } },
{ "type": "Feature", "properties": { "ccd_name": "Cleaning / Overflowing choked drains or manholes", "com_location": "AMbegAva budruka bheMDI chauka yethe puNe " }, "geometry": { "type": "Point", "coordinates": [ 73.8306278, 18.456677 ] } },
{ "type": "Feature", "properties": { "ccd_name": "Cleaning / Overflowing choked drains or manholes", "com_location": "yeravaDA kaLasa dhAnorI kShetrIya kAryAlaya aMtargata prabhAga kramAMka sahA lakShmI nagara urdU shALA samorIla parisara rAnaDe klinika  mAgIla bAjU , Pune, Maharashtra" }, "geometry": { "type": "Point", "coordinates": [ 73.8956629, 18.5962132 ] } },
{ "type": "Feature", "properties": { "ccd_name": "Cleaning / Overflowing choked drains or manholes", "com_location": "Clean energy company, Lane no 4\r\nRamtekdi Industrial Estate\r\nHadapsar, , Pune, Maharashtra" }, "geometry": { "type": "Point", "coordinates": [ 73.9299005, 18.4891392 ] } },
{ "type": "Feature", "properties": { "ccd_name": "Cleaning / Overflowing choked drains or manholes", "com_location": "sarve naMbara 12 sukhasAgara nagara kAtraja puNe 46" }, "geometry": { "type": "Point", "coordinates": [ 73.869432, 18.456851 ] } },
{ "type": "Feature", "properties": { "ccd_name": "Stopping chamber overflow (HO)", "com_location": "GANESH SHETTY CTS 1365 NO 9/1B/2 , GULAVNI MAHARAJ PATH, ERANDWANE, OPP MEHENDALE GARAGE, PUNE 4" }, "geometry": { "type": "Point", "coordinates": [ 73.8318756, 18.5048624 ] } },
{ "type": "Feature", "properties": { "ccd_name": "Cleaning / Overflowing choked drains or manholes", "com_location": "navashaktI sAmAjika va krIDA maMDaLa \r\nrAmaTekaDI haDapasara puNe 13 shahAvastI" }, "geometry": { "type": "Point", "coordinates": [ 73.915654, 18.5051346 ] } },
{ "type": "Feature", "properties": { "ccd_name": "Cleaning / Overflowing choked drains or manholes", "com_location": "Anupam Arcade More Baug Hotel Katraj Juncotion Katraj Pune 411046" }, "geometry": { "type": "Point", "coordinates": [ 73.8577532, 18.4510541 ] } },
{ "type": "Feature", "properties": { "ccd_name": "Cleaning / Overflowing choked drains or manholes", "com_location": " Ambedkar chowk warje road pune" }, "geometry": { "type": "Point", "coordinates": [ 73.810334, 18.484644 ] } },
{ "type": "Feature", "properties": { "ccd_name": "Cleaning / Overflowing choked drains or manholes", "com_location": "Balewadi Pune Maharashtra India" }, "geometry": { "type": "Point", "coordinates": [ 73.7706807, 18.5788913 ] } },
{ "type": "Feature", "properties": { "ccd_name": "Cleaning / Overflowing choked drains or manholes", "com_location": "erv royal society front, infront rehmani college hadapsar handewadi road pune 411028." }, "geometry": { "type": "Point", "coordinates": [ 73.93339, 18.4671419 ] } },
{ "type": "Feature", "properties": { "ccd_name": "Cleaning / Overflowing choked drains or manholes", "com_location": "Lt Col Satish M Vaidya (Retd)\r\nB-1State Bank Nagar\r\nKarve Nagar \r\n Pune 411052, " }, "geometry": { "type": "Point", "coordinates": [ 73.824563, 18.494993 ] } },
{ "type": "Feature", "properties": { "ccd_name": "Cleaning / Overflowing choked drains or manholes", "com_location": "P-44, Rajiv Nagar North, Mhada Colony, Viman Nagar, Pune, Maharashtra 411014, India" }, "geometry": { "type": "Point", "coordinates": [ 73.91363525390625, 18.573196411132809 ] } },
{ "type": "Feature", "properties": { "ccd_name": "Cleaning / Overflowing choked drains or manholes", "com_location": "garavAre pulAchyA DAvyA bAjUlA janasevA bhojanAlachya mAge Dekkana mA.cla bilDIMga puNe 411004.\t" }, "geometry": { "type": "Point", "coordinates": [ 73.8418833, 18.5153176 ] } },
{ "type": "Feature", "properties": { "ccd_name": "Cleaning / Overflowing choked drains or manholes", "com_location": "kAtraja DearI, rAjIva gAMdhI Zoo , meDikala ba Ija ha sTela, bhAratI vidyApITha-411043, Pune, Maharashtra" }, "geometry": { "type": "Point", "coordinates": [ 73.8582039, 18.4573269 ] } },
{ "type": "Feature", "properties": { "ccd_name": "Cleaning / Overflowing choked drains or manholes", "com_location": " Indraraj Park society  More wasti Majri bk  behind manjri post office 412307, Pune, Maharashtra" }, "geometry": { "type": "Point", "coordinates": [ 73.9749634, 18.4994794 ] } },
{ "type": "Feature", "properties": { "ccd_name": "Cleaning / Overflowing choked drains or manholes", "com_location": "27/1, Borate Vasti, Kharadi, Pune, Maharashtra 411014, India" }, "geometry": { "type": "Point", "coordinates": [ 73.9326146, 18.5508889 ] } },
{ "type": "Feature", "properties": { "ccd_name": "Cleaning / Overflowing choked drains or manholes", "com_location": "37/29, Nepathyakar Late P S Kale Path, Deccan Gymkhana, Pune, Maharashtra 411004, India" }, "geometry": { "type": "Point", "coordinates": [ 73.8375051, 18.5147606 ] } },
{ "type": "Feature", "properties": { "ccd_name": "Cleaning / Overflowing choked drains or manholes", "com_location": "tapkir wasti sus pune -411021" }, "geometry": { "type": "Point", "coordinates": [ 73.768536, 18.548606 ] } },
{ "type": "Feature", "properties": { "ccd_name": "Cleaning / Overflowing choked drains or manholes", "com_location": "Venkatesh Apartment 7 /8 Narayan Peth Kelkar Road opposite to Narayan Chambers near Police Chowki Pune 411030" }, "geometry": { "type": "Point", "coordinates": [ 73.845381, 18.5144119 ] } },
{ "type": "Feature", "properties": { "ccd_name": "Cleaning / Overflowing choked drains or manholes", "com_location": "509 /510 Guruwar Peth Gavri Ali Mitra Mandal Chouk Hajari Corner 411042, Pune, Maharashtra" }, "geometry": { "type": "Point", "coordinates": [ 73.8597641, 18.5085023 ] } },
{ "type": "Feature", "properties": { "ccd_name": "Cleaning / Overflowing choked drains or manholes", "com_location": "defence colony to Gangadham chowk bibvewadi Market Yard Pune 411037" }, "geometry": { "type": "Point", "coordinates": [ 73.873118, 18.481023 ] } },
{ "type": "Feature", "properties": { "ccd_name": "Cleaning / Overflowing choked drains or manholes", "com_location": "2/89 , central government quarters , lane no 15 ,near ranka Hospital , mukund nagar , pune 411037" }, "geometry": { "type": "Point", "coordinates": [ 73.8627263, 18.4947467 ] } },
{ "type": "Feature", "properties": { "ccd_name": "Cleaning / Overflowing choked drains or manholes", "com_location": " 48/4 Lane 2, Ganesh nagar ,vadgaon Sheri , pune" }, "geometry": { "type": "Point", "coordinates": [ 73.9223719, 18.5573714 ] } },
{ "type": "Feature", "properties": { "ccd_name": "Cleaning / Overflowing choked drains or manholes", "com_location": "Bhosale Complex,\r\nOpp. Vaibhav Theatre,\r\nPune Solapur Road,\r\nHadapsar,\r\nPune :411028" }, "geometry": { "type": "Point", "coordinates": [ 73.9306778, 18.5019985 ] } },
{ "type": "Feature", "properties": { "ccd_name": "Cleaning / Overflowing choked drains or manholes", "com_location": "FWF7+X64, Elina Living Rd, Mohammed Wadi, Pune, Maharashtra 411048" }, "geometry": { "type": "Point", "coordinates": [ 73.9113291, 18.4751038 ] } },
{ "type": "Feature", "properties": { "ccd_name": "Problem regarding sewage treatment plant (HO)", "com_location": "Wagholi  Kesnand  Wadegaon Road Wagholi Maharashtra India, Pune, Maharashtra" }, "geometry": { "type": "Point", "coordinates": [ 73.9969703, 18.5778896 ] } },
{ "type": "Feature", "properties": { "ccd_name": "Cleaning / Overflowing choked drains or manholes", "com_location": "\t380 Ganj peth,mahatma phule wada,pune 411042." }, "geometry": { "type": "Point", "coordinates": [ 73.8639348, 18.506826 ] } },
{ "type": "Feature", "properties": { "ccd_name": "Cleaning / Overflowing choked drains or manholes", "com_location": "It is at entrance of Raj Laxmi Society. Behind warehouses,411037., Pune, Maharashtra" }, "geometry": { "type": "Point", "coordinates": [ 73.873308900000012, 18.4858974 ] } },
{ "type": "Feature", "properties": { "ccd_name": "Cleaning / Overflowing choked drains or manholes", "com_location": "survey nop 37/1, kharadi road supriya building mage chandan nagar pune 14 " }, "geometry": { "type": "Point", "coordinates": [ 73.9312289, 18.5582281 ] } },
{ "type": "Feature", "properties": { "ccd_name": "Cleaning / Overflowing choked drains or manholes", "com_location": "Happy Colony, Gosavi Vasti, Lane No. 3 Galli No. 5, Kothrud, Pune 411038." }, "geometry": { "type": "Point", "coordinates": [ 73.8151159, 18.505782 ] } },
{ "type": "Feature", "properties": { "ccd_name": "Cleaning / Overflowing choked drains or manholes", "com_location": "nisarga society golf club road yerawada pune 06 " }, "geometry": { "type": "Point", "coordinates": [ 73.8817264, 18.5528728 ] } },
{ "type": "Feature", "properties": { "ccd_name": "Cleaning / Overflowing choked drains or manholes", "com_location": "sarve naMbara 115/3/9 HDFC ba.Nka lena lAratana  bilDiMga bANera KFC samora 411045 , Pune, Maharashtra" }, "geometry": { "type": "Point", "coordinates": [ 73.7769432, 18.5642382 ] } },
{ "type": "Feature", "properties": { "ccd_name": "Cleaning / Overflowing choked drains or manholes", "com_location": "Bharti Vihar Scoiety PICT College Front Gate Trimruti Chouk Katraj , Pune, Maharashtra" }, "geometry": { "type": "Point", "coordinates": [ 73.8524714, 18.4571882 ] } },
{ "type": "Feature", "properties": { "ccd_name": "Cleaning / Overflowing choked drains or manholes", "com_location": "Just before Montvert Avion,  before Balaji chowk, Pashan Sus road.  , Pune, Maharashtra" }, "geometry": { "type": "Point", "coordinates": [ 73.7648982, 18.5492124 ] } },
{ "type": "Feature", "properties": { "ccd_name": "Cleaning / Overflowing choked drains or manholes", "com_location": "Shiv Nagari, Keshavnagar Mundhwa Pune 411036" }, "geometry": { "type": "Point", "coordinates": [ 73.9312289, 18.4903879 ] } },
{ "type": "Feature", "properties": { "ccd_name": "Cleaning / Overflowing choked drains or manholes", "com_location": "Lotus court Apartment \r\nPlot no. 15, modern colony,\r\nPaud road\r\nKothrud 38\r\nNear shivrai pratishthan school, Pune, Maharashtra" }, "geometry": { "type": "Point", "coordinates": [ 73.8106125, 18.51251 ] } },
{ "type": "Feature", "properties": { "ccd_name": "Cleaning / Overflowing choked drains or manholes", "com_location": "digaMbara ka lanI gaMganAgara,pune" }, "geometry": { "type": "Point", "coordinates": [ 73.9548087, 18.5924853 ] } },
{ "type": "Feature", "properties": { "ccd_name": "Repairing pothole around manhole", "com_location": "Rajyog Society Rajyog Cooperative Housing Society Veerbhadra Nagar Baner Pune Maharashtra India" }, "geometry": { "type": "Point", "coordinates": [ 73.7724043, 18.5646752 ] } },
{ "type": "Feature", "properties": { "ccd_name": "Cleaning / Overflowing choked drains or manholes", "com_location": "Near karvenagar flyover outside Kakade,City,pune" }, "geometry": { "type": "Point", "coordinates": [ 73.8117634, 18.4865096 ] } },
{ "type": "Feature", "properties": { "ccd_name": "Cleaning / Overflowing choked drains or manholes", "com_location": " beside Prathama Arcade Society Katraj, Pune, Maharashtra" }, "geometry": { "type": "Point", "coordinates": [ 73.8594864, 18.4446167 ] } },
{ "type": "Feature", "properties": { "ccd_name": "Repairing pothole around manhole", "com_location": "baner pashan Link Road Hotel Mahabaleshwar Pune traffic signal veritas company back side" }, "geometry": { "type": "Point", "coordinates": [ 73.7981953, 18.5551554 ] } },
{ "type": "Feature", "properties": { "ccd_name": "Cleaning / Overflowing choked drains or manholes", "com_location": "B1, Mont Vert Finesse, Baner - Pashan Link Rd, Pashan, Pune, Maharashtra 411021, India" }, "geometry": { "type": "Point", "coordinates": [ 73.792895508218407, 18.550722879834399 ] } },
{ "type": "Feature", "properties": { "ccd_name": "Cleaning / Overflowing choked drains or manholes", "com_location": "Krishna Nagar Mohmmad wadi , Pune, Maharashtra" }, "geometry": { "type": "Point", "coordinates": [ 73.9198161, 18.4762787 ] } },
{ "type": "Feature", "properties": { "ccd_name": "Cleaning / Overflowing choked drains or manholes", "com_location": "RBL bank kalyani nagar Fortaleza commercial complex, Pune, Maharashtra" }, "geometry": { "type": "Point", "coordinates": [ 73.9056771, 18.5453668 ] } },
{ "type": "Feature", "properties": { "ccd_name": "Cleaning / Overflowing choked drains or manholes", "com_location": "kalpavRRikSha hAITsa saha gRRiha sosAyaTI, mAnAjI nagara, narhe , Pune, Maharashtra" }, "geometry": { "type": "Point", "coordinates": [ 73.8239226, 18.4527749 ] } },
{ "type": "Feature", "properties": { "ccd_name": "Cleaning / Overflowing choked drains or manholes", "com_location": "sr no 136, pitashree building backside ashtavinayak chowk warje malwadi pune - 411058." }, "geometry": { "type": "Point", "coordinates": [ 73.8163089, 18.44689 ] } },
{ "type": "Feature", "properties": { "ccd_name": "Cleaning / Overflowing choked drains or manholes", "com_location": "binavata avhenyU sosAyaTI khaMDobA maMdirAsamora sukhasAgara nagara kAtraja, Pune, Maharashtra" }, "geometry": { "type": "Point", "coordinates": [ 73.873541, 18.453369 ] } },
{ "type": "Feature", "properties": { "ccd_name": "Cleaning / Overflowing choked drains or manholes", "com_location": "Krishna Nagar Mohhamadwadi Near Bridge Lane No. 7\t, Pune, Maharashtra" }, "geometry": { "type": "Point", "coordinates": [ 73.9198161, 18.4762787 ] } },
{ "type": "Feature", "properties": { "ccd_name": "Cleaning / Overflowing choked drains or manholes", "com_location": "lane no 2, tulja bhawani nagar kharadi blue berry society datta mandhir pune 411041." }, "geometry": { "type": "Point", "coordinates": [ 73.9494507, 18.5640768 ] } },
{ "type": "Feature", "properties": { "ccd_name": "Cleaning / Overflowing choked drains or manholes", "com_location": "khaDakavAsalA gAva vArDa kra.1 , Pune, Maharashtra" }, "geometry": { "type": "Point", "coordinates": [ 73.7801447, 18.4454128 ] } },
{ "type": "Feature", "properties": { "ccd_name": "Cleaning / Overflowing choked drains or manholes", "com_location": " Apartment A Sadashiv dangat Road Sadashiv dangat  Nagar Vishnu Puram Colony Vadgaon Budruk 411046, Pune, Maharashtra" }, "geometry": { "type": "Point", "coordinates": [ 73.8269472, 18.4601565 ] } },
{ "type": "Feature", "properties": { "ccd_name": "Cleaning / Overflowing choked drains or manholes", "com_location": "817, bhawani peth near mehta society padamji police chowk pune 411002." }, "geometry": { "type": "Point", "coordinates": [ 73.8715148, 18.5106142 ] } },
{ "type": "Feature", "properties": { "ccd_name": "Cleaning / Overflowing choked drains or manholes", "com_location": "KONDHWA SASWAD ROAD SINHGAD COLLEGE SAMOR YEWALEWADI , Pune, Maharashtra" }, "geometry": { "type": "Point", "coordinates": [ 73.9217893, 18.4519841 ] } },
{ "type": "Feature", "properties": { "ccd_name": "Cleaning / Overflowing choked drains or manholes", "com_location": "Chandan Nagar Pune Maharashtra India" }, "geometry": { "type": "Point", "coordinates": [ 73.9325552, 18.5635511 ] } },
{ "type": "Feature", "properties": { "ccd_name": "Cleaning / Overflowing choked drains or manholes", "com_location": "496 mahAtmA phule peTha,gaMja peTha,pochammA mAtA maMdira  ,puNe 411042" }, "geometry": { "type": "Point", "coordinates": [ 73.8626834, 18.5105509 ] } },
{ "type": "Feature", "properties": { "ccd_name": "Cleaning / Overflowing choked drains or manholes", "com_location": "Survey No 46 Noor Mastid Chowk Sagar Villa Society Mitha Nagar kondhwa Kd Pune 48" }, "geometry": { "type": "Point", "coordinates": [ 73.8810205, 18.4722983 ] } },
{ "type": "Feature", "properties": { "ccd_name": "Cleaning / Overflowing choked drains or manholes", "com_location": "3, Kondhwa Road, Bibwewadi, Pune, Maharashtra 411037, India" }, "geometry": { "type": "Point", "coordinates": [ 73.8673749, 18.4737487 ] } },
{ "type": "Feature", "properties": { "ccd_name": "Cleaning / Overflowing choked drains or manholes", "com_location": "jaya malhAra kA.cmpaleksa,vaDagAMva shiMde roDa ,lohagAMva 411047, Pune, Maharashtra" }, "geometry": { "type": "Point", "coordinates": [ 73.9118968, 18.5942318 ] } },
{ "type": "Feature", "properties": { "ccd_name": "Cleaning / Overflowing choked drains or manholes", "com_location": "siddhivinAyaka sosAyaTIche shAhuchauka gaNapatI maMdirAchyA samora ghara naMbara 896 shukravAra peTha, Pune, Maharashtra" }, "geometry": { "type": "Point", "coordinates": [ 73.8440548, 18.5082486 ] } },
{ "type": "Feature", "properties": { "ccd_name": "Cleaning / Overflowing choked drains or manholes", "com_location": "Exact location is R point society abnave nagar. , Pune, Maharashtra" }, "geometry": { "type": "Point", "coordinates": [ 73.922, 18.4529395 ] } },
{ "type": "Feature", "properties": { "ccd_name": "Cleaning / Overflowing choked drains or manholes", "com_location": "380 Ganj peth,mahatma phule wada,pune 411042." }, "geometry": { "type": "Point", "coordinates": [ 73.8639348, 18.506826 ] } },
{ "type": "Feature", "properties": { "ccd_name": "Cleaning / Overflowing choked drains or manholes", "com_location": "27/8B Shri Ram Mandir lane 01  SHAM  Building Ambegaon a Pathar Pune 411046." }, "geometry": { "type": "Point", "coordinates": [ 73.8624269, 18.4580433 ] } },
{ "type": "Feature", "properties": { "ccd_name": "Cleaning / Overflowing choked drains or manholes", "com_location": "gugala ma.cpa lokeshana : https://maps.app.goo.gl/2xjzFTVkjnxHtdAAA, Pune, Maharashtra" }, "geometry": { "type": "Point", "coordinates": [ 73.8786239, 18.5246091 ] } },
{ "type": "Feature", "properties": { "ccd_name": "Cleaning / Overflowing choked drains or manholes", "com_location": "Outside Balaji fish near paud phata police chowki kelewadi paud road opposite hotel Tiranga Bhavan Pune 38" }, "geometry": { "type": "Point", "coordinates": [ 73.8238359, 18.5071738 ] } },
{ "type": "Feature", "properties": { "ccd_name": "Cleaning / Overflowing choked drains or manholes", "com_location": "Ram mandira jawal  1, Mumbai Pune Bypass Rd Flyover, Suman Sankalp, Ambegaon Budruk, Pune, Maharashtra 411046\r\n\r\n FR3P+5F7 Pune, Maharashtra " }, "geometry": { "type": "Point", "coordinates": [ 73.820853, 18.456268 ] } },
{ "type": "Feature", "properties": { "ccd_name": "Cleaning / Overflowing choked drains or manholes", "com_location": " Survey No 25 Bopodi Maidan Pune 20 Near Annabhau Sathe Samaj Mandir. " }, "geometry": { "type": "Point", "coordinates": [ 73.8348078, 18.5702158 ] } },
{ "type": "Feature", "properties": { "ccd_name": "Cleaning / Overflowing choked drains or manholes", "com_location": "gaNesha kokATe chALa chyA mAge,sutAra chALa chyA shevaTI ,ma.na . pA shALe mAge , sutAravADI pAShANa puNe -21" }, "geometry": { "type": "Point", "coordinates": [ 73.8553755, 18.5238117 ] } },
{ "type": "Feature", "properties": { "ccd_name": "Repairing pothole around manhole", "com_location": "Location: Road connecting Sutarwadi to Pashan Sus Road - ahead of Kapil Asmant Society, Pune, Maharashtra" }, "geometry": { "type": "Point", "coordinates": [ 73.780487600000015, 18.5423385 ] } },
{ "type": "Feature", "properties": { "ccd_name": "Cleaning / Overflowing choked drains or manholes", "com_location": "Sr.No 48, Gokul nagar katraj kondhwa road near pardeshi art studio Pune 411048" }, "geometry": { "type": "Point", "coordinates": [ 73.8761944, 18.4464045 ] } },
{ "type": "Feature", "properties": { "ccd_name": "Cleaning / Overflowing choked drains or manholes", "com_location": "Survey no 203 , sade satra nali , Todmal Vasti hadapsar , pune 411028" }, "geometry": { "type": "Point", "coordinates": [ 73.9501677, 18.5133271 ] } },
{ "type": "Feature", "properties": { "ccd_name": "Cleaning / Overflowing choked drains or manholes", "com_location": "kondhwa bhagyado nagar lane no 28, sr no 55, pune 411058." }, "geometry": { "type": "Point", "coordinates": [ 73.8985859, 18.5445839 ] } },
{ "type": "Feature", "properties": { "ccd_name": "Stopping chamber overflow (HO)", "com_location": "695/344, Chaitanya Nagar, Bibwewadi, Pune, Maharashtra 411037, India" }, "geometry": { "type": "Point", "coordinates": [ 73.867521, 18.461851 ] } },
{ "type": "Feature", "properties": { "ccd_name": "Cleaning / Overflowing choked drains or manholes", "com_location": "kariShmA chauka kotharUDa, Pune, Maharashtra" }, "geometry": { "type": "Point", "coordinates": [ 73.8786239, 18.5246091 ] } },
{ "type": "Feature", "properties": { "ccd_name": "Cleaning / Overflowing choked drains or manholes", "com_location": "deva AI nagara, preyajA siTI javaLa , Pune, Maharashtra" }, "geometry": { "type": "Point", "coordinates": [ 73.8786239, 18.5246091 ] } },
{ "type": "Feature", "properties": { "ccd_name": "Cleaning / Overflowing choked drains or manholes", "com_location": "hirAI bilDiMga lena naMbara 5 sarve naMbara 48  blika 4 gaNesha nagara vaDagAva sherI puNe" }, "geometry": { "type": "Point", "coordinates": [ 73.8257325, 18.4940191 ] } },
{ "type": "Feature", "properties": { "ccd_name": "Cleaning / Overflowing choked drains or manholes", "com_location": "Gokhale nagar Opposite shivsena kacheri ,lane no 13 Ghar No 122 Pune 16." }, "geometry": { "type": "Point", "coordinates": [ 73.8268711, 18.5266562 ] } },
{ "type": "Feature", "properties": { "ccd_name": "Cleaning / Overflowing choked drains or manholes", "com_location": "Purushottam Appartment Model Coloney Shivaji Nagar, Pune, Maharashtra" }, "geometry": { "type": "Point", "coordinates": [ 73.8410536, 18.5286952 ] } },
{ "type": "Feature", "properties": { "ccd_name": "Cleaning / Overflowing choked drains or manholes", "com_location": "Sweadganga Society,Plot No 10,Warje\r\nNext to PMT Society, Pune, Maharashtra" }, "geometry": { "type": "Point", "coordinates": [ 73.8074435, 18.4840542 ] } },
{ "type": "Feature", "properties": { "ccd_name": "Cleaning / Overflowing choked drains or manholes", "com_location": "436, Bhatancha Bol, Narayan Peth, Pune, Maharashtra 411030, India" }, "geometry": { "type": "Point", "coordinates": [ 73.851066589355, 18.515085220336999 ] } },
{ "type": "Feature", "properties": { "ccd_name": "Cleaning / Overflowing choked drains or manholes", "com_location": "kothrud sutar dara mauli nagar galli no 29, Pune, Maharashtra" }, "geometry": { "type": "Point", "coordinates": [ 73.8078123, 18.5155183 ] } },
{ "type": "Feature", "properties": { "ccd_name": "Cleaning / Overflowing choked drains or manholes", "com_location": "puShpamAlA bilDIMga ,saMkalpa gaNesha maMdira\r\njavaLa bAlAjInagara , Pune, Maharashtra" }, "geometry": { "type": "Point", "coordinates": [ 73.802057, 18.5597221 ] } },
{ "type": "Feature", "properties": { "ccd_name": "Cleaning / Overflowing choked drains or manholes", "com_location": "AMbegAva pAThAra Pune Maharashtra India" }, "geometry": { "type": "Point", "coordinates": [ 73.8426415, 18.4587777 ] } },
{ "type": "Feature", "properties": { "ccd_name": "Cleaning / Overflowing choked drains or manholes", "com_location": "1045/43, Chaphekar Rd, Mukund Nagar, Swargate, Pune, Maharashtra 411037, India" }, "geometry": { "type": "Point", "coordinates": [ 73.858862, 18.4938047 ] } },
{ "type": "Feature", "properties": { "ccd_name": "Cleaning / Overflowing choked drains or manholes", "com_location": "dAMDekara pUla 214, puNe 30 mAMgIra bAbAchauka lokamAnya nagara samora piMpaLavADI" }, "geometry": { "type": "Point", "coordinates": [ 73.8457311, 18.506685 ] } },
{ "type": "Feature", "properties": { "ccd_name": "Cleaning / Overflowing choked drains or manholes", "com_location": "Shitala Devi Nagar, Mahalunge, Pune, Maharashtra" }, "geometry": { "type": "Point", "coordinates": [ 73.7567953, 18.5785082 ] } },
{ "type": "Feature", "properties": { "ccd_name": "Cleaning / Overflowing choked drains or manholes", "com_location": "iMdirA vasAhata gaNeshakhiMDa roDa puNe 7" }, "geometry": { "type": "Point", "coordinates": [ 73.8175417, 18.5514744 ] } },
{ "type": "Feature", "properties": { "ccd_name": "Cleaning / Overflowing choked drains or manholes", "com_location": "iMdirA gAMdhI nagara 52 prabhAga kramAMka 29 \r\npina koDa 411030, Pune, Maharashtra" }, "geometry": { "type": "Point", "coordinates": [ 73.8506869, 18.5052206 ] } },
{ "type": "Feature", "properties": { "ccd_name": "Cleaning / Overflowing choked drains or manholes", "com_location": "Address:- between kamal glory to  dwarika nagar Road Tilekar nagar kondhwa , Pune, Maharashtra" }, "geometry": { "type": "Point", "coordinates": [ 73.8789544, 18.4473434 ] } },
{ "type": "Feature", "properties": { "ccd_name": "Cleaning / Overflowing choked drains or manholes", "com_location": "Uttam naagr, mashe ali, behand bajar samiti, NDA road-411023, Pune, Maharashtra" }, "geometry": { "type": "Point", "coordinates": [ 73.7735658, 18.4634783 ] } },
{ "type": "Feature", "properties": { "ccd_name": "Cleaning / Overflowing choked drains or manholes", "com_location": "survey no 75, main baner road, balaji society javal balewadi fata pune " }, "geometry": { "type": "Point", "coordinates": [ 73.7925792, 18.5581625 ] } },
{ "type": "Feature", "properties": { "ccd_name": "Cleaning / Overflowing choked drains or manholes", "com_location": "hotel sampan Meridian Plaza building Senapati Bapat Road tandale Prestige building Shivaji Nagar pune 4110016 " }, "geometry": { "type": "Point", "coordinates": [ 73.8301116, 18.5407726 ] } },
{ "type": "Feature", "properties": { "ccd_name": "Cleaning / Overflowing choked drains or manholes", "com_location": "Montvert finesse co-op housing society ltd s. No. 134/03 pashan baner link rd pashan pune -411021." }, "geometry": { "type": "Point", "coordinates": [ 73.7916532, 18.5506787 ] } },
{ "type": "Feature", "properties": { "ccd_name": "Cleaning / Overflowing choked drains or manholes", "com_location": "04/02, Prasad Nagar, Wadgaon Sheri, Pune, Maharashtra 411014, India" }, "geometry": { "type": "Point", "coordinates": [ 73.9223834, 18.5479831 ] } },
{ "type": "Feature", "properties": { "ccd_name": "Cleaning / Overflowing choked drains or manholes", "com_location": "Ad\r\nSr no 37, ekta colony, line no 8 kalepadal hadpasar\r\nOff gajanan maharaj mandir,, Pune, Maharashtra" }, "geometry": { "type": "Point", "coordinates": [ 73.9435763, 18.4826151 ] } },
{ "type": "Feature", "properties": { "ccd_name": "Repairing pothole around manhole", "com_location": "Vishwa Gym \r\nVidyanagar\r\nKatraj-kondhawa Road \r\nLane no8 entery point\r\nPune" }, "geometry": { "type": "Point", "coordinates": [ 73.8905691, 18.4525806 ] } },
{ "type": "Feature", "properties": { "ccd_name": "Cleaning / Overflowing choked drains or manholes", "com_location": "Map :- Kondhwa Main Rd, Mallik Nagar, Kondhwa, Pune, Maharashtra 411048 \r\n18 28'00.8\"N 73 52'57.0\"E\r\n" }, "geometry": { "type": "Point", "coordinates": [ 73.8801073, 18.4670731 ] } },
{ "type": "Feature", "properties": { "ccd_name": "Cleaning / Overflowing choked drains or manholes", "com_location": "ma.na .pA shALe mAge , sutAra chALa chyA shevaTI ,raNapise chALa shejArI ,sutAravADI pAShANa puNe" }, "geometry": { "type": "Point", "coordinates": [ 73.8553755, 18.5238117 ] } },
{ "type": "Feature", "properties": { "ccd_name": "Cleaning / Overflowing choked drains or manholes", "com_location": "13 tadiwala road private road near inn-aam masjid lane no 37 house no: 15 Pune -01" }, "geometry": { "type": "Point", "coordinates": [ 73.9107336, 18.5363122 ] } },
{ "type": "Feature", "properties": { "ccd_name": "Stopping chamber overflow (HO)", "com_location": "836  budhwar peth laxmi road  , Pune, Maharashtra" }, "geometry": { "type": "Point", "coordinates": [ 73.856391, 18.5156619 ] } },
{ "type": "Feature", "properties": { "ccd_name": "Cleaning / Overflowing choked drains or manholes", "com_location": "Shinde colony near swam samarth math, sangam chowk, shastrinagar, kothrud - 38\r\n, Pune, Maharashtra" }, "geometry": { "type": "Point", "coordinates": [ 73.8132652, 18.4896213 ] } },
{ "type": "Feature", "properties": { "ccd_name": "Cleaning / Overflowing choked drains or manholes", "com_location": "Samrat Swastik Block-D, Samrat Swastik Road, Tilekar Vasti, North Hadapsar, Hadapsar, Pune, Maharashtra 411028" }, "geometry": { "type": "Point", "coordinates": [ 73.9234444, 18.5049048 ] } },
{ "type": "Feature", "properties": { "ccd_name": "Repairing pothole around manhole", "com_location": "vAraje gAvaThANa madhye rAmabhAU barATe viThThala maMdirA shejArI, Pune, Maharashtra" }, "geometry": { "type": "Point", "coordinates": [ 73.9271439, 18.562402 ] } },
{ "type": "Feature", "properties": { "ccd_name": "Cleaning / Overflowing choked drains or manholes", "com_location": "Sanket vihar lane no 13, Pune, Maharashtra" }, "geometry": { "type": "Point", "coordinates": [ 73.9478632, 18.4759095 ] } },
{ "type": "Feature", "properties": { "ccd_name": "Cleaning / Overflowing choked drains or manholes", "com_location": "Sutardara Silver Crest Hill Town Road Sutardada Nagar Kothrud Pune Maharashtra India" }, "geometry": { "type": "Point", "coordinates": [ 73.8078576, 18.5170409 ] } },
{ "type": "Feature", "properties": { "ccd_name": "Cleaning / Overflowing choked drains or manholes", "com_location": " at Ashok Sankul-I at Ashok Nagar, Pune - 411007" }, "geometry": { "type": "Point", "coordinates": [ 73.8385636, 18.5427073 ] } },
{ "type": "Feature", "properties": { "ccd_name": "Cleaning / Overflowing choked drains or manholes", "com_location": "sa. naM.38,laDakata roDa,keshavanagara,muMDhavA,puNe-411036 " }, "geometry": { "type": "Point", "coordinates": [ 73.9570345, 18.5212272 ] } },
{ "type": "Feature", "properties": { "ccd_name": "Cleaning / Overflowing choked drains or manholes", "com_location": "Shivaji garden back side,kalubai building,bopadi,pune " }, "geometry": { "type": "Point", "coordinates": [ 73.832778, 18.5694833 ] } },
{ "type": "Feature", "properties": { "ccd_name": "Cleaning / Overflowing choked drains or manholes", "com_location": "Vishal Heights Adarsh Colony Road Tingre Nagar Pune Maharashtra India" }, "geometry": { "type": "Point", "coordinates": [ 73.8869351, 18.5749816 ] } },
{ "type": "Feature", "properties": { "ccd_name": "Cleaning / Overflowing choked drains or manholes", "com_location": "jhensAra AyaTI pArka svarAja vaDevAle kharADI puNe 14.\t" }, "geometry": { "type": "Point", "coordinates": [ 73.9728823, 18.5785453 ] } },