{
"type": "FeatureCollection",
"name": "2024_Garden",
"crs": { "type": "name", "properties": { "name": "urn:ogc:def:crs:OGC:1.3:CRS84" } },
"features": [
{ "type": "Feature", "properties": { "ccd_name": "Branch of tree / complete tree cutting", "com_location": "vArDa 21, koregAva pArka 411001. lena 7 varachI gulamohara gArDana sosAyaTIchI dukAna lAIna. budhArAnI vepharsa chyA dukAnAjavaLa. , Pune, Maharashtra" }, "geometry": { "type": "Point", "coordinates": [ 73.889172, 18.538722 ] } },
{ "type": "Feature", "properties": { "ccd_name": "Cleaning of Garden (HO)", "com_location": "Bhairavnath Udyan, Munurwar Housing Society, Vadgaon Sheri, Pune - 411 014" }, "geometry": { "type": "Point", "coordinates": [ 73.924569, 18.5442197 ] } },
{ "type": "Feature", "properties": { "ccd_name": "Branch of tree / complete tree cutting", "com_location": "Saubhagya magal Karyalay Athiti Hotel Mharshi nagar Purandar Housing Society , Pune, Maharashtra" }, "geometry": { "type": "Point", "coordinates": [ 73.8605597, 18.4915645 ] } },
{ "type": "Feature", "properties": { "ccd_name": "Others (Garden) (HO)", "com_location": "Jay bhavAnI garden pashan, Pune, Maharashtra" }, "geometry": { "type": "Point", "coordinates": [ 73.7954278, 18.5386733 ] } },
{ "type": "Feature", "properties": { "ccd_name": "Branch of tree / complete tree cutting", "com_location": "vidhI mahAvidyAlaya rastyAchA mahArAShTra vidyAmaMDaLa shALechyA gallIta,pune" }, "geometry": { "type": "Point", "coordinates": [ 73.8786239, 18.5246091 ] } },
{ "type": "Feature", "properties": { "ccd_name": "Other (Tree Authority)", "com_location": "Jaykamal Apartments, Thorat Colony, 14th Lane, Prabhat Road, 110/7, Erandawana, Pune-411004" }, "geometry": { "type": "Point", "coordinates": [ 73.832146, 18.5132048 ] } },
{ "type": "Feature", "properties": { "ccd_name": "Branch of tree / complete tree cutting", "com_location": "Amarendra Society, Ganesh Mala, Dattawadi, Pune, Maharashtra 411030" }, "geometry": { "type": "Point", "coordinates": [ 73.8369441, 18.4962569 ] } },
{ "type": "Feature", "properties": { "ccd_name": "Branch of tree / complete tree cutting", "com_location": " Panchavati Hill  opposite to D building State Bank Nagar, Panchavati, Pashan, Pune-411008." }, "geometry": { "type": "Point", "coordinates": [ 73.8131055, 18.5314088 ] } },
{ "type": "Feature", "properties": { "ccd_name": "Others (Garden) (HO)", "com_location": " sarve naMbara 39  amuniTI spesaAMbegAva budruka daLavI nagara manasvI sosAyaTIchyA bAjUlA mahAnagarapAlikeche gArDana, Pune, Maharashtra" }, "geometry": { "type": "Point", "coordinates": [ 73.8391985, 18.4505971 ] } },
{ "type": "Feature", "properties": { "ccd_name": "Branch of tree / complete tree cutting", "com_location": "janatA vasAhatIkaDUna vishrAMtInagarakaDe, Pune, Maharashtra" }, "geometry": { "type": "Point", "coordinates": [ 73.8397009, 18.4901977 ] } },
{ "type": "Feature", "properties": { "ccd_name": "Other (Tree Authority)", "com_location": "pmt colony ghorpade peth colony no 7 near ghorpade peth post office pune 411042" }, "geometry": { "type": "Point", "coordinates": [ 73.863549, 18.503795 ] } },
{ "type": "Feature", "properties": { "ccd_name": "Branch of tree / complete tree cutting", "com_location": "ThikANa - rAdhA pa.crADAIja va amara ka.cATeja samora, bhosale nagara, haDapasara, puNe 411028\r\n" }, "geometry": { "type": "Point", "coordinates": [ 73.931139, 18.5060533 ] } },
{ "type": "Feature", "properties": { "ccd_name": "Branch of tree / complete tree cutting", "com_location": "sasson deadhouse ,near ambedkar sanskorutik bhavan , maldhakka chowk, Pune, Maharashtra" }, "geometry": { "type": "Point", "coordinates": [ 73.8688765, 18.5252565 ] } },
{ "type": "Feature", "properties": { "ccd_name": "Lifiting of tree cutting", "com_location": "Survey no. 37/17 Viddiya Nagari,  Near Jawahar Bakery, Chandrabhaga Nagar Rd, Mohan Nagar, Dhankawadi, Pune, Maharashtra 411043, India" }, "geometry": { "type": "Point", "coordinates": [ 73.8503204, 18.4612146 ] } },
{ "type": "Feature", "properties": { "ccd_name": "Other (Tree Authority)", "com_location": "Park Ornate hotel sidhharth complex nagar road Pune 6" }, "geometry": { "type": "Point", "coordinates": [ 73.8919177, 18.549837 ] } },
{ "type": "Feature", "properties": { "ccd_name": "Other (Tree Authority)", "com_location": "kedAranAtha apArTameMTa 1167/71 trimUrtI mitra maMDaLa javaLa kasabA peTha puNe 411011" }, "geometry": { "type": "Point", "coordinates": [ 73.8610191, 18.5258965 ] } },
{ "type": "Feature", "properties": { "ccd_name": "Branch of tree / complete tree cutting", "com_location": "320 shukrawar peth.seva mitra mandal chowk.potnise lane.pune=411002." }, "geometry": { "type": "Point", "coordinates": [ 73.8573475, 18.508512 ] } },
{ "type": "Feature", "properties": { "ccd_name": "Branch of tree / complete tree cutting", "com_location": "b.u. bhandari greens co-operative hsg soc dhanori pune 411015" }, "geometry": { "type": "Point", "coordinates": [ 73.8872962, 18.5798609 ] } },
{ "type": "Feature", "properties": { "ccd_name": "Other (Tree Authority)", "com_location": "Shop No. 01, Ganga Nagari Society, near Pratidnya Mangal Kendra, Karve Nagar, Pune, Maharashtra 411052" }, "geometry": { "type": "Point", "coordinates": [ 73.8247676, 18.4920002 ] } },
{ "type": "Feature", "properties": { "ccd_name": "Repairing of civil work in Garden", "com_location": "Makka Tower Lane Number  Saibaba Nagar Kondhwa Pune Maharashtra India" }, "geometry": { "type": "Point", "coordinates": [ 73.883402300000014, 18.4693988 ] } },
{ "type": "Feature", "properties": { "ccd_name": "Other (Tree Authority)", "com_location": "manapA mukhya imAratI samora Lbt  phisa lAIna , Pune, Maharashtra" }, "geometry": { "type": "Point", "coordinates": [ 73.935105, 18.5513285 ] } },
{ "type": "Feature", "properties": { "ccd_name": "Other (Tree Authority)", "com_location": "69 mangalwar peth parge chowk sadanand nagar kamaan bajula sonawane path baher pune 411011" }, "geometry": { "type": "Point", "coordinates": [ 73.8654228, 18.5235386 ] } },
{ "type": "Feature", "properties": { "ccd_name": "Lifiting of tree cutting", "com_location": "Hari Plaza Lane Number  Mahatma Society Kothrud Pune Maharashtra India" }, "geometry": { "type": "Point", "coordinates": [ 73.7978597, 18.4989017 ] } },
{ "type": "Feature", "properties": { "ccd_name": "Others (Garden) (HO)", "com_location": "chaturshringi chowk te rbi bank, Pune, Maharashtra" }, "geometry": { "type": "Point", "coordinates": [ 73.8365601, 18.5370301 ] } },
{ "type": "Feature", "properties": { "ccd_name": "Repairing of playing equipments in garden", "com_location": "sasane nagar mahatma krida sankul , Pune, Maharashtra" }, "geometry": { "type": "Point", "coordinates": [ 73.9345125, 18.4919553 ] } },
{ "type": "Feature", "properties": { "ccd_name": "Lifiting of tree cutting", "com_location": "J 1 krishn kewal nagar ,front off icici near domminoz pizza pune-411048" }, "geometry": { "type": "Point", "coordinates": [ 73.8824558, 18.4783885 ] } },
{ "type": "Feature", "properties": { "ccd_name": "Branch of tree / complete tree cutting", "com_location": "Laxmi nagar Tiranga mitar mandal Ambanai mandir javal Yervada , Pune, Maharashtra" }, "geometry": { "type": "Point", "coordinates": [ 73.883100500000012, 18.5517873 ] } },
{ "type": "Feature", "properties": { "ccd_name": "Repairing of playing equipments in garden", "com_location": "Hirwai Garden Jogging Track Cycle Track Canal Road Deccan Gymkhana Pune Maharashtra India" }, "geometry": { "type": "Point", "coordinates": [ 73.8313906, 18.5149425 ] } },
{ "type": "Feature", "properties": { "ccd_name": "Branch of tree / complete tree cutting", "com_location": "Prabhag 13 karishma society main gate front adidas shop KARVE NAGAR  Pune 411038" }, "geometry": { "type": "Point", "coordinates": [ 73.8229386, 18.5033094 ] } },
{ "type": "Feature", "properties": { "ccd_name": "Branch of tree / complete tree cutting", "com_location": "Somanath nagar ,near somanath temple ,near arogya kothi . vadagaonsheri, Pune, Maharashtra" }, "geometry": { "type": "Point", "coordinates": [ 73.921355100000014, 18.5585663 ] } },
{ "type": "Feature", "properties": { "ccd_name": "Branch of tree / complete tree cutting", "com_location": "Navratna society near surya mukhi mandir \r\n\r\nWadgaon sheri , Pune, Maharashtra" }, "geometry": { "type": "Point", "coordinates": [ 73.9220091, 18.5432119 ] } },
{ "type": "Feature", "properties": { "ccd_name": "Permission to Trim Branches in private Society / Land", "com_location": "sarve naMbara 130 a, pla Ta naM 5 nAmadeva smRRitI apArTameMTa, shivaprasAda hau sosA. pAnamaLA puNe 411030 " }, "geometry": { "type": "Point", "coordinates": [ 73.843428, 18.501662 ] } },
{ "type": "Feature", "properties": { "ccd_name": "Branch of tree / complete tree cutting", "com_location": "ra yala  rchaDa,  vAyaralesa ka lanI javaLa , auMdha,  puNe." }, "geometry": { "type": "Point", "coordinates": [ 73.8031335, 18.5601649 ] } },
{ "type": "Feature", "properties": { "ccd_name": "Branch of tree / complete tree cutting", "com_location": "27/3 Harshapawan apartment, near amruta apartment, Hingane khurd sinhgad road pune 2\r\nMadhura saree lane near amruta APARTMENT datta mandir pin 411051" }, "geometry": { "type": "Point", "coordinates": [ 73.832062100000016, 18.481939 ] } },
{ "type": "Feature", "properties": { "ccd_name": "Lifiting of tree cutting", "com_location": "Sus Ln, Jai Bhavani Nagar, Pashan, Pune, Maharashtra 411021" }, "geometry": { "type": "Point", "coordinates": [ 73.7913437, 18.5418401 ] } },
{ "type": "Feature", "properties": { "ccd_name": "Lifiting of tree cutting", "com_location": "katraj kondwa road ,miracle hospital jawal, shikshak socity , Pune, Maharashtra" }, "geometry": { "type": "Point", "coordinates": [ 73.8754297, 18.4508001 ] } },
{ "type": "Feature", "properties": { "ccd_name": "Other (Tree Authority)", "com_location": "Row House, No.1, Lunkad Classic, Near Kallash Super Market, Konark Nagar, Clover Park, Viman Nagar, Pune, Maharashtra 411014, India" }, "geometry": { "type": "Point", "coordinates": [ 73.9135468, 18.5677652 ] } },
{ "type": "Feature", "properties": { "ccd_name": "Branch of tree / complete tree cutting", "com_location": "vAraje karvenagara kShetrIya kAryAlayAchyA haddItIla vAraje yethIla tapodhAma rastyAvarIla, Pune, Maharashtra" }, "geometry": { "type": "Point", "coordinates": [ 73.8786239, 18.5246091 ] } },
{ "type": "Feature", "properties": { "ccd_name": "Other (Tree Authority)", "com_location": "shukravAra peTha, chiMchechI tAlIma javaLa( prestija pa MiMTa) , Pune, Maharashtra" }, "geometry": { "type": "Point", "coordinates": [ 73.8786239, 18.5246091 ] } },
{ "type": "Feature", "properties": { "ccd_name": "Lifiting of tree cutting", "com_location": "Amruta apartment lane , hingane Kh , sinhagad road , pune 411051" }, "geometry": { "type": "Point", "coordinates": [ 73.8273954, 18.4786118 ] } },
{ "type": "Feature", "properties": { "ccd_name": "Branch of tree / complete tree cutting", "com_location": "phla.cTa naM 7, shAlinI resiDansI 510 ba nArAyaNa peTha puNe 411030 " }, "geometry": { "type": "Point", "coordinates": [ 73.8496217, 18.5165967 ] } },
{ "type": "Feature", "properties": { "ccd_name": "Other (Tree Authority)", "com_location": "Location Shraddha and Poonam Appartment, Mayur Colony, Kothrud, Pune, Maharashtra" }, "geometry": { "type": "Point", "coordinates": [ 73.8161605, 18.5049894 ] } },
{ "type": "Feature", "properties": { "ccd_name": "Other (Tree Authority)", "com_location": "pattA :- bArAmatI hosTela gokhalenagara puNe 411016" }, "geometry": { "type": "Point", "coordinates": [ 73.8266689, 18.523936 ] } },
{ "type": "Feature", "properties": { "ccd_name": "Branch of tree / complete tree cutting", "com_location": "gaNapatI mAthA,vAraje mALavADI,nyU ahire gAva jaMjirA ka lanI , Pune, Maharashtra" }, "geometry": { "type": "Point", "coordinates": [ 73.795739, 18.4757335 ] } },
{ "type": "Feature", "properties": { "ccd_name": "Cleaning of Garden (HO)", "com_location": "B402, Survey No 15, Hadapsar, Pune, Maharashtra 411028, India" }, "geometry": { "type": "Point", "coordinates": [ 73.95231628418, 18.496644973755 ] } },
{ "type": "Feature", "properties": { "ccd_name": "Permission to Trim Branches in private Society / Land", "com_location": "GVFC+CHQ Office Of District Collector, Ambedkar Rd, Agarkar Nagar, Pune, Maharashtra 411001, India" }, "geometry": { "type": "Point", "coordinates": [ 73.8715281, 18.5236282 ] } },
{ "type": "Feature", "properties": { "ccd_name": "Others (Garden) (HO)", "com_location": "location: Tapkir Udyan, Behind Greenzone Society, Baner, Pune, Maharashtra" }, "geometry": { "type": "Point", "coordinates": [ 73.7768511, 18.5642452 ] } },
{ "type": "Feature", "properties": { "ccd_name": "Branch of tree / complete tree cutting", "com_location": "Nimhan Mala Road, Pashan, Pune 21" }, "geometry": { "type": "Point", "coordinates": [ 73.8015936, 18.5417742 ] } },
{ "type": "Feature", "properties": { "ccd_name": "Others (Garden) (HO)", "com_location": "FR98+674, Mumbai Pune Bypass Rd, Anand Nagar, Pune, Maharashtra 411051, India" }, "geometry": { "type": "Point", "coordinates": [ 73.8157195, 18.4676873 ] } },
{ "type": "Feature", "properties": { "ccd_name": "Lifiting of tree cutting", "com_location": " Sr No 36 Old Sai Baba Temple Kharadi Road Chandan Nagar Pune 411014 " }, "geometry": { "type": "Point", "coordinates": [ 73.9368578, 18.5529744 ] } },
{ "type": "Feature", "properties": { "ccd_name": "Others (Garden) (HO)", "com_location": "Elina Living Society, opposite Tribeca Ark, kondhwa, Pune 411048." }, "geometry": { "type": "Point", "coordinates": [ 73.9082244, 18.476941 ] } },
{ "type": "Feature", "properties": { "ccd_name": "Repairing of civil work in Garden", "com_location": "shahida hemaMta karakare udyAna, goMdhaLenagara haDapasara , Pune, Maharashtra" }, "geometry": { "type": "Point", "coordinates": [ 73.8291047, 18.5290383 ] } },
{ "type": "Feature", "properties": { "ccd_name": "Branch of tree / complete tree cutting", "com_location": "Vidya naiknavare tingare nagar, Vidya nagar, lane no.10(I) near Durga Mata mandir,Sai apartment.., Pune, Maharashtra" }, "geometry": { "type": "Point", "coordinates": [ 73.8770365, 18.5590191 ] } },
{ "type": "Feature", "properties": { "ccd_name": "Branch of tree / complete tree cutting", "com_location": "Tree near the house Ruturang, \r\nPadmalay society near purva heights society\r\nServey no. 148/3  Sus road \r\nPashan Pin-411021, Pune, Maharashtra" }, "geometry": { "type": "Point", "coordinates": [ 73.7861399, 18.5451428 ] } },
{ "type": "Feature", "properties": { "ccd_name": "Permission to Trim Branches in private Society / Land", "com_location": "Dhayari Phata Road Garmal Dhayari Pune Maharashtra India" }, "geometry": { "type": "Point", "coordinates": [ 73.8118994, 18.4579201 ] } },
{ "type": "Feature", "properties": { "ccd_name": "Branch of tree / complete tree cutting", "com_location": "Pan Card Club Road Baner Pune Maharashtra India" }, "geometry": { "type": "Point", "coordinates": [ 73.7782154, 18.5590074 ] } },
{ "type": "Feature", "properties": { "ccd_name": "Branch of tree / complete tree cutting", "com_location": "Anant Jyoti society Unit 8 B , Near Date Bus stop , Saharkarnagar-1. Pune-411009" }, "geometry": { "type": "Point", "coordinates": [ 73.849809, 18.4775793 ] } },
{ "type": "Feature", "properties": { "ccd_name": "Other (Tree Authority)", "com_location": "pet store in lane no 7, Kalyani Nagar, opposite HDFC Bank., Pune, Maharashtra" }, "geometry": { "type": "Point", "coordinates": [ 73.901844, 18.5447783 ] } },
{ "type": "Feature", "properties": { "ccd_name": "Lifiting of tree cutting", "com_location": "1237 snehlila appartment apte road pune 411004." }, "geometry": { "type": "Point", "coordinates": [ 73.8429516, 18.5189991 ] } },
{ "type": "Feature", "properties": { "ccd_name": "Other (Tree Authority)", "com_location": "Address - warje Ramnagar, bapuji bua chowk near manas clinic..... Pune pin 411058" }, "geometry": { "type": "Point", "coordinates": [ 73.8031916, 18.4751073 ] } },
{ "type": "Feature", "properties": { "ccd_name": "Branch of tree / complete tree cutting", "com_location": "yeravaDA yethIla shahAdala bAbA dargA samorIla manivallabha baMgalyAt  , Pune, Maharashtra" }, "geometry": { "type": "Point", "coordinates": [ 73.8810859, 18.5445608 ] } },
{ "type": "Feature", "properties": { "ccd_name": "Other (Tree Authority)", "com_location": "pla Ta naMbara 58 shailesha sosAyaTI \r\npuNe 411052" }, "geometry": { "type": "Point", "coordinates": [ 73.9531189, 18.5646495 ] } },
{ "type": "Feature", "properties": { "ccd_name": "Repairing of civil work in Garden", "com_location": "pruthak barate udyan, warje chowk, warje. , Pune, Maharashtra" }, "geometry": { "type": "Point", "coordinates": [ 73.7974284, 18.4751763 ] } },
{ "type": "Feature", "properties": { "ccd_name": "Branch of tree / complete tree cutting", "com_location": "guDalaka ha Tela Dekkana jimakhAnA puNe 411004 chyA lAIna madhye rAnaDe sadana i\t" }, "geometry": { "type": "Point", "coordinates": [ 73.8297846, 18.5167351 ] } },
{ "type": "Feature", "properties": { "ccd_name": "Other (Tree Authority)", "com_location": "puNe manapA bhavana te sAvarakara bhavana " }, "geometry": { "type": "Point", "coordinates": [ 73.852754, 18.523564 ] } },
{ "type": "Feature", "properties": { "ccd_name": "Others (Garden) (HO)", "com_location": "BHAIRAVNATH UDYAN, VADGAON SHERI, PUNE - 411 014" }, "geometry": { "type": "Point", "coordinates": [ 73.9257815, 18.5432743 ] } },
{ "type": "Feature", "properties": { "ccd_name": "Others (Garden-Civil)", "com_location": "svAmI vivekAnaMda gArDana koMDhavA budruka gArDana madhale,pune" }, "geometry": { "type": "Point", "coordinates": [ 73.9261587, 18.5149325 ] } },
{ "type": "Feature", "properties": { "ccd_name": "Other (Tree Authority)", "com_location": "4-6, Janawadi Rd, Shivaji Co operative Housing Society, Ramoshivadi, Gokhalenagar, Pune, Maharashtra 411016" }, "geometry": { "type": "Point", "coordinates": [ 73.8280473, 18.5288747 ] } },
{ "type": "Feature", "properties": { "ccd_name": "Others (Garden) (HO)", "com_location": "auditorium inside Shanta bai kondhre patil garden vithhal heritage society narhe road datta nagar ambegaon bk pune " }, "geometry": { "type": "Point", "coordinates": [ 73.846409, 18.4489372 ] } },
{ "type": "Feature", "properties": { "ccd_name": "Other (Tree Authority)", "com_location": "Undri Hills And Dales Society Near Sankaruti School Pune 411060" }, "geometry": { "type": "Point", "coordinates": [ 73.9065273, 18.4624725 ] } },
{ "type": "Feature", "properties": { "ccd_name": "Lifiting of tree cutting", "com_location": "Shop No. 05, near Badahi Sweet, Kedari Nagar, Wanowrie, Pune, Maharashtra 411040" }, "geometry": { "type": "Point", "coordinates": [ 73.898998300000017, 18.4814301 ] } },
{ "type": "Feature", "properties": { "ccd_name": "Branch of tree / complete tree cutting", "com_location": " rkiDa ha Tela geTajavaLa, muMbaI-kolhApUra bAyapAsa hAyave, mhALuMge sAiDa sarvisa roDa, bAlevADI/mhALuMge, bANera jaMkshana chauka, rAdhA ha TelajavaLa, bANera, 411045. , Pune, Maharashtra" }, "geometry": { "type": "Point", "coordinates": [ 73.7628901, 18.577109 ] } },
{ "type": "Feature", "properties": { "ccd_name": "Branch of tree / complete tree cutting", "com_location": "suvarNabAga ka lanI kotharUDa puNe 411038 yethe shubhaMkarotI apArTameMTa chaMdrashobhA baMgalA va kAlikA ma.cnshana " }, "geometry": { "type": "Point", "coordinates": [ 73.8015957, 18.5118092 ] } },
{ "type": "Feature", "properties": { "ccd_name": "Others (Garden) (HO)", "com_location": "Shop No. 01 Pune Satara Road Pune la, Sangam Society, Bibwewadi, Pune, Maharashtra 411037, India" }, "geometry": { "type": "Point", "coordinates": [ 73.856565586275323, 18.476212705754108 ] } },
{ "type": "Feature", "properties": { "ccd_name": "Other (Tree Authority)", "com_location": "Map :- 13/B/3/2, Pune Saswad Rd, Sai Nagari, Hadapsar, Pune, Maharashtra 411028, India" }, "geometry": { "type": "Point", "coordinates": [ 73.9477502, 18.4934623 ] } },
{ "type": "Feature", "properties": { "ccd_name": "Others (Garden) (HO)", "com_location": "HVGP+P66, Santosh Nagar, Subhash Nagar, Tingre Nagar, Pune, Maharashtra 411015, India" }, "geometry": { "type": "Point", "coordinates": [ 73.8855057, 18.5768557 ] } },
{ "type": "Feature", "properties": { "ccd_name": "Branch of tree / complete tree cutting", "com_location": "457 shukravAra peTha guDaghe moDI mAtA maMdira vanarAja maMDaLa maMdirAvarIla vaDAche jhADAchyA pAraMbyA , Pune, Maharashtra" }, "geometry": { "type": "Point", "coordinates": [ 73.8786239, 18.5246091 ] } },
{ "type": "Feature", "properties": { "ccd_name": "Branch of tree / complete tree cutting", "com_location": "sr no 185, parvati gaon mahalaxmi apartment flat no 401, bhagwat hall, pune 411009." }, "geometry": { "type": "Point", "coordinates": [ 73.8500189, 18.4973487 ] } },
{ "type": "Feature", "properties": { "ccd_name": "Other (Tree Authority)", "com_location": "Location - GPO Post Office bus stop Pune " }, "geometry": { "type": "Point", "coordinates": [ 73.875721, 18.5228439 ] } },
{ "type": "Feature", "properties": { "ccd_name": "Lifiting of tree cutting", "com_location": "Dhruv Jewellers, Shop No. 5, Chandrabhaga Building, Sarang Society, Sahkarnagar No. 2, Pune - 411009" }, "geometry": { "type": "Point", "coordinates": [ 73.8497415, 18.4904483 ] } },
{ "type": "Feature", "properties": { "ccd_name": "Branch of tree / complete tree cutting", "com_location": "Navyug colony \r\nBhekrai nagar \r\nFursungi, Pune, Maharashtra" }, "geometry": { "type": "Point", "coordinates": [ 73.9521468, 18.4819581 ] } },
{ "type": "Feature", "properties": { "ccd_name": "Branch of tree / complete tree cutting", "com_location": "Gera misty water chsl,keshavnagar ,hadapsar pune " }, "geometry": { "type": "Point", "coordinates": [ 73.9440646, 18.5323976 ] } },
{ "type": "Feature", "properties": { "ccd_name": "Branch of tree / complete tree cutting", "com_location": "ghole roDa kShetrIya kAryAlaya aMtargata yeNARyA  puNe muMbaI roDa (vAkaDevADI te aMDI ubanI keMdra )  sarvhisa roDa " }, "geometry": { "type": "Point", "coordinates": [ 73.8521981, 18.5424091 ] } },
{ "type": "Feature", "properties": { "ccd_name": "Others (Garden) (HO)", "com_location": "keshavarAva  mahipata  deshapAMDe , Pune, Maharashtra" }, "geometry": { "type": "Point", "coordinates": [ 73.8786239, 18.5246091 ] } },
{ "type": "Feature", "properties": { "ccd_name": "Branch of tree / complete tree cutting", "com_location": "naMbara 08 shAhU vasAhata lakShmInagara parvatI puNe 09" }, "geometry": { "type": "Point", "coordinates": [ 73.8793282, 18.5010953 ] } },
{ "type": "Feature", "properties": { "ccd_name": "Branch of tree / complete tree cutting", "com_location": "Sr. No. 24/B20, Navin wasahat, PMC colony, Wakdewadi, pune-03, " }, "geometry": { "type": "Point", "coordinates": [ 73.8520533, 18.5384519 ] } },
{ "type": "Feature", "properties": { "ccd_name": "Lifiting of tree cutting", "com_location": "bhimAbAI dAMgaTa rastA kasabA peTha shAma piThAchyA giraNI shejArI puNe 411011" }, "geometry": { "type": "Point", "coordinates": [ 73.8638613, 18.5234814 ] } },
{ "type": "Feature", "properties": { "ccd_name": "Other (Tree Authority)", "com_location": "sarve naM 82 hiMgaNe maLA haDapasara \r\ngaNapatI visarjana ghATA javaLa, Pune, Maharashtra" }, "geometry": { "type": "Point", "coordinates": [ 73.930016, 18.4969026 ] } },
{ "type": "Feature", "properties": { "ccd_name": "Branch of tree / complete tree cutting", "com_location": "Swarna Vatika Kondhwa Pune Maharashtra India" }, "geometry": { "type": "Point", "coordinates": [ 73.8951708, 18.4787886 ] } },
{ "type": "Feature", "properties": { "ccd_name": "Cleaning of Garden (HO)", "com_location": "Bhimsen Joshi Park, Right Bhusari Kothrud, Pune, Maharashtra" }, "geometry": { "type": "Point", "coordinates": [ 73.7912656, 18.5112625 ] } },
{ "type": "Feature", "properties": { "ccd_name": "Branch of tree / complete tree cutting", "com_location": "ACP office to the opposite side of Gaikwad udyan Aundh / traffic office., Pune, Maharashtra" }, "geometry": { "type": "Point", "coordinates": [ 73.8105662, 18.5619337 ] } },
{ "type": "Feature", "properties": { "ccd_name": "Permission to Trim Branches in private Society / Land", "com_location": "Sadashanti, Dahanukar colony Lane 05, Plot -92, Kothrud , Pune, Maharashtra" }, "geometry": { "type": "Point", "coordinates": [ 73.8118213, 18.493602 ] } },
{ "type": "Feature", "properties": { "ccd_name": "Other (Tree Authority)", "com_location": "Manjari farmhouse Pune Solapur Road \r\ngramSevak Prashikshan Sanstha Samar Pune 412307" }, "geometry": { "type": "Point", "coordinates": [ 73.9809135, 18.49498 ] } },
{ "type": "Feature", "properties": { "ccd_name": "Other (Tree Authority)", "com_location": "yeravaDA jijAmAtA nagara madhye pAvasALA chAlU jhAlyApAsUna tithe bAjUlA jhADa , Pune, Maharashtra" }, "geometry": { "type": "Point", "coordinates": [ 73.8878474, 18.5501991 ] } },
{ "type": "Feature", "properties": { "ccd_name": "Lifiting of tree cutting", "com_location": "Jaidev Nagar,Near Rajaram Bridge, Sinhgad Road, Pune 411030." }, "geometry": { "type": "Point", "coordinates": [ 73.830962, 18.489475 ] } },
{ "type": "Feature", "properties": { "ccd_name": "Permission to Trim Branches in private Society / Land", "com_location": "Ranakpur darshan Bld no 24 alandi road pune 6" }, "geometry": { "type": "Point", "coordinates": [ 73.8773623, 18.6421226 ] } },
{ "type": "Feature", "properties": { "ccd_name": "Maintenance of Garden (Horticulture Related) (HO)", "com_location": "Dhayari Phata Pune Maharashtra India" }, "geometry": { "type": "Point", "coordinates": [ 73.8102051, 18.4471543 ] } },
{ "type": "Feature", "properties": { "ccd_name": "Cleaning of Garden (HO)", "com_location": " of Mukute garden PAN Card club road baner., Pune, Maharashtra" }, "geometry": { "type": "Point", "coordinates": [ 73.7781704, 18.5589916 ] } },
{ "type": "Feature", "properties": { "ccd_name": "Branch of tree / complete tree cutting", "com_location": "sarva darshan housing society Karve Road Saraswat bank samor pune 411004" }, "geometry": { "type": "Point", "coordinates": [ 73.8303734, 18.5085429 ] } },
{ "type": "Feature", "properties": { "ccd_name": "Branch of tree / complete tree cutting", "com_location": "JW Marriott Hotel Pune Senapati Bapat Road Laxmi Society Model Colony Shivajinagar Pune Maharashtra India" }, "geometry": { "type": "Point", "coordinates": [ 73.8296378, 18.5324386 ] } },
{ "type": "Feature", "properties": { "ccd_name": "Others (Garden) (HO)", "com_location": "Sai Park, Shriram Nagar, Ambegaon Budruk, Pune, Maharashtra 411046, India" }, "geometry": { "type": "Point", "coordinates": [ 73.8498122, 18.456215 ] } },
{ "type": "Feature", "properties": { "ccd_name": "Permission to Trim Branches in private Society / Land", "com_location": "sadAnaMda apArTameMTa pla Ta no 39, sI. TI. esa. naMbara 939, bharatakuMja sosAyaTI, eraMDavaNe puNe. " }, "geometry": { "type": "Point", "coordinates": [ 73.9263135, 18.4956546 ] } },
{ "type": "Feature", "properties": { "ccd_name": "Lifiting of tree cutting", "com_location": "tAthavaDe udyAnAjavaLa madhusaMchaya sosAyaTI karvenagara411052, Pune, Maharashtra" }, "geometry": { "type": "Point", "coordinates": [ 73.8273627, 18.4932423 ] } },
{ "type": "Feature", "properties": { "ccd_name": "Other (Tree Authority)", "com_location": "Tukaram Nagari, Wadgaon Budruk, Dhayari Phata, Pune, Maharashtra 411041" }, "geometry": { "type": "Point", "coordinates": [ 73.814888, 18.4608596 ] } },
{ "type": "Feature", "properties": { "ccd_name": "Lifiting of tree cutting", "com_location": "Shop 11, Pumas Nursing Home, near Pune, Sarang Society, Sahakar Nagar, Sivadarshan Poorgrasta Vasahat, Parvati Paytha, Pune, Maharashtra 411009" }, "geometry": { "type": "Point", "coordinates": [ 73.849868, 18.4895001 ] } },
{ "type": "Feature", "properties": { "ccd_name": "Others (Garden) (HO)", "com_location": "411021  this is baner pashan link road\r\n, Pune, Maharashtra" }, "geometry": { "type": "Point", "coordinates": [ 73.7911009, 18.5480592 ] } },
{ "type": "Feature", "properties": { "ccd_name": "Branch of tree / complete tree cutting", "com_location": "S.no 17,plot no 25,New hill hew top soc, Dankawadi, pune." }, "geometry": { "type": "Point", "coordinates": [ 73.8546821, 18.4654546 ] } },
{ "type": "Feature", "properties": { "ccd_name": "Branch of tree / complete tree cutting", "com_location": "RRituraMga sosAyaTI shelAra TVS dukAna  araNyeshvara roDa, Pune, Maharashtra" }, "geometry": { "type": "Point", "coordinates": [ 73.9531189, 18.5646495 ] } },
{ "type": "Feature", "properties": { "ccd_name": "Branch of tree / complete tree cutting", "com_location": "lena naM5sAI maMdIra javaLa sukhasAgara nagara kAtraja , Pune, Maharashtra" }, "geometry": { "type": "Point", "coordinates": [ 73.865238, 18.4529322 ] } },
{ "type": "Feature", "properties": { "ccd_name": "Branch of tree / complete tree cutting", "com_location": "At Sinhgad road near Indian Hume pipe / Amrut Ganga High St signal,pune." }, "geometry": { "type": "Point", "coordinates": [ 73.8232705, 18.4701983 ] } },
{ "type": "Feature", "properties": { "ccd_name": "Branch of tree / complete tree cutting", "com_location": "Grandura Apartment near Bata showroom Baner Road, Pune, Maharashtra" }, "geometry": { "type": "Point", "coordinates": [ 73.793797, 18.5573539 ] } },
{ "type": "Feature", "properties": { "ccd_name": "Branch of tree / complete tree cutting", "com_location": "Beside MSEB transformer , Sah jivan society ics colony shivaji nagar pune 411007 " }, "geometry": { "type": "Point", "coordinates": [ 73.8319817, 18.5424433 ] } },
{ "type": "Feature", "properties": { "ccd_name": "Other (Tree Authority)", "com_location": "suvarNa nagarI , (hiMdU ka lanI ) bibavevADI\r\nprabhAga -38 koMDhavA -yevale vADI kShetrIya kAryAlaya\r\n, Pune, Maharashtra" }, "geometry": { "type": "Point", "coordinates": [ 73.8200632, 18.4683942 ] } },
{ "type": "Feature", "properties": { "ccd_name": "Maintenance of Garden (Horticulture Related) (HO)", "com_location": "4/1/A/13, Late Paravati Yashwant Galande Path, New Kalyani Nagar, Vitthal Nagar, Vadgaonsheri Gaonthan, Wadgaon Sheri, Pune, Maharashtra 411014, India" }, "geometry": { "type": "Point", "coordinates": [ 73.9222388, 18.5425341 ] } },
{ "type": "Feature", "properties": { "ccd_name": "Other (Tree Authority)", "com_location": "PMT colony shankar sheth road near ghorpade peth post office swargate pune 411042" }, "geometry": { "type": "Point", "coordinates": [ 73.8609435, 18.5006544 ] } },
{ "type": "Feature", "properties": { "ccd_name": "Repairing of Jogging Track in garden", "com_location": "1a, Baner Rd, Sakal Nagar, Aundh, Pune, Maharashtra 411007, India" }, "geometry": { "type": "Point", "coordinates": [ 73.8204155, 18.5479295 ] } },
{ "type": "Feature", "properties": { "ccd_name": "Others (Garden) (HO)", "com_location": "A-25, Upper Indira Nagar, Bibwewadi, Pune, Maharashtra 411037, India" }, "geometry": { "type": "Point", "coordinates": [ 73.8632912, 18.4666684 ] } },
{ "type": "Feature", "properties": { "ccd_name": "Lifiting of tree cutting", "com_location": "Sanskriti English Medium School Samarth Nagar Hegde Khurda Sinhagad Road Pune 51" }, "geometry": { "type": "Point", "coordinates": [ 73.8529677, 18.4638164 ] } },
{ "type": "Feature", "properties": { "ccd_name": "Branch of tree / complete tree cutting", "com_location": "Aqashganga no 11, 34/a/6 \r\nKargil Vijay Nagar society \r\n Opp Vimannagar Conner bus stop \r\n Nagar road,\r\nWadgaon Sheri Pune 411014 " }, "geometry": { "type": "Point", "coordinates": [ 73.9198698, 18.56041 ] } },
{ "type": "Feature", "properties": { "ccd_name": "Lifiting of tree cutting", "com_location": "Ex-servicemen colony More Vidyalaya Paud Road Near Domino's Pizza plot no 16 chya ikde madhli galli, Pune, Maharashtra" }, "geometry": { "type": "Point", "coordinates": [ 73.8196347, 18.511404 ] } },
{ "type": "Feature", "properties": { "ccd_name": "Branch of tree / complete tree cutting", "com_location": "pattA \r\nkRRiShI sosAyaTI datta maMdIra, bArAmatI ha sTelachyA mAge, gokhalenagara, puNe 411016" }, "geometry": { "type": "Point", "coordinates": [ 73.8266689, 18.523936 ] } },
{ "type": "Feature", "properties": { "ccd_name": "Lifiting of tree cutting", "com_location": "ARCHIBELE COMPLEX  SHIVAJINAGAR , Pune, Maharashtra" }, "geometry": { "type": "Point", "coordinates": [ 73.8498588, 18.530263 ] } },
{ "type": "Feature", "properties": { "ccd_name": "Cleaning of Garden (HO)", "com_location": "Savitribai phule library Dattanagar Shani Nagar Ambegaon Budruk Pune Maharashtra India" }, "geometry": { "type": "Point", "coordinates": [ 73.848021, 18.4478534 ] } },
{ "type": "Feature", "properties": { "ccd_name": "Other (Tree Authority)", "com_location": "vaMdanA resiDensI sahakArI gRRiharachanA saMsthA maryAdita sarve naMbara 55 /3 tuLajAbhavAnI nagara kharADI puNe 14" }, "geometry": { "type": "Point", "coordinates": [ 73.9460278, 18.5646802 ] } },
{ "type": "Feature", "properties": { "ccd_name": "Branch of tree / complete tree cutting", "com_location": "123 varad ganapati society, near treasure park Sahakar Nagar no.1, Pune, Maharashtra" }, "geometry": { "type": "Point", "coordinates": [ 73.8519224, 18.4774932 ] } },
{ "type": "Feature", "properties": { "ccd_name": "Branch of tree / complete tree cutting", "com_location": "jhila ka leja chyA geTa javaLa dIparAja AMgaNa sosAyaTI narhe, Pune, Maharashtra" }, "geometry": { "type": "Point", "coordinates": [ 73.826375, 18.4464732 ] } },
{ "type": "Feature", "properties": { "ccd_name": "Cleaning of Garden (HO)", "com_location": "Sr No 39/6 39.7 11 Archana Peridise Amenity Space Park Pune 411060" }, "geometry": { "type": "Point", "coordinates": [ 73.9018992, 18.4597632 ] } },
{ "type": "Feature", "properties": { "ccd_name": "Others (Garden) (HO)", "com_location": "Mundhwa Bridge  till bypass chowk , Pune, Maharashtra" }, "geometry": { "type": "Point", "coordinates": [ 73.9339752, 18.5363337 ] } },
{ "type": "Feature", "properties": { "ccd_name": "Branch of tree / complete tree cutting", "com_location": "ghaTanAsthaLa :- 20 moboja kaMpAUMDa,baMDa gArDana roDa, puNe 1" }, "geometry": { "type": "Point", "coordinates": [ 73.751953900000018, 18.6176207 ] } },
{ "type": "Feature", "properties": { "ccd_name": "Others (Garden) (HO)", "com_location": "10, Gali Number 9, Saibaba Nagar, Kondhwa, Pune, Maharashtra 411048, India" }, "geometry": { "type": "Point", "coordinates": [ 73.8836356, 18.4688383 ] } },
{ "type": "Feature", "properties": { "ccd_name": "Cleaning of Garden (HO)", "com_location": "Vadgaon Khurd Nanded Fata Pandurang Industrial Area Nanded Pune Maharashtra India" }, "geometry": { "type": "Point", "coordinates": [ 73.8080869, 18.4608064 ] } },
{ "type": "Feature", "properties": { "ccd_name": "Others (Garden) (HO)", "com_location": " at Vartak garden, Pune, Maharashtra" }, "geometry": { "type": "Point", "coordinates": [ 73.8480837, 18.518604 ] } },
{ "type": "Feature", "properties": { "ccd_name": "Others (Garden) (HO)", "com_location": "shivarakara gArDana, vAnavaDI va rDa: vAnavaDI,PUNE" }, "geometry": { "type": "Point", "coordinates": [ 73.900402, 18.49849 ] } },
{ "type": "Feature", "properties": { "ccd_name": "Branch of tree / complete tree cutting", "com_location": "sanmatI enklevha sahakArI gRRiharachanA maryAdita, Pune, Maharashtra" }, "geometry": { "type": "Point", "coordinates": [ 73.777092, 18.5122433 ] } },
{ "type": "Feature", "properties": { "ccd_name": "Branch of tree / complete tree cutting", "com_location": "Bavdhan Pune Maharashtra India" }, "geometry": { "type": "Point", "coordinates": [ 73.7698579, 18.513463 ] } },
{ "type": "Feature", "properties": { "ccd_name": "Lifiting of tree cutting", "com_location": "vijayashrI sahakArI saMsthechyA bhiMtI bAherIla phUTapAtha AshiSha gArDana alIkaDe mokATe kAliMdI samora dp roDa kotharUDa puNe 38" }, "geometry": { "type": "Point", "coordinates": [ 73.8034923, 18.5021136 ] } },
{ "type": "Feature", "properties": { "ccd_name": "Branch of tree / complete tree cutting", "com_location": "Address: Adora Residence, near Arrivae, S no 33/3, Balewadi, Pune-45" }, "geometry": { "type": "Point", "coordinates": [ 73.7660342, 18.577566 ] } },
{ "type": "Feature", "properties": { "ccd_name": "Branch of tree / complete tree cutting", "com_location": "Welworth Celina, 270/1/B/1, Varsha Park Society, Pashan, Pune, Maharashtra 411045" }, "geometry": { "type": "Point", "coordinates": [ 73.7983903, 18.5532282 ] } },
{ "type": "Feature", "properties": { "ccd_name": "Branch of tree / complete tree cutting", "com_location": "Swaranagari Society Anand Nagar Rd Varshanand Society Hingne Khurd Pune Maharashtra India" }, "geometry": { "type": "Point", "coordinates": [ 73.8256828, 18.4765783 ] } },
{ "type": "Feature", "properties": { "ccd_name": "Lifiting of tree cutting", "com_location": "Anandi Laxmi Apartments Society Bharatkunj  Erandwane Pune Maharashtra India" }, "geometry": { "type": "Point", "coordinates": [ 73.8246327, 18.5024001 ] } },
{ "type": "Feature", "properties": { "ccd_name": "Other (Tree Authority)", "com_location": "chaMdananagara yethe chAndhAre  bilDiMga ,Automech Auto center, Pune, Maharashtra" }, "geometry": { "type": "Point", "coordinates": [ 73.8498894, 18.525584 ] } },
{ "type": "Feature", "properties": { "ccd_name": "Branch of tree / complete tree cutting", "com_location": "Pradynraj lotus society \r\nOld mundwa road behind old relax hotel , Pune, Maharashtra" }, "geometry": { "type": "Point", "coordinates": [ 73.888138, 18.5158693 ] } },
{ "type": "Feature", "properties": { "ccd_name": "Branch of tree / complete tree cutting", "com_location": " Address Eve's Garden Society Baner Road Pune. 411045. " }, "geometry": { "type": "Point", "coordinates": [ 73.7956021, 18.5538158 ] } },
{ "type": "Feature", "properties": { "ccd_name": "Other (Tree Authority)", "com_location": "kALe paDalaM under pass pAsUna masobA maMdira roDa , Pune, Maharashtra" }, "geometry": { "type": "Point", "coordinates": [ 73.8786239, 18.5246091 ] } },
{ "type": "Feature", "properties": { "ccd_name": "Lifiting of tree cutting", "com_location": "5, Sambaji Nagar Rd, Chhatrapati Sambhaji Nagar, Dhankawadi, Pune, Maharashtra 411043, India" }, "geometry": { "type": "Point", "coordinates": [ 73.8572978, 18.4684666 ] } },
{ "type": "Feature", "properties": { "ccd_name": "Branch of tree / complete tree cutting", "com_location": "lane 10, NDA Rd, Bavdhan Pune 21" }, "geometry": { "type": "Point", "coordinates": [ 73.7991026, 18.4755653 ] } },
{ "type": "Feature", "properties": { "ccd_name": "Other (Tree Authority)", "com_location": " BARTI Campus , Yerwada, Pune.\r\n" }, "geometry": { "type": "Point", "coordinates": [ 73.8855437, 18.5581799 ] } },
{ "type": "Feature", "properties": { "ccd_name": "Branch of tree / complete tree cutting", "com_location": "shrI.kuNAla dhotre shivapratApa mitra maMDaLa javaLa shrI nivAsa bilDiMga gokhale nagara , Pune, Maharashtra" }, "geometry": { "type": "Point", "coordinates": [ 73.82708550000001, 18.5291524 ] } },
{ "type": "Feature", "properties": { "ccd_name": "Branch of tree / complete tree cutting", "com_location": "shrI viThThala rukmiNI maMDaLa kodrenagara phloriDA isTeTa keshavanagara, Pune, Maharashtra" }, "geometry": { "type": "Point", "coordinates": [ 73.8786239, 18.5246091 ] } },
{ "type": "Feature", "properties": { "ccd_name": "Branch of tree / complete tree cutting", "com_location": "Chaturshingi Paytha Senapati Bapat Road Pune 411016" }, "geometry": { "type": "Point", "coordinates": [ 73.8300857, 18.5316306 ] } },
{ "type": "Feature", "properties": { "ccd_name": "Branch of tree / complete tree cutting", "com_location": "shahu colony lane no 1, atal vision academy backside karve nagar cummins college pune 411052." }, "geometry": { "type": "Point", "coordinates": [ 73.8161105, 18.4841566 ] } },
{ "type": "Feature", "properties": { "ccd_name": "Branch of tree / complete tree cutting", "com_location": "Sadafuli society,D-mart back side,moze college ,laxman nagar,balewadi,pune 411045. " }, "geometry": { "type": "Point", "coordinates": [ 73.7727908, 18.5700156 ] } },
{ "type": "Feature", "properties": { "ccd_name": "Other (Tree Authority)", "com_location": "Address: 333/A Ghorpade Peth, 13 Number School, Pune" }, "geometry": { "type": "Point", "coordinates": [ 73.8639442, 18.5033259 ] } },
{ "type": "Feature", "properties": { "ccd_name": "Other (Tree Authority)", "com_location": "gupte ha spiTala 904 bhAMDArakara roDa gallI naMbara 3pUne 4." }, "geometry": { "type": "Point", "coordinates": [ 73.8146238, 18.454752 ] } },
{ "type": "Feature", "properties": { "ccd_name": "Repairing of playing equipments in garden", "com_location": "ghorapaDe udyAna,prabhAga18 , Pune, Maharashtra" }, "geometry": { "type": "Point", "coordinates": [ 73.8786239, 18.5246091 ] } },
{ "type": "Feature", "properties": { "ccd_name": "Branch of tree / complete tree cutting", "com_location": "Prasanna Co Op society near sanewadi playground, Pune, Maharashtra" }, "geometry": { "type": "Point", "coordinates": [ 73.806984, 18.5546562 ] } },
{ "type": "Feature", "properties": { "ccd_name": "Branch of tree / complete tree cutting", "com_location": "10 Lantana Gardens NDA Road, , Pune, Maharashtra" }, "geometry": { "type": "Point", "coordinates": [ 73.77866, 18.518104 ] } },
{ "type": "Feature", "properties": { "ccd_name": "Maintenance of Garden (Horticulture Related) (HO)", "com_location": "162/18, Gokhalenagar, Pune, Maharashtra 411016\r\n\r\n" }, "geometry": { "type": "Point", "coordinates": [ 73.8253887, 18.5263789 ] } },
{ "type": "Feature", "properties": { "ccd_name": "Cleaning of Garden (HO)", "com_location": "chimaNA chimaNI bAga kiMvA nAnA nAnI pArka ,78 nishchiMta, tuLashIbAgavAle ka lanI,pune" }, "geometry": { "type": "Point", "coordinates": [ 73.9577837, 18.5348531 ] } },
{ "type": "Feature", "properties": { "ccd_name": "Other (Tree Authority)", "com_location": "hari om bunglow Shikshak nagar lane no 8 kothrud pune " }, "geometry": { "type": "Point", "coordinates": [ 73.8045241, 18.5100507 ] } },
{ "type": "Feature", "properties": { "ccd_name": "Branch of tree / complete tree cutting", "com_location": " gulamohara orkiDsa niyara shrI ha spiTala kharADI, Pune, Maharashtra" }, "geometry": { "type": "Point", "coordinates": [ 73.9424114, 18.551163 ] } },
{ "type": "Feature", "properties": { "ccd_name": "Branch of tree / complete tree cutting", "com_location": "Gulmohar apt, Samarth Society, Warje, Near Green Bakery, Pune - 411058." }, "geometry": { "type": "Point", "coordinates": [ 73.8050848, 18.4841918 ] } },
{ "type": "Feature", "properties": { "ccd_name": "Branch of tree / complete tree cutting", "com_location": "Address : Konark Arcade ,Near Datta Mandir Chowk  Viman nagar, Pune, Maharashtra" }, "geometry": { "type": "Point", "coordinates": [ 73.9131576, 18.5655222 ] } },
{ "type": "Feature", "properties": { "ccd_name": "Planting of trees besides divider/foothpath (HO)", "com_location": "his is Rajaram Bridge which connects sinhgad road to karvenagar., Pune, Maharashtra" }, "geometry": { "type": "Point", "coordinates": [ 73.8289625, 18.4873111 ] } },
{ "type": "Feature", "properties": { "ccd_name": "Branch of tree / complete tree cutting", "com_location": "Elcon Industries near Vijay Vallabh High School New Nana Peth Bhawani Peth Pune Maharashtra India" }, "geometry": { "type": "Point", "coordinates": [ 73.8650441, 18.5107031 ] } },
{ "type": "Feature", "properties": { "ccd_name": "Lifiting of tree cutting", "com_location": "Saiprasad Apartment, near absolute barbecues, Baner Mhalunge road, baner 411045, Pune, Maharashtra" }, "geometry": { "type": "Point", "coordinates": [ 73.772677, 18.5659899 ] } },
{ "type": "Feature", "properties": { "ccd_name": "Lifiting of tree cutting", "com_location": "27/4 , saiprasad nivas , ram mandir jawal ,ambegaon pathar , bharti  vidhyapeeth chya mage , ganesh nagar , pune 411046" }, "geometry": { "type": "Point", "coordinates": [ 73.8375211, 18.4531273 ] } },
{ "type": "Feature", "properties": { "ccd_name": "Cleaning of Garden (HO)", "com_location": "Shahu bagh somwar peth, Pune, Maharashtra" }, "geometry": { "type": "Point", "coordinates": [ 73.867634700000011, 18.5214325 ] } },
{ "type": "Feature", "properties": { "ccd_name": "Lifiting of tree cutting", "com_location": "Baide bunglow lane next to swanand hospital, Pune, Maharashtra" }, "geometry": { "type": "Point", "coordinates": [ 73.8340255, 18.5297208 ] } },
{ "type": "Feature", "properties": { "ccd_name": "Permission to Trim Branches in private Society / Land", "com_location": "Dhayari Phata Pune Maharashtra India" }, "geometry": { "type": "Point", "coordinates": [ 73.8102051, 18.4471543 ] } },
{ "type": "Feature", "properties": { "ccd_name": "Lifiting of tree cutting", "com_location": "rAmaTekaDItIla navayuga taruNa maMDaLa viThThala maMdira shejArI , Pune, Maharashtra" }, "geometry": { "type": "Point", "coordinates": [ 73.8786239, 18.5246091 ] } },
{ "type": "Feature", "properties": { "ccd_name": "Cleaning of Garden (HO)", "com_location": "dAmodara galaMDe gArDana ja garsa pArka kalyANI nagara puNe 411006." }, "geometry": { "type": "Point", "coordinates": [ 73.9037465, 18.5460122 ] } },
{ "type": "Feature", "properties": { "ccd_name": "Others (Garden) (HO)", "com_location": "vartaka bAga shanivAra peTha , Pune, Maharashtra" }, "geometry": { "type": "Point", "coordinates": [ 73.8440548, 18.5082486 ] } },
{ "type": "Feature", "properties": { "ccd_name": "Branch of tree / complete tree cutting", "com_location": " yogi park Baner pune 45" }, "geometry": { "type": "Point", "coordinates": [ 73.7744934, 18.5526813 ] } },
{ "type": "Feature", "properties": { "ccd_name": "Others (Garden) (HO)", "com_location": "rAjIva gAMdhI prANI saMgrAlaya.\r\n\r\n, Pune, Maharashtra" }, "geometry": { "type": "Point", "coordinates": [ 73.8786239, 18.5246091 ] } },
{ "type": "Feature", "properties": { "ccd_name": "Branch of tree / complete tree cutting", "com_location": "sarvhe naM.79, hiMgaNe maLA, haDapasara puNe 28. " }, "geometry": { "type": "Point", "coordinates": [ 73.9398818, 18.5009288 ] } },
{ "type": "Feature", "properties": { "ccd_name": "Branch of tree / complete tree cutting", "com_location": "Near white house road, behind shivaji maratha school,296\r\n shukrawar peth,pune 411024." }, "geometry": { "type": "Point", "coordinates": [ 73.8567114, 18.5082759 ] } },
{ "type": "Feature", "properties": { "ccd_name": "Branch of tree / complete tree cutting", "com_location": "50B, Yamuna, Hanuman Nagar, Senapati Bapat road,Pune: 16" }, "geometry": { "type": "Point", "coordinates": [ 73.8321655, 18.5260789 ] } },
{ "type": "Feature", "properties": { "ccd_name": "Branch of tree / complete tree cutting", "com_location": "yelalevADI te khaDimashina kaDe jANAre DAvyA bAjUlA,pune\t" }, "geometry": { "type": "Point", "coordinates": [ 73.8786239, 18.5246091 ] } },
{ "type": "Feature", "properties": { "ccd_name": "Planting of trees besides divider/foothpath (HO)", "com_location": "kasabA peTha, pavaLe chauka te kuMbhAra vADA, Pune, Maharashtra" }, "geometry": { "type": "Point", "coordinates": [ 73.8587673, 18.5243716 ] } },
{ "type": "Feature", "properties": { "ccd_name": "Branch of tree / complete tree cutting", "com_location": " Yerawada near bhaji market near canara bank ATM .Pune 6 " }, "geometry": { "type": "Point", "coordinates": [ 73.879711, 18.5529226 ] } },
{ "type": "Feature", "properties": { "ccd_name": "Branch of tree / complete tree cutting", "com_location": "Salunke vihar raod \r\nShreemoti apartments \r\nManPasand mithai shop, Pune, Maharashtra" }, "geometry": { "type": "Point", "coordinates": [ 73.9010279, 18.4812176 ] } },
{ "type": "Feature", "properties": { "ccd_name": "Branch of tree / complete tree cutting", "com_location": "Agrasen High School Yerawada Pune Maharashtra India" }, "geometry": { "type": "Point", "coordinates": [ 73.8822822, 18.5560538 ] } },
{ "type": "Feature", "properties": { "ccd_name": "Branch of tree / complete tree cutting", "com_location": "Location: 103, iMdU apArTameMTa, roDa naMbara 11-B-1, bhairava nagara, dhAnorI 411015, Pune, Maharashtra" }, "geometry": { "type": "Point", "coordinates": [ 73.888182, 18.587496 ] } },
{ "type": "Feature", "properties": { "ccd_name": "Others (Garden) (HO)", "com_location": "Jade Residences, near hp petrol pump, wagholi pune nagar highway road PUNE 412207" }, "geometry": { "type": "Point", "coordinates": [ 73.926799, 18.5624571 ] } },
{ "type": "Feature", "properties": { "ccd_name": "Other (Tree Authority)", "com_location": "Atur Nagar Society Undri Mohammadwadi Road Pune" }, "geometry": { "type": "Point", "coordinates": [ 73.9150393, 18.4528126 ] } },
{ "type": "Feature", "properties": { "ccd_name": "Branch of tree / complete tree cutting", "com_location": "near balaji mandir, mati ganpati, Narayan peth,, Pune, Maharashtra" }, "geometry": { "type": "Point", "coordinates": [ 73.847391, 18.515985 ] } },
{ "type": "Feature", "properties": { "ccd_name": "Branch of tree / complete tree cutting", "com_location": "vishvajIta hA.so.lI.\r\nveda bhavana parisara , bhusArI ka lanI kotharUDa puNe\r\n411038" }, "geometry": { "type": "Point", "coordinates": [ 73.8325882, 18.5430169 ] } },
{ "type": "Feature", "properties": { "ccd_name": "Branch of tree / complete tree cutting", "com_location": "281 janavADI. yA ThikANachyA kAlikA mAtA maMdira parisarAmadhIla, Pune, Maharashtra" }, "geometry": { "type": "Point", "coordinates": [ 73.8236208, 18.5282973 ] } },
{ "type": "Feature", "properties": { "ccd_name": "Branch of tree / complete tree cutting", "com_location": "Lane 7, Yashashree Society, Paud Road, Pune 411038." }, "geometry": { "type": "Point", "coordinates": [ 73.7903298, 18.5114783 ] } },
{ "type": "Feature", "properties": { "ccd_name": "Lifiting of tree cutting", "com_location": "43/85Mitra bunglow navsahyadri society near tathawade garden opp anurekha society, Pune, Maharashtra" }, "geometry": { "type": "Point", "coordinates": [ 73.8273627, 18.4932423 ] } },
{ "type": "Feature", "properties": { "ccd_name": "Other (Tree Authority)", "com_location": "B 43/46 appara luMbinI buddha vihArAMsamora bibevADI puNe ." }, "geometry": { "type": "Point", "coordinates": [ 73.8640944, 18.4690213 ] } },
{ "type": "Feature", "properties": { "ccd_name": "Others (Garden) (HO)", "com_location": "siMhagaDa roDa, rAjArAma pulA javaLachA uDDANapUla Aja surU jhAlA. paraMtu bAjuchyA sarvhisa roDavara jayadeva nagara bAhera phuTapAthavara asalelyA  jhADAmuLe , Pune, Maharashtra" }, "geometry": { "type": "Point", "coordinates": [ 73.8786239, 18.5246091 ] } },
{ "type": "Feature", "properties": { "ccd_name": "Branch of tree / complete tree cutting", "com_location": "Bamboo Galli,karnataka high school, erandwane,pune 411004." }, "geometry": { "type": "Point", "coordinates": [ 73.827673, 18.501902 ] } },
{ "type": "Feature", "properties": { "ccd_name": "Others (Garden) (HO)", "com_location": "94/95 Right, Paud Road, Bhusari Colony, Kothrud, Pune, Maharashtra 411038, India" }, "geometry": { "type": "Point", "coordinates": [ 73.7964821, 18.5091908 ] } },
{ "type": "Feature", "properties": { "ccd_name": "Other (Tree Authority)", "com_location": "aShTagaMdhA pheja 3 javaLa, yArAvajI ha Tela samora, bANera, puNe, mahArAShTra 411045" }, "geometry": { "type": "Point", "coordinates": [ 73.7769432, 18.5642382 ] } },
{ "type": "Feature", "properties": { "ccd_name": "Lifiting of tree cutting", "com_location": "pdcc bank mage, oscar school road. keshav ngar mundhava, nikhila nivas, pune " }, "geometry": { "type": "Point", "coordinates": [ 73.9375186, 18.5344497 ] } },
{ "type": "Feature", "properties": { "ccd_name": "Branch of tree / complete tree cutting", "com_location": "https://maps.app.goo.gl/Gr5MU52BezxWyrLo8\r\nShani Nagar, Ambegaon Budruk, Pune, Maharashtra 411046" }, "geometry": { "type": "Point", "coordinates": [ 73.8492576, 18.4413564 ] } },
{ "type": "Feature", "properties": { "ccd_name": "Lifiting of tree cutting", "com_location": " Welworth Tinseltown gate, Bavdhan, Pune, Maharashtra" }, "geometry": { "type": "Point", "coordinates": [ 73.7773411, 18.5148059 ] } },
{ "type": "Feature", "properties": { "ccd_name": "Cleaning of Garden (HO)", "com_location": "Map:- 18 26'28.4\"N 73 48'47.8\"E\r\n 401, Mahadev Nagar, Dhayari, Pune, Maharashtra 411041" }, "geometry": { "type": "Point", "coordinates": [ 73.8126947, 18.4400769 ] } },
{ "type": "Feature", "properties": { "ccd_name": "Others (Garden) (HO)", "com_location": "Sinhgad road Hingne   Tree guards near Nilay Complex , Pune, Maharashtra" }, "geometry": { "type": "Point", "coordinates": [ 73.8272817, 18.4830339 ] } },
{ "type": "Feature", "properties": { "ccd_name": "Other (Tree Authority)", "com_location": "kamalA neharU hA.cspITala \r\nsamora rahAto.  hA.cspITalache darshanI bhAgAta , Pune, Maharashtra" }, "geometry": { "type": "Point", "coordinates": [ 73.8786239, 18.5246091 ] } },
{ "type": "Feature", "properties": { "ccd_name": "Cleaning of Garden (HO)", "com_location": "ShaheedAbdulhameed Ayurvedic Uddyan near Kausarbaugh area of Kondhwa, Pune, Maharashtra" }, "geometry": { "type": "Point", "coordinates": [ 73.8955939, 18.4735977 ] } },
{ "type": "Feature", "properties": { "ccd_name": "Branch of tree / complete tree cutting", "com_location": "siMhagaDa rastyAvara viThThalavADI rAjArAma pulAkaDUna AnaMdanagara kaDe jAtAnA, Pune, Maharashtra" }, "geometry": { "type": "Point", "coordinates": [ 73.8786239, 18.5246091 ] } },
{ "type": "Feature", "properties": { "ccd_name": "Other (Tree Authority)", "com_location": " bhagalI rUgNAlayA samorIla bibavevADI, sobAsAMja sosAyaTI, Pune, Maharashtra" }, "geometry": { "type": "Point", "coordinates": [ 73.8580732, 18.4746616 ] } },
{ "type": "Feature", "properties": { "ccd_name": "Branch of tree / complete tree cutting", "com_location": "Address- Bramha estate society, Near Jyoti hotel, Kondhwa Khurd, Pune -411048" }, "geometry": { "type": "Point", "coordinates": [ 73.8887517, 18.4780129 ] } },
{ "type": "Feature", "properties": { "ccd_name": "Others (Garden) (HO)", "com_location": "Maitri Udyaan Viman Nagar, Pune, Maharashtra" }, "geometry": { "type": "Point", "coordinates": [ 73.9306111, 18.5621798 ] } },
{ "type": "Feature", "properties": { "ccd_name": "Permission to Trim Branches in private Society / Land", "com_location": "Saaj, plot no 17, Kulashree Society No 2, Karve Nagar, Pune 411052." }, "geometry": { "type": "Point", "coordinates": [ 73.8233161, 18.4884432 ] } },
{ "type": "Feature", "properties": { "ccd_name": "Others (Garden) (HO)", "com_location": "kasba peth Meenatai thakare udyan pune 411011" }, "geometry": { "type": "Point", "coordinates": [ 73.8860555, 18.4724368 ] } },
{ "type": "Feature", "properties": { "ccd_name": "Branch of tree / complete tree cutting", "com_location": "sukhasAgara nagara bhAga 2 \r\nlena naMbara 3\r\n ujavI bAjU svAmI ha Tela vAlI gallIchyA shevaTI  , Pune, Maharashtra" }, "geometry": { "type": "Point", "coordinates": [ 73.7948462, 18.5089646 ] } },
{ "type": "Feature", "properties": { "ccd_name": "Branch of tree / complete tree cutting", "com_location": "gas godown bibwewadi , lok shahir anna bhau sathe near ,prem chandra oswal hospital pune 411037." }, "geometry": { "type": "Point", "coordinates": [ 73.8575371, 18.4769474 ] } },
{ "type": "Feature", "properties": { "ccd_name": "Cleaning of Garden (HO)", "com_location": "Tingre Nagar Pune Maharashtra India" }, "geometry": { "type": "Point", "coordinates": [ 73.8930827, 18.575865 ] } },
{ "type": "Feature", "properties": { "ccd_name": "Others (Garden) (HO)", "com_location": "43/8, Shree Vardhaman Nagar, Malik Nagar, Kondhawa Budruk, Pune, Maharashtra 411048, India" }, "geometry": { "type": "Point", "coordinates": [ 73.8843085, 18.4658008 ] } },
{ "type": "Feature", "properties": { "ccd_name": "Lifiting of tree cutting", "com_location": "shahu colony lane no 2 karve nagar pune 411052" }, "geometry": { "type": "Point", "coordinates": [ 73.8171752, 18.4848566 ] } },
{ "type": "Feature", "properties": { "ccd_name": "Other (Tree Authority)", "com_location": "nArada maMdira, sadAshiva peTha , Pune, Maharashtra" }, "geometry": { "type": "Point", "coordinates": [ 73.8670986, 18.5226815 ] } },
{ "type": "Feature", "properties": { "ccd_name": "Others (Garden) (HO)", "com_location": "someshwarwadi baner link road , Pune, Maharashtra" }, "geometry": { "type": "Point", "coordinates": [ 73.7963971, 18.5518096 ] } },
{ "type": "Feature", "properties": { "ccd_name": "Branch of tree / complete tree cutting", "com_location": "khaDakavAsalA gAva yethIla madhalI tAlIma TrasTa , Pune, Maharashtra" }, "geometry": { "type": "Point", "coordinates": [ 73.8786239, 18.5246091 ] } },
{ "type": "Feature", "properties": { "ccd_name": "Branch of tree / complete tree cutting", "com_location": "ghara naMbara 272 navI khaDakI phreMDsa Telara samora yeravaDA puNe 411006. " }, "geometry": { "type": "Point", "coordinates": [ 73.885828, 18.5497183 ] } },
{ "type": "Feature", "properties": { "ccd_name": "Branch of tree / complete tree cutting", "com_location": "pattA - 50,jedhe nagara,ramyanagarI samora, AyasIAyasIAya ba.Nka shejArI, bibavevADI,puNe 37" }, "geometry": { "type": "Point", "coordinates": [ 73.8628565, 18.4764406 ] } },
{ "type": "Feature", "properties": { "ccd_name": "Other (Tree Authority)", "com_location": "Overhang outside ramnagar colony near AG Traders, Pune, Maharashtra" }, "geometry": { "type": "Point", "coordinates": [ 73.780512, 18.523495 ] } },
{ "type": "Feature", "properties": { "ccd_name": "Others (Garden) (HO)", "com_location": "opposite Bibvewadi Police station , in front of Jain temple. , Pune, Maharashtra" }, "geometry": { "type": "Point", "coordinates": [ 73.8642051, 18.4673251 ] } },
{ "type": "Feature", "properties": { "ccd_name": "Branch of tree / complete tree cutting", "com_location": "Mangalwar Peth Thakare Chouk Near Kamla Neharu Hospital MSEB Office Pune 411011" }, "geometry": { "type": "Point", "coordinates": [ 73.862034, 18.522647 ] } },
{ "type": "Feature", "properties": { "ccd_name": "Branch of tree / complete tree cutting", "com_location": "sI / 1, iMdirA nagara loara bibavevADI puNe 37, shAnI maMdirA mAge," }, "geometry": { "type": "Point", "coordinates": [ 73.8640135, 18.468384 ] } },
{ "type": "Feature", "properties": { "ccd_name": "Branch of tree / complete tree cutting", "com_location": "chALa kra. 124 ba shivadarshana puNe 09\r\n" }, "geometry": { "type": "Point", "coordinates": [ 73.8786239, 18.5246091 ] } },
{ "type": "Feature", "properties": { "ccd_name": "Other (Tree Authority)", "com_location": "GST Bhawan, near Wadia college, Pune 411001\"" }, "geometry": { "type": "Point", "coordinates": [ 73.8806824, 18.5333787 ] } },
{ "type": "Feature", "properties": { "ccd_name": "Branch of tree / complete tree cutting", "com_location": "rA.sarvha naM3 lakShInagara lena 11 AshiyAnA sosAyaTI  koMDhavA badruka puNe 48  " }, "geometry": { "type": "Point", "coordinates": [ 73.8786239, 18.5246091 ] } },
{ "type": "Feature", "properties": { "ccd_name": "Branch of tree / complete tree cutting", "com_location": " gopALakRRiShNa sosAyaTI, AMbeDakara chauka javaLa, vAraje jakAta nAkA, Pune, Maharashtra" }, "geometry": { "type": "Point", "coordinates": [ 73.8110279, 18.4840972 ] } },
{ "type": "Feature", "properties": { "ccd_name": "Others (Garden) (HO)", "com_location": "GR9V+P3M, Shivajinagar, Pune, Maharashtra 411004, India" }, "geometry": { "type": "Point", "coordinates": [ 73.8427101, 18.519359 ] } },
{ "type": "Feature", "properties": { "ccd_name": "Branch of tree / complete tree cutting", "com_location": "rAmamaMdira  te  leka shore sosAyaTI  rastyAvarIla  \r\nHavildar mala \r\nDhanori\r\nPune 411015" }, "geometry": { "type": "Point", "coordinates": [ 73.896851, 18.5967587 ] } },
{ "type": "Feature", "properties": { "ccd_name": "Other (Tree Authority)", "com_location": " sarvhe naMbara 31/22/1 pira.cmiDa AshiyAnA mhADA viMga  ANi hAtImI hIlsa yethIla,pune" }, "geometry": { "type": "Point", "coordinates": [ 73.8786239, 18.5246091 ] } },
{ "type": "Feature", "properties": { "ccd_name": "Other (Tree Authority)", "com_location": "405/9 nArAyaNa peTha modI gaNapatIchyA mAge sArasvata ba.Nka puNe" }, "geometry": { "type": "Point", "coordinates": [ 73.8786239, 18.5246091 ] } },
{ "type": "Feature", "properties": { "ccd_name": "Other (Tree Authority)", "com_location": "Limaye wadi , near Yogesh hospital Sadashiv peth, Pune, Maharashtra" }, "geometry": { "type": "Point", "coordinates": [ 73.847796, 18.5104038 ] } },
{ "type": "Feature", "properties": { "ccd_name": "Others (Garden) (HO)", "com_location": "08, Paud Road, Bhusari Colony, Kothrud, Pune, Maharashtra 411038, India" }, "geometry": { "type": "Point", "coordinates": [ 73.793854, 18.509318 ] } },
{ "type": "Feature", "properties": { "ccd_name": "Branch of tree / complete tree cutting", "com_location": "31 rajas Govardhan society sahakarnagar no.1 padmavati pune 411009" }, "geometry": { "type": "Point", "coordinates": [ 73.855825, 18.4748298 ] } },
{ "type": "Feature", "properties": { "ccd_name": "Repairing of playing equipments in garden", "com_location": "Vedang Apartment, Sutarwadi, Jai Bhavani Nagar, Pashan, Pune, Maharashtra 411021, India" }, "geometry": { "type": "Point", "coordinates": [ 73.7871536, 18.537957 ] } },
{ "type": "Feature", "properties": { "ccd_name": "Branch of tree / complete tree cutting", "com_location": "Dodke Park AtulNagar Phase I Atul Nagar Warje Pune Maharashtra India" }, "geometry": { "type": "Point", "coordinates": [ 73.7934471, 18.4858787 ] } },
{ "type": "Feature", "properties": { "ccd_name": "Branch of tree / complete tree cutting", "com_location": "Near BANK OF MAHARASHTRA & SANJAY GHODAWAT ACADEMY.BAVDHAN BR, Pune, Maharashtra" }, "geometry": { "type": "Point", "coordinates": [ 73.7719893, 18.5118289 ] } },
{ "type": "Feature", "properties": { "ccd_name": "Lifiting of tree cutting", "com_location": "viThThala beladare shALe samora,  datta nivAsa sosAyaTI datta nagara jAMbhuLa vADI roDa, Pune, Maharashtra" }, "geometry": { "type": "Point", "coordinates": [ 73.852304, 18.451527 ] } },
{ "type": "Feature", "properties": { "ccd_name": "Lifiting of tree cutting", "com_location": " Park Majestique Wadachi Wadi Road Undri Pune Maharashtra India" }, "geometry": { "type": "Point", "coordinates": [ 73.920564, 18.4464251 ] } },
{ "type": "Feature", "properties": { "ccd_name": "Branch of tree / complete tree cutting", "com_location": "Vaishnavi Heights 32/3/1 C building Ground Floor Phale Nagar Ambegon Rd Pune 411046" }, "geometry": { "type": "Point", "coordinates": [ 73.8493505, 18.4530252 ] } },
{ "type": "Feature", "properties": { "ccd_name": "Branch of tree / complete tree cutting", "com_location": "Survey no.21/2 suyoga baMgalA.gaNesha kRRipA society. sainika vADI vaDagAva sherI puNe 14." }, "geometry": { "type": "Point", "coordinates": [ 73.9119182, 18.5595501 ] } },
{ "type": "Feature", "properties": { "ccd_name": "Branch of tree / complete tree cutting", "com_location": "Band garden burning ghat road pune " }, "geometry": { "type": "Point", "coordinates": [ 73.8892521, 18.542204 ] } },
{ "type": "Feature", "properties": { "ccd_name": "Lifiting of tree cutting", "com_location": " naTarAja sosAyaTI karvenagara\r\n shAradA seMTara samorIla paryAyI rastyAvara , Pune, Maharashtra" }, "geometry": { "type": "Point", "coordinates": [ 73.9531189, 18.5646495 ] } },
{ "type": "Feature", "properties": { "ccd_name": "Branch of tree / complete tree cutting", "com_location": "Shreenath residency 2 sahkari grharachna maryadit, serve no 26,hissa no 1,plot no18,munjaba vasti dhanori, pune 411015." }, "geometry": { "type": "Point", "coordinates": [ 73.8962994, 18.5865887 ] } },
{ "type": "Feature", "properties": { "ccd_name": "Branch of tree / complete tree cutting", "com_location": "karvanagara yethIla pAlababuvA samAdhI maMdIrA mAgILa mAgI la gallI , Pune, Maharashtra" }, "geometry": { "type": "Point", "coordinates": [ 73.8786239, 18.5246091 ] } },
{ "type": "Feature", "properties": { "ccd_name": "Others (Garden-Civil)", "com_location": "Bhimsen Joshi garden at right Bhusari colony,, Pune, Maharashtra" }, "geometry": { "type": "Point", "coordinates": [ 73.7912656, 18.5112625 ] } },
{ "type": "Feature", "properties": { "ccd_name": "Other (Tree Authority)", "com_location": "pari tower to bhumkar chowk kalubai mandir narhe pune " }, "geometry": { "type": "Point", "coordinates": [ 73.833382, 18.449666 ] } },
{ "type": "Feature", "properties": { "ccd_name": "Branch of tree / complete tree cutting", "com_location": "aniketa sahakArI gRRihanirmANa saMsthA bhAga 1, bibavevADI rastA, puNe -411037 " }, "geometry": { "type": "Point", "coordinates": [ 73.8610223, 18.4819771 ] } },
{ "type": "Feature", "properties": { "ccd_name": "Lifiting of tree cutting", "com_location": "devagirI bilDiMga,kotharUDa iMDyasTrIala eriyA ,kariShmA sosAyaTI chyA bAjUlA,kotharUDa ,puNe . 411038" }, "geometry": { "type": "Point", "coordinates": [ 73.8229386, 18.5033094 ] } },
{ "type": "Feature", "properties": { "ccd_name": "Others (Garden) (HO)", "com_location": "kamalA neharU udyAna ( vimAna  ), Pune, Maharashtra" }, "geometry": { "type": "Point", "coordinates": [ 73.8344134, 18.5170408 ] } },
{ "type": "Feature", "properties": { "ccd_name": "Branch of tree / complete tree cutting", "com_location": "pattA: sarve naMbara 140/2, maMgalamUrtI ka mpleksa,  sahyAdrI na.cshanala skUla chyA bAjUlA, vAraje mALavADI, puNe 411058" }, "geometry": { "type": "Point", "coordinates": [ 73.8020821, 18.4802857 ] } },
{ "type": "Feature", "properties": { "ccd_name": "Other (Tree Authority)", "com_location": "Bavdhan. Lane 8., Pune, Maharashtra" }, "geometry": { "type": "Point", "coordinates": [ 73.7724484, 18.5166414 ] } },
{ "type": "Feature", "properties": { "ccd_name": "Lifiting of tree cutting", "com_location": "vighnahartA ka lanI, dhaneshvara shALe javaLa, dhAnorI puNe 15" }, "geometry": { "type": "Point", "coordinates": [ 73.896851, 18.5967587 ] } },
{ "type": "Feature", "properties": { "ccd_name": "Other (Tree Authority)", "com_location": "Plot No. 18 Ganeshkrupa Housing Society Survey No. 21/2, Sainikwadi Opposite Vidyankur school\t, Pune, Maharashtra" }, "geometry": { "type": "Point", "coordinates": [ 73.9159302, 18.552544 ] } },
{ "type": "Feature", "properties": { "ccd_name": "Branch of tree / complete tree cutting", "com_location": "168/2,lane no a/3b near bajranga sweet, gurudhawara colony lohegaon pune 411047." }, "geometry": { "type": "Point", "coordinates": [ 73.9548198, 18.5751423 ] } },
{ "type": "Feature", "properties": { "ccd_name": "Lifiting of tree cutting", "com_location": "krish ambience building , preet nagar , survey no 45 , sangharsh chowk , near agarwal hospital , chandan nagar , pune 411014" }, "geometry": { "type": "Point", "coordinates": [ 73.9300079, 18.5588732 ] } },
{ "type": "Feature", "properties": { "ccd_name": "Lifiting of tree cutting", "com_location": "siddhivinAyaka sosAyaTI karve putaLyA javaLa kotharUDa puNe 38" }, "geometry": { "type": "Point", "coordinates": [ 73.8786239, 18.5246091 ] } },
{ "type": "Feature", "properties": { "ccd_name": "Other (Tree Authority)", "com_location": "Location : A2/17 Rambag Colony Sadashiv Peth Pune 411030." }, "geometry": { "type": "Point", "coordinates": [ 73.8452408, 18.5076755 ] } },
{ "type": "Feature", "properties": { "ccd_name": "Branch of tree / complete tree cutting", "com_location": "\r\n\r\nAddress - S.No. 44/1, Shivshakti Nagar Lane no 1, Near Hanuman Mandir, Kondhwa Khurd, Pune 411048\r\n\r\nThanks,\r\nSantosh Talla" }, "geometry": { "type": "Point", "coordinates": [ 73.8828295, 18.4733946 ] } },
{ "type": "Feature", "properties": { "ccd_name": "Other (Tree Authority)", "com_location": "Shop No 11, Hadapsar Industrial Estate, Hadapsar, Pune, Maharashtra 411028" }, "geometry": { "type": "Point", "coordinates": [ 73.9418603, 18.496913 ] } },
{ "type": "Feature", "properties": { "ccd_name": "Branch of tree / complete tree cutting", "com_location": "58, mArutI maMdira AjhAda vyAyAma maMDaLa shivAjInagara junA tophakhAnA yethIla , Pune, Maharashtra" }, "geometry": { "type": "Point", "coordinates": [ 73.855506, 18.5250558 ] } },
{ "type": "Feature", "properties": { "ccd_name": "Permission to Trim Branches in private Society / Land", "com_location": "Silver Spring Mansarovar Panchawati Pashan Pune Maharashtra India" }, "geometry": { "type": "Point", "coordinates": [ 73.8101779, 18.531978 ] } },
{ "type": "Feature", "properties": { "ccd_name": "Other (Tree Authority)", "com_location": "vArDa naMbara 35 luMkaDa shALA te taLajAI maMdira roDavarIla , Pune, Maharashtra" }, "geometry": { "type": "Point", "coordinates": [ 73.8389279, 18.4709666 ] } },
{ "type": "Feature", "properties": { "ccd_name": "Branch of tree / complete tree cutting", "com_location": "sr no 22, tulja bhawani mandhir balji nagar dhankawadi pune 411043." }, "geometry": { "type": "Point", "coordinates": [ 73.8763168, 18.4634575 ] } },
{ "type": "Feature", "properties": { "ccd_name": "Other (Tree Authority)", "com_location": " yelalevADI te khaDimashina kaDe jANAre DAvyA bAjUlA,pune" }, "geometry": { "type": "Point", "coordinates": [ 73.8786239, 18.5246091 ] } },
{ "type": "Feature", "properties": { "ccd_name": "Branch of tree / complete tree cutting", "com_location": "at Indranagari\r\nDahanukar Colony, Lane no. 15\r\nKothrud, Pune - 411038" }, "geometry": { "type": "Point", "coordinates": [ 73.8095762, 18.4946945 ] } },
{ "type": "Feature", "properties": { "ccd_name": "Other (Tree Authority)", "com_location": "43/67,navasahyAdrI sosAyaTI, akShaya, karvenagara, puNe 411052,tAthavaDe udyAna chyA puDhe, anurekhA sosAyaTI borDa samora chyA gallIta Ata yeNe " }, "geometry": { "type": "Point", "coordinates": [ 73.8279956, 18.4932604 ] } },
{ "type": "Feature", "properties": { "ccd_name": "Branch of tree / complete tree cutting", "com_location": "gulaTekaDI DAyasa pla Ta ka.cna la shejArI sAIbAbA maMdira shejArI, Pune, Maharashtra" }, "geometry": { "type": "Point", "coordinates": [ 73.7799243, 18.4643011 ] } },
{ "type": "Feature", "properties": { "ccd_name": "Other (Tree Authority)", "com_location": "Verma apartment near bmj vishwa apartment near kaka pawar talim Jambhulwadi pune 411046 " }, "geometry": { "type": "Point", "coordinates": [ 73.8493266, 18.4346813 ] } },
{ "type": "Feature", "properties": { "ccd_name": "Lifiting of tree cutting", "com_location": "Near central building tingrenagar bharat Sawant petrol pump lane pune 15" }, "geometry": { "type": "Point", "coordinates": [ 73.8721827, 18.5248441 ] } },
{ "type": "Feature", "properties": { "ccd_name": "Permission to Trim Branches in private Society / Land", "com_location": "abhijita apArTameMTa, siplA phauMDeshana javaLa, \r\nvAraje, puNe   4110058" }, "geometry": { "type": "Point", "coordinates": [ 73.796834, 18.4864727 ] } },
{ "type": "Feature", "properties": { "ccd_name": "Branch of tree / complete tree cutting", "com_location": "madara teresA nagara yeravaDA puNe 06\r\n" }, "geometry": { "type": "Point", "coordinates": [ 73.879711, 18.5529226 ] } },
{ "type": "Feature", "properties": { "ccd_name": "Branch of tree / complete tree cutting", "com_location": "    chALa naMbara 53 lakShmInagara parvatI pANyAchyA TAkI samora puNe.9" }, "geometry": { "type": "Point", "coordinates": [ 73.8501909, 18.4951743 ] } },
{ "type": "Feature", "properties": { "ccd_name": "Branch of tree / complete tree cutting", "com_location": "Rajiv Nagar North,Lane no. 7, Opposite Mhada Colony,Viman Nagar,Pune 411014" }, "geometry": { "type": "Point", "coordinates": [ 73.909446, 18.570767 ] } },
{ "type": "Feature", "properties": { "ccd_name": "Lifiting of tree cutting", "com_location": "Sr no-124/01 Row house no-11, eastern Paradise , baner road, near by Hotel amrita,, Pune, Maharashtra" }, "geometry": { "type": "Point", "coordinates": [ 73.778413, 18.564832 ] } },
{ "type": "Feature", "properties": { "ccd_name": "Others (Garden) (HO)", "com_location": "senAdatta polIsa chaukI te mhAtre pula , Pune, Maharashtra" }, "geometry": { "type": "Point", "coordinates": [ 73.7955797, 18.5055738 ] } },
{ "type": "Feature", "properties": { "ccd_name": "Branch of tree / complete tree cutting", "com_location": "Katraj Pune Maharashtra India" }, "geometry": { "type": "Point", "coordinates": [ 73.865238, 18.4529322 ] } },
{ "type": "Feature", "properties": { "ccd_name": "Branch of tree / complete tree cutting", "com_location": "Pragati Garden Side , Vidyanagar,Dhanori, Pune, Maharashtra" }, "geometry": { "type": "Point", "coordinates": [ 73.89344, 18.5802498 ] } },
{ "type": "Feature", "properties": { "ccd_name": "Branch of tree / complete tree cutting", "com_location": "senAdatta peTha, vaikuMTha roDa gurudeva  To sarvisa, Pune, Maharashtra" }, "geometry": { "type": "Point", "coordinates": [ 73.8407008, 18.5076767 ] } },
{ "type": "Feature", "properties": { "ccd_name": "Branch of tree / complete tree cutting", "com_location": "Canal Road 411004, Pune, Maharashtra" }, "geometry": { "type": "Point", "coordinates": [ 73.8318405, 18.5168817 ] } },
{ "type": "Feature", "properties": { "ccd_name": "Cleaning of Garden (HO)", "com_location": "1/2/A/11, Dnydeep Colony, Hingne Budrukh, Karve Nagar, Pune, Maharashtra 411052, India" }, "geometry": { "type": "Point", "coordinates": [ 73.822677612304688, 18.490123748779297 ] } },
{ "type": "Feature", "properties": { "ccd_name": "Branch of tree / complete tree cutting", "com_location": "Matrubodh building, Plot 106/5, CTS 65/5, Prabhat Road Lane 15, Off Law College Road, Opp. Agashe School, Erandwane, Pune 411004" }, "geometry": { "type": "Point", "coordinates": [ 73.8334037, 18.5143957 ] } },
{ "type": "Feature", "properties": { "ccd_name": "Branch of tree / complete tree cutting", "com_location": "shrI ha spiTala, ena DI e roDa, esa bI Aya ba.Nke javaLa, gaNapatI mAthA, vAraje, puNe 411058" }, "geometry": { "type": "Point", "coordinates": [ 73.7953256, 18.4732611 ] } },
{ "type": "Feature", "properties": { "ccd_name": "Other (Tree Authority)", "com_location": "siMhagaDa ka leja iMjiniariMga AMbegAva budruka parisara charavaDa vastI ajiMkyatArA sosAyaTI roDa,  vaDagAva budruka polIsa sTeshana pAsUna, ajiMkyatArA sosAyaTI paryaMta , Pune, Maharashtra" }, "geometry": { "type": "Point", "coordinates": [ 73.9531189, 18.5646495 ] } },
{ "type": "Feature", "properties": { "ccd_name": "Lifiting of tree cutting", "com_location": "shrivardhan, plot no 75, subhash nagar, vishrant wadi, pune 411015." }, "geometry": { "type": "Point", "coordinates": [ 73.8863775, 18.5767196 ] } },
{ "type": "Feature", "properties": { "ccd_name": "Branch of tree / complete tree cutting", "com_location": "sAIkRRipA sosAyaTIta,bhAratI ha spiTala samora rAma maMdIra rastyAvara plot no 71-72javaLa, Pune, Maharashtra" }, "geometry": { "type": "Point", "coordinates": [ 73.8786239, 18.5246091 ] } },
{ "type": "Feature", "properties": { "ccd_name": "Branch of tree / complete tree cutting", "com_location": "Choudhari Wasti Ashoka Nagar Kharadi Pune Maharashtra India" }, "geometry": { "type": "Point", "coordinates": [ 73.9416492, 18.5571141 ] } },
{ "type": "Feature", "properties": { "ccd_name": "Branch of tree / complete tree cutting", "com_location": "GANGADEEP APT. FLAT NO 101 (GARDEN FLAT)  \r\n1098/ 6A MODEL COLONY, OPP. MODEL COLONY POST OFFICE\r\nPUNE 411016" }, "geometry": { "type": "Point", "coordinates": [ 73.841263, 18.528835 ] } },
{ "type": "Feature", "properties": { "ccd_name": "Lifiting of tree cutting", "com_location": "sr no 61/3, beldare ware housing, podar school front, brahma hotel ambegaon budruk pune 411046." }, "geometry": { "type": "Point", "coordinates": [ 73.8339936, 18.4561543 ] } },
{ "type": "Feature", "properties": { "ccd_name": "Branch of tree / complete tree cutting", "com_location": " kumAra sosAyaTI bhekarAInagara gaMgAnagara yethIla kumAra madhIla , Pune, Maharashtra" }, "geometry": { "type": "Point", "coordinates": [ 73.9531189, 18.5646495 ] } },
{ "type": "Feature", "properties": { "ccd_name": "Branch of tree / complete tree cutting", "com_location": "trikoNI pArka, sAvarakara maidAnAsamamoracha ujavI bhusArI, Pune, Maharashtra" }, "geometry": { "type": "Point", "coordinates": [ 73.7948462, 18.5089646 ] } },
{ "type": "Feature", "properties": { "ccd_name": "Others (Garden) (HO)", "com_location": "Bhairavnath Udyan, Munurwar Housing Society, Vadgaon Sheri, Pune - 411 014" }, "geometry": { "type": "Point", "coordinates": [ 73.924569, 18.5442197 ] } },
{ "type": "Feature", "properties": { "ccd_name": "Branch of tree / complete tree cutting", "com_location": "Nandan prospera S no 22, Baner Rd, Laxman Nagar, Balewadi, Pune, Maharashtra 411045" }, "geometry": { "type": "Point", "coordinates": [ 73.7692976, 18.5698886 ] } },
{ "type": "Feature", "properties": { "ccd_name": "Other (Tree Authority)", "com_location": "Survey No. 169, 1, Chondhe Patil Nagar Rd, Parihar Chowk, Ward No. 8, Aundh Gaon, Aundh, Pune, Maharashtra 411067" }, "geometry": { "type": "Point", "coordinates": [ 73.8133486, 18.5641841 ] } },
{ "type": "Feature", "properties": { "ccd_name": "Branch of tree / complete tree cutting", "com_location": "a bA sadana kAkaDe vADA vAnavaDI gAvaM apaMga shALechyA mAge , Pune, Maharashtra" }, "geometry": { "type": "Point", "coordinates": [ 73.8028276, 18.5642859 ] } },
{ "type": "Feature", "properties": { "ccd_name": "Other (Tree Authority)", "com_location": "308 Dr Homi Bhabha Road latana gardens, bavdhan , Pune, Maharashtra" }, "geometry": { "type": "Point", "coordinates": [ 73.7813923, 18.5156465 ] } },
{ "type": "Feature", "properties": { "ccd_name": "Lifiting of tree cutting", "com_location": "Sassoon class 3 quarter \r\nOpp SBI treasury bank and collector office somwar peth Pune 1" }, "geometry": { "type": "Point", "coordinates": [ 73.8692195, 18.5227682 ] } },
{ "type": "Feature", "properties": { "ccd_name": "Lifiting of tree cutting", "com_location": "tukAI nagara, aNNAbhAU sAThe chaukAjavaLIla j~nAnasAdhanA shALemAge asalelyA AmachyA AdIshrI apArTameMTachyA geTa samora , Pune, Maharashtra" }, "geometry": { "type": "Point", "coordinates": [ 73.824331, 18.4775868 ] } },
{ "type": "Feature", "properties": { "ccd_name": "Branch of tree / complete tree cutting", "com_location": "Adress... Sanjay B.Adhav. 729.Guruwar peth.Behind Umed sweets. Rashrabhushan chawk. SHIVAJI ROAD. PUNE.42.\t" }, "geometry": { "type": "Point", "coordinates": [ 73.8595678, 18.5032618 ] } },
{ "type": "Feature", "properties": { "ccd_name": "Other (Tree Authority)", "com_location": "mohaka bilDiMga samora,\r\ngallI kra 8, DahANUkara ka lanI puNe" }, "geometry": { "type": "Point", "coordinates": [ 73.8786239, 18.5246091 ] } },
{ "type": "Feature", "properties": { "ccd_name": "Branch of tree / complete tree cutting", "com_location": "yuniyana ba.Nka  pha iMDiyA . chyA samora paraMparA ha Tela javaLa ghole roDa puNe 4 " }, "geometry": { "type": "Point", "coordinates": [ 73.847713, 18.523147 ] } },
{ "type": "Feature", "properties": { "ccd_name": "Branch of tree / complete tree cutting", "com_location": "Address - shop No - 1, karvir bungalow, Jay shankar Society, opposite shinde high school, golvalkar guruji marga, sahakar Nagar - 411009, Pune, Maharashtra" }, "geometry": { "type": "Point", "coordinates": [ 73.850114, 18.4861053 ] } },
{ "type": "Feature", "properties": { "ccd_name": "Repairing of playing equipments in garden", "com_location": "svAmI vivekAnaMda gArDana koMDhavA budruka,, Pune, Maharashtra" }, "geometry": { "type": "Point", "coordinates": [ 73.8754258, 18.4504283 ] } },
{ "type": "Feature", "properties": { "ccd_name": "Branch of tree / complete tree cutting", "com_location": "CHANDRA HEIGHTS,KONDHWA KHADI MACHINE CHOWK, KATRAJ ROAD VISHWA HOTEL RAJ HAIR SALOON PUNE 411048." }, "geometry": { "type": "Point", "coordinates": [ 73.889955, 18.452679 ] } },
{ "type": "Feature", "properties": { "ccd_name": "Others (Garden) (HO)", "com_location": "sArasabAga , Pune, Maharashtra" }, "geometry": { "type": "Point", "coordinates": [ 73.8786239, 18.5246091 ] } },
{ "type": "Feature", "properties": { "ccd_name": "Cleaning of Garden (HO)", "com_location": " Indo breman circle at Ganeshkhind road. , Pune, Maharashtra" }, "geometry": { "type": "Point", "coordinates": [ 73.813841, 18.56199 ] } },
{ "type": "Feature", "properties": { "ccd_name": "Other (Tree Authority)", "com_location": "Flat No. 8, B9 Dattatray Appartment, Survey No. 46A/1, Kasturba Housing Society, Vishrantwadi, Pune - 411015" }, "geometry": { "type": "Point", "coordinates": [ 73.8808651, 18.5729975 ] } },
{ "type": "Feature", "properties": { "ccd_name": "Branch of tree / complete tree cutting", "com_location": "pattA \r\n336 shukravAra peTha ,shiMde AlI chauka,pune " }, "geometry": { "type": "Point", "coordinates": [ 73.8565366, 18.5106563 ] } },
{ "type": "Feature", "properties": { "ccd_name": "Branch of tree / complete tree cutting", "com_location": "Khese Park Lohegaon Pune Maharashtra India" }, "geometry": { "type": "Point", "coordinates": [ 73.9109977, 18.5907515 ] } },
{ "type": "Feature", "properties": { "ccd_name": "Other (Tree Authority)", "com_location": "vaDagAva sherI gArDana, lohagAva dAdAchI vastI va itara anya ThikANI roDavara , Pune, Maharashtra" }, "geometry": { "type": "Point", "coordinates": [ 73.9352473, 18.592143 ] } },
{ "type": "Feature", "properties": { "ccd_name": "Others (Garden) (HO)", "com_location": " small park exactly opposite to Jupiter Hospital, Pune, Maharashtra" }, "geometry": { "type": "Point", "coordinates": [ 73.785962, 18.5657127 ] } },
{ "type": "Feature", "properties": { "ccd_name": "Branch of tree / complete tree cutting", "com_location": "1074 Tilak Road, Near Swargate, Opp Bharat Petrol Pump. Beside Raymond Showroom, Pune, Maharashtra" }, "geometry": { "type": "Point", "coordinates": [ 73.8571715, 18.5025534 ] } },
{ "type": "Feature", "properties": { "ccd_name": "Branch of tree / complete tree cutting", "com_location": "ashoka bhoITe nagara,bopoDI kirloskara kaMpanI, Pune, Maharashtra" }, "geometry": { "type": "Point", "coordinates": [ 73.8426895, 18.5691421 ] } },
{ "type": "Feature", "properties": { "ccd_name": "Others (Garden) (HO)", "com_location": "11/1/60, Padmachhaya Housing Society, Taljai Mata Vasahat, Dhankawadi, Pune, Maharashtra 411009, India" }, "geometry": { "type": "Point", "coordinates": [ 73.8534869, 18.4707719 ] } },
{ "type": "Feature", "properties": { "ccd_name": "Branch of tree / complete tree cutting", "com_location": "kasturba housing society, plot no d 19,Vishrantwadi alandi road Pune 411015." }, "geometry": { "type": "Point", "coordinates": [ 73.8781131, 18.5728677 ] } },
{ "type": "Feature", "properties": { "ccd_name": "Branch of tree / complete tree cutting", "com_location": "Shivaprasad Housing Society Dattawadi Pune Maharashtra India" }, "geometry": { "type": "Point", "coordinates": [ 73.8415388, 18.5000774 ] } },
{ "type": "Feature", "properties": { "ccd_name": "Branch of tree / complete tree cutting", "com_location": "pla Ta naMbara 57, suvAsa baMgalA, shailesha sosAyaTI, shailesha sabhAgRRiha mAge, AlaMkara polisa chaukI javaLa, karve nagara puNe-411052." }, "geometry": { "type": "Point", "coordinates": [ 73.8119094, 18.4929707 ] } },
{ "type": "Feature", "properties": { "ccd_name": "Lifiting of tree cutting", "com_location": "madhusaMchaya sosAyaTI tAThavaDe udyAnA javaLIla roDavara , Pune, Maharashtra" }, "geometry": { "type": "Point", "coordinates": [ 73.8273627, 18.4932423 ] } },
{ "type": "Feature", "properties": { "ccd_name": "Branch of tree / complete tree cutting", "com_location": " Arogya koThI samora, bhArata ka lanI Karvenagar, Pune, Maharashtra" }, "geometry": { "type": "Point", "coordinates": [ 73.8168295, 18.4656064 ] } },
{ "type": "Feature", "properties": { "ccd_name": "Branch of tree / complete tree cutting", "com_location": "111 gaNesha peTha shekha ha spiTala shejArI rAhata asUna 112 va 111 yethe,pune" }, "geometry": { "type": "Point", "coordinates": [ 73.8786239, 18.5246091 ] } },
{ "type": "Feature", "properties": { "ccd_name": "Others (Garden) (HO)", "com_location": " mukuMdarAva AMbeDakara udyAna  mAdhava nagara Dhanori  , Pune, Maharashtra" }, "geometry": { "type": "Point", "coordinates": [ 73.9016534, 18.5983221 ] } },
{ "type": "Feature", "properties": { "ccd_name": "Branch of tree / complete tree cutting", "com_location": "NIBM Road Cloud 9 To Mohammadwadi Pune " }, "geometry": { "type": "Point", "coordinates": [ 73.9163246, 18.4751462 ] } },
{ "type": "Feature", "properties": { "ccd_name": "Branch of tree / complete tree cutting", "com_location": "kalyANInagara \r\nmArkesa ha Tela samorIla, Pune, Maharashtra" }, "geometry": { "type": "Point", "coordinates": [ 73.903951, 18.5462313 ] } },
{ "type": "Feature", "properties": { "ccd_name": "Other (Tree Authority)", "com_location": "Nearby sakal press office .nd bhausaheb ragari ganpati,PUNE." }, "geometry": { "type": "Point", "coordinates": [ 73.8786239, 18.5246091 ] } },
{ "type": "Feature", "properties": { "ccd_name": "Branch of tree / complete tree cutting", "com_location": "Chintamani Apartments, Hingane khurd, Ashirwad Hospital chowk, Pune 411051" }, "geometry": { "type": "Point", "coordinates": [ 73.8281779, 18.4797114 ] } },
{ "type": "Feature", "properties": { "ccd_name": "Others (Garden) (HO)", "com_location": " trimUrtI chauka, bhAratI vidyApITha, puNe shrI ChatrapatI saMbhAjI mahArAja udyAnAta" }, "geometry": { "type": "Point", "coordinates": [ 73.843219600000012, 18.5117869 ] } },
{ "type": "Feature", "properties": { "ccd_name": "Lifiting of tree cutting", "com_location": " Narayani bunglow, joshi sweets, Bharat Kunj Soc.1, Pune, Maharashtra" }, "geometry": { "type": "Point", "coordinates": [ 73.8269885, 18.49974 ] } },
{ "type": "Feature", "properties": { "ccd_name": "Others (Garden) (HO)", "com_location": "90/7, Veerbhadra Nagar, Baner, Pune, Maharashtra 411045, India" }, "geometry": { "type": "Point", "coordinates": [ 73.770748356635011, 18.560449902560894 ] } },
{ "type": "Feature", "properties": { "ccd_name": "Others (Garden) (HO)", "com_location": "27/B, Rambaug Colony, Kothrud, Pune, Maharashtra 411038, India" }, "geometry": { "type": "Point", "coordinates": [ 73.8129444, 18.5098013 ] } },
{ "type": "Feature", "properties": { "ccd_name": "Branch of tree / complete tree cutting", "com_location": "Location prAiDa hAusa bilDiMga javaLa anagaLa pArka te shreyasa apArTameMTa roDa chAtUrshuraMgI maMdira javaLIla roDa lAgata june jhADe,, Pune, Maharashtra" }, "geometry": { "type": "Point", "coordinates": [ 73.8786239, 18.5246091 ] } },
{ "type": "Feature", "properties": { "ccd_name": "Others (Garden) (HO)", "com_location": "Pradnyashree Apartment, 53/2A, Mahatma Gandhi Society Rd, Mangaldham Society, Mahatma Society, Kothrud, Pune, Maharashtra 411029, India" }, "geometry": { "type": "Point", "coordinates": [ 73.7983599, 18.5009864 ] } },
{ "type": "Feature", "properties": { "ccd_name": "Branch of tree / complete tree cutting", "com_location": "Shivaji Nagar Pune Maharashtra India" }, "geometry": { "type": "Point", "coordinates": [ 73.8445617, 18.5314419 ] } },
{ "type": "Feature", "properties": { "ccd_name": "Branch of tree / complete tree cutting", "com_location": "Sno 234/235, Bungalow no 135, Sanjay lane no 4A Air Port Road Pune 411032" }, "geometry": { "type": "Point", "coordinates": [ 73.907902, 18.564605 ] } },
{ "type": "Feature", "properties": { "ccd_name": "Other (Tree Authority)", "com_location": "Map :- Sun City Rd, Nimbaj Nagar, Anand Nagar, Pune, Maharashtra 411051\r\n\r\n18 28'45.8\"N 73 49'16.2\"E\r\n" }, "geometry": { "type": "Point", "coordinates": [ 73.8194328, 18.4773592 ] } },
{ "type": "Feature", "properties": { "ccd_name": "Branch of tree / complete tree cutting", "com_location": "survey number 39/3, plot no 14\r\nNakshatra Banglow \r\nYogi park baner, Pune, Maharashtra" }, "geometry": { "type": "Point", "coordinates": [ 73.7744934, 18.5526813 ] } },
{ "type": "Feature", "properties": { "ccd_name": "Other (Tree Authority)", "com_location": "Sharad Pandit Path, Sadashiv Peth, Pune, Maharashtra 411030" }, "geometry": { "type": "Point", "coordinates": [ 73.8450249, 18.5084105 ] } },
{ "type": "Feature", "properties": { "ccd_name": "Branch of tree / complete tree cutting", "com_location": "shAhU ka lanI lena naM. 1 , aTala vhijana akAdamI,karvenagara, Pune, Maharashtra" }, "geometry": { "type": "Point", "coordinates": [ 73.8447708, 18.5127993 ] } },
{ "type": "Feature", "properties": { "ccd_name": "Other (Tree Authority)", "com_location": "Plot no.14 bhubaneshwar society,pashan aundh road,near bank of india,pune 411008" }, "geometry": { "type": "Point", "coordinates": [ 73.8031335, 18.5601649 ] } },
{ "type": "Feature", "properties": { "ccd_name": "Other (Tree Authority)", "com_location": "outside Jashn Hotel at Salunkhe Vihar road, Next to the rosary school..., Pune, Maharashtra" }, "geometry": { "type": "Point", "coordinates": [ 73.8955304, 18.4824543 ] } },
{ "type": "Feature", "properties": { "ccd_name": "Branch of tree / complete tree cutting", "com_location": "RRituraMga bilDiMga shelAra tvs  dukAna,araNyeshvara roDa , Pune, Maharashtra" }, "geometry": { "type": "Point", "coordinates": [ 73.8566997, 18.4859871 ] } },
{ "type": "Feature", "properties": { "ccd_name": "Branch of tree / complete tree cutting", "com_location": "VANAZ STATION, BEHIND SUBWAY, HOTEL KASTURI KOTHRUD PUNE 411038." }, "geometry": { "type": "Point", "coordinates": [ 73.8052511, 18.5071294 ] } },
{ "type": "Feature", "properties": { "ccd_name": "Maintenance of Garden (Horticulture Related) (HO)", "com_location": "CRRV+47X, Pune, Maharashtra 411046, India" }, "geometry": { "type": "Point", "coordinates": [ 73.8432388, 18.4402483 ] } },
{ "type": "Feature", "properties": { "ccd_name": "Branch of tree / complete tree cutting", "com_location": "310 ghorapaDI peTha rAmakRRiShNa hAUsiMga sosAyaTI chyA somorIla manapAchyA 9nabara ka lanI madhye,bilDiMga naMbara 3., Pune, Maharashtra" }, "geometry": { "type": "Point", "coordinates": [ 73.9531189, 18.5646495 ] } },
{ "type": "Feature", "properties": { "ccd_name": "Lifiting of tree cutting", "com_location": "kanchan ganga society opposite kalyan bhel bibwewadi pune 411037." }, "geometry": { "type": "Point", "coordinates": [ 73.8668383, 18.4805094 ] } },
{ "type": "Feature", "properties": { "ccd_name": "Lifiting of tree cutting", "com_location": "plot no 39 vaibhav society behind canara bank bibewadi pune 411037" }, "geometry": { "type": "Point", "coordinates": [ 73.8639263, 18.4710873 ] } },
{ "type": "Feature", "properties": { "ccd_name": "Other (Tree Authority)", "com_location": "MHADA OFFICE CASH PAYMENT, Pune, Maharashtra" }, "geometry": { "type": "Point", "coordinates": [ 73.8026582, 18.6077547 ] } },
{ "type": "Feature", "properties": { "ccd_name": "Branch of tree / complete tree cutting", "com_location": "2/108 CPWD Colony Road 15 Near Ranka Hospital Mukund Nagar Pune 411037" }, "geometry": { "type": "Point", "coordinates": [ 73.8617867, 18.4949949 ] } },
{ "type": "Feature", "properties": { "ccd_name": "Maintenance of Garden (Horticulture Related) (HO)", "com_location": " yeravaDA prabhAga kraM 9 Da  chimA gArDana , Pune, Maharashtra" }, "geometry": { "type": "Point", "coordinates": [ 73.879711, 18.5529226 ] } },
{ "type": "Feature", "properties": { "ccd_name": "Cleaning of Garden (HO)", "com_location": "Shree Bhagwati Suvarn, Shop. 2A &2B opp. Beverly Hill Soc, Pan Card Club Rd, Baner, Pune, Maharashtra 411045, India" }, "geometry": { "type": "Point", "coordinates": [ 73.7744146, 18.5581219 ] } },
{ "type": "Feature", "properties": { "ccd_name": "Branch of tree / complete tree cutting", "com_location": "Location is Ranakpur Darshan Society Building no. 24, tank road, near Mamta Hospital, yerwada, pune -411006" }, "geometry": { "type": "Point", "coordinates": [ 73.8787525, 18.5672414 ] } },
{ "type": "Feature", "properties": { "ccd_name": "Lifiting of tree cutting", "com_location": "Samarth Society Near Gulmohor Apartment Warje Pune 58 Near Green Bakery" }, "geometry": { "type": "Point", "coordinates": [ 73.8050848, 18.4841918 ] } },
{ "type": "Feature", "properties": { "ccd_name": "Repairing of Jogging Track in garden", "com_location": "puNe ma.na.pA. udyAna vibhAga, sadU shiMde grAuMDa, araNyeshvara javaLa, puNe 411009 yethIla puruSha opana jima yethIla " }, "geometry": { "type": "Point", "coordinates": [ 73.8786239, 18.5246091 ] } },
{ "type": "Feature", "properties": { "ccd_name": "Branch of tree / complete tree cutting", "com_location": "Anandi Laxmi Apartments Society Bharatkunj  Erandwane Pune Maharashtra India" }, "geometry": { "type": "Point", "coordinates": [ 73.8246327, 18.5024001 ] } },
{ "type": "Feature", "properties": { "ccd_name": "Other (Tree Authority)", "com_location": "Map :- Shridharnagar, Vivek Nagar, Balaji Nagar, Pune, Maharashtra 411043" }, "geometry": { "type": "Point", "coordinates": [ 73.8620586, 18.4614983 ] } },
{ "type": "Feature", "properties": { "ccd_name": "Branch of tree / complete tree cutting", "com_location": "Sant Ramdas Cooperative Housing Society, Survey no. 55+56/2, Parvati, Near Annabhau Sathe Nagar, Pune" }, "geometry": { "type": "Point", "coordinates": [ 73.7080625, 18.5579375 ] } },
{ "type": "Feature", "properties": { "ccd_name": "Cleaning of Garden (HO)", "com_location": "White Building, S.No.61/1,End of, Lane No. 28, Bramha Avenue Society, Shivneri Nagar, Kondhwa, Pune, Maharashtra 411048, India" }, "geometry": { "type": "Point", "coordinates": [ 73.8861314, 18.4776045 ] } },
{ "type": "Feature", "properties": { "ccd_name": "Branch of tree / complete tree cutting", "com_location": "Rakshalekha Socity lane no 6 koregaon park pune -411001" }, "geometry": { "type": "Point", "coordinates": [ 73.8986031, 18.5365577 ] } },
{ "type": "Feature", "properties": { "ccd_name": "Lifiting of tree cutting", "com_location": "indraprashtha park building  kothrud pune " }, "geometry": { "type": "Point", "coordinates": [ 73.8194372, 18.5034135 ] } },
{ "type": "Feature", "properties": { "ccd_name": "Lifiting of tree cutting", "com_location": "Shantinagar koti Aalandi yerawada , Pune, Maharashtra" }, "geometry": { "type": "Point", "coordinates": [ 73.8786792, 18.5718418 ] } },
{ "type": "Feature", "properties": { "ccd_name": "Branch of tree / complete tree cutting", "com_location": "106/11 Sahakar Sadan Path\r\nNear Old Kalmadi School. Opposite Parashuram Bungalow. 411004, Pune, Maharashtra" }, "geometry": { "type": "Point", "coordinates": [ 73.8326479, 18.5125087 ] } },
{ "type": "Feature", "properties": { "ccd_name": "Lifiting of tree cutting", "com_location": "Amrit Ganga Society Near Shorbha Hotel Amrit Ganga Ground Varil Sinhagad Road Pune 51" }, "geometry": { "type": "Point", "coordinates": [ 73.824274, 18.47076 ] } },
{ "type": "Feature", "properties": { "ccd_name": "Other (Tree Authority)", "com_location": "During last weeks heavy rainfall, the tree had fallen on the road in our society premises. The trees, Pune, Maharashtra" }, "geometry": { "type": "Point", "coordinates": [ 73.8786239, 18.5246091 ] } },
{ "type": "Feature", "properties": { "ccd_name": "Branch of tree / complete tree cutting", "com_location": "Fatima nagar parmar nagar s building flat no 1175 phase 5 pune 13  " }, "geometry": { "type": "Point", "coordinates": [ 73.9010765, 18.5009379 ] } },
{ "type": "Feature", "properties": { "ccd_name": "Branch of tree / complete tree cutting", "com_location": "45 Anand Park lane 3 Aundh \r\n, Pune, Maharashtra" }, "geometry": { "type": "Point", "coordinates": [ 73.8067772, 18.5568206 ] } },
{ "type": "Feature", "properties": { "ccd_name": "Lifiting of tree cutting", "com_location": "Lane No 21\r\nOff B.G. Lonkar Road\r\nNibm Road \r\nKondhwa Khurd\r\nPune-411048" }, "geometry": { "type": "Point", "coordinates": [ 73.8961054, 18.4769553 ] } },
{ "type": "Feature", "properties": { "ccd_name": "Lifiting of tree cutting", "com_location": "neshanala pArka mAnika bAga siMhaga.Da roDa puNe 51" }, "geometry": { "type": "Point", "coordinates": [ 73.8154394, 18.5521567 ] } },
{ "type": "Feature", "properties": { "ccd_name": "Permission to Trim Branches in private Society / Land", "com_location": "Barsana Essencia sr no 50, lane 1, tilekar nagar, pin 411048, Pune, Maharashtra" }, "geometry": { "type": "Point", "coordinates": [ 73.880911, 18.4463994 ] } },
{ "type": "Feature", "properties": { "ccd_name": "Others (Garden-Civil)", "com_location": "sukhsagar nagar, mahavir garden ,dolphin chowk,bankar shale jawal bibewadi pune-411046" }, "geometry": { "type": "Point", "coordinates": [ 73.8701119, 18.4565105 ] } },
{ "type": "Feature", "properties": { "ccd_name": "Branch of tree / complete tree cutting", "com_location": "karve roDa shItala ha Tela chyA puDhe \"11 mayUra bilDiMga\" bATA shorUma chyA bAhera , Pune, Maharashtra" }, "geometry": { "type": "Point", "coordinates": [ 73.8786239, 18.5246091 ] } },
{ "type": "Feature", "properties": { "ccd_name": "Branch of tree / complete tree cutting", "com_location": "Pudumjee Palace Co Op Hsg. Society. CTS NOS: 813/814, BHAWANI PETH PUNE- 411042" }, "geometry": { "type": "Point", "coordinates": [ 73.8728166, 18.509552 ] } },
{ "type": "Feature", "properties": { "ccd_name": "Branch of tree / complete tree cutting", "com_location": "Sr no 46 beside tree house school infront of firdous classic pune 411048 " }, "geometry": { "type": "Point", "coordinates": [ 73.8839361, 18.4668461 ] } },
{ "type": "Feature", "properties": { "ccd_name": "Other (Tree Authority)", "com_location": " MAP FWH3+296 Pune, Maharashtra \r\nSun Shree C-2 \r\nNIBM road Pune-411048 \r\nNear Kondhwa \r\nOpp to IDBI bank NIBM road" }, "geometry": { "type": "Point", "coordinates": [ 73.8901756, 18.4791333 ] } },
{ "type": "Feature", "properties": { "ccd_name": "Branch of tree / complete tree cutting", "com_location": "viveka vAMjare, yuniTI hAITsa, mayura svITsa kA.crnara, bibavevADI roDa, bhArata jyotI basa sTa pa javaLa. \r\nrAjahaMsa dukAna samoracha jhADa., Pune, Maharashtra" }, "geometry": { "type": "Point", "coordinates": [ 73.8602178, 18.4829272 ] } },
{ "type": "Feature", "properties": { "ccd_name": "Branch of tree / complete tree cutting", "com_location": "Vadgaon Budruk Pune Maharashtra India" }, "geometry": { "type": "Point", "coordinates": [ 73.8246309, 18.4659813 ] } },
{ "type": "Feature", "properties": { "ccd_name": "Others (Garden) (HO)", "com_location": "shyAmA prasAda mukharjI udyAnAtIla, Pune, Maharashtra" }, "geometry": { "type": "Point", "coordinates": [ 73.8786239, 18.5246091 ] } },
{ "type": "Feature", "properties": { "ccd_name": "Others (Garden) (HO)", "com_location": "230/16, Shambhu Vihar Society, Nankude Vasti, Baner, Pune, Maharashtra 411007, India" }, "geometry": { "type": "Point", "coordinates": [ 73.798576962029003, 18.561639669108001 ] } },
{ "type": "Feature", "properties": { "ccd_name": "Branch of tree / complete tree cutting", "com_location": "sinhagad road manik baug moolchand mill pune 411041." }, "geometry": { "type": "Point", "coordinates": [ 73.8221989, 18.4746623 ] } },
{ "type": "Feature", "properties": { "ccd_name": "Others (Garden) (HO)", "com_location": "nAnA nAnI udyAna shanivAra peTha, Pune, Maharashtra" }, "geometry": { "type": "Point", "coordinates": [ 73.8521754, 18.5206934 ] } },
{ "type": "Feature", "properties": { "ccd_name": "Others (Garden) (HO)", "com_location": "somanAtha gArDana,somanAtha nagara,amejhonache mAge ,nagararoDa javaLa, Pune, Maharashtra" }, "geometry": { "type": "Point", "coordinates": [ 73.8786239, 18.5246091 ] } },
{ "type": "Feature", "properties": { "ccd_name": "Others (Garden) (HO)", "com_location": "  ashoka kAmaTe udyAna  vAnavaDI 40, Pune, Maharashtra" }, "geometry": { "type": "Point", "coordinates": [ 73.8291047, 18.5290383 ] } },