{
"type": "FeatureCollection",
"name": "2024_Water_Supply",
"crs": { "type": "name", "properties": { "name": "urn:ogc:def:crs:OGC:1.3:CRS84" } },
"features": [
{ "type": "Feature", "properties": { "ccd_name": "Others (Water Supply)", "com_location": "sa.na 570 AMbeDakara nagara mArkeTa yArDa yethIla,pune" }, "geometry": { "type": "Point", "coordinates": [ 73.8660125, 18.483847 ] } },
{ "type": "Feature", "properties": { "ccd_name": "Providing / repairing of storm water chamber and cover", "com_location": "AMbegAva khurda jAMbhuLavADI roDa somanAtha maMdirAsamora, Pune, Maharashtra" }, "geometry": { "type": "Point", "coordinates": [ 73.8786239, 18.5246091 ] } },
{ "type": "Feature", "properties": { "ccd_name": "Water Flowing / wastage", "com_location": "infrant of jilha Parishad office, Near SGS mall, Pune, Maharashtra" }, "geometry": { "type": "Point", "coordinates": [ 73.8773738, 18.5195803 ] } },
{ "type": "Feature", "properties": { "ccd_name": "Correction in water meter bill (Name/Address/Amount etc)", "com_location": "Pankaj Thorat\r\nP/T/04/02054000,\r\n case no.1212155 \r\nB- 801, Sukhwani Gracia, \r\nprime properties.\r\n sus na, Pune, Maharashtra" }, "geometry": { "type": "Point", "coordinates": [ 73.7403387, 18.5569939 ] } },
{ "type": "Feature", "properties": { "ccd_name": "Others (Water Supply)", "com_location": "MARK RESIDENCY FLAT NO 302 SR NO  46/2/1,46/3/1 PASHAN - SUS ROAD BANER BEHIND AUDI SHOWROOM  BANER 411045, Pune, Maharashtra" }, "geometry": { "type": "Point", "coordinates": [ 73.7707585, 18.5485018 ] } },
{ "type": "Feature", "properties": { "ccd_name": "Low water pressure to Individual", "com_location": "jayahiMda nagara lamAnavADI , Pune, Maharashtra" }, "geometry": { "type": "Point", "coordinates": [ 73.8786239, 18.5246091 ] } },
{ "type": "Feature", "properties": { "ccd_name": "Pipeline/Valve Leakage of PMC line", "com_location": "pattA - shrInAthanagara,  gallI naMbara 2 , boganavilA sosAyaTI shejArI, aMjora sosAyaTI samora.bANera,  puNe." }, "geometry": { "type": "Point", "coordinates": [ 73.8786239, 18.5246091 ] } },
{ "type": "Feature", "properties": { "ccd_name": "Providing / repairing of storm water chamber and cover", "com_location": "Golden Nest, Dhanori, JW56+WFF, Porwal Rd, Nimbalkar Nagar, Lohegaon, Pune, Maharashtra 411047, India" }, "geometry": { "type": "Point", "coordinates": [ 73.911168, 18.609815 ] } },
{ "type": "Feature", "properties": { "ccd_name": "NO water Supply", "com_location": "laxmi nivas, sai nagar, shree krioshna colony upper depot backside, kondhawa pune 411048." }, "geometry": { "type": "Point", "coordinates": [ 73.8738935, 18.4583186 ] } },
{ "type": "Feature", "properties": { "ccd_name": "Correction in water meter bill (Name/Address/Amount etc)", "com_location": "7th floor, Gulab Pavilion, Bus Stop, 657 A, Deccan Gymkhana Rd, behind Main, Pulachi Wadi, Deccan Gymkhana, Pune, Maharashtra 411004, India" }, "geometry": { "type": "Point", "coordinates": [ 73.843533, 18.515859 ] } },
{ "type": "Feature", "properties": { "ccd_name": "Providing / repairing of storm water chamber and cover", "com_location": "tyAcha pramANe aneka baMdista gaTArAche cheMbarache jhAkaNa dekhIla tuTalele Aheta , Pune, Maharashtra" }, "geometry": { "type": "Point", "coordinates": [ 73.8786239, 18.5246091 ] } },
{ "type": "Feature", "properties": { "ccd_name": "Pipeline/Valve Leakage of PMC line", "com_location": "ThikANa - baMgalo 6,sTeTa ba.Nka ka lanI,  lakShmInagara , parvatI,  puNe 411009" }, "geometry": { "type": "Point", "coordinates": [ 73.849636, 18.485861 ] } },
{ "type": "Feature", "properties": { "ccd_name": "Low water pressure to Individual", "com_location": "sarve kramAMka 22. gallI kramAMka 26 bI. gaNesha nagara, dhAyarI, Pune, Maharashtra" }, "geometry": { "type": "Point", "coordinates": [ 73.814685, 18.4516745 ] } },
{ "type": "Feature", "properties": { "ccd_name": "NO water Supply", "com_location": "Yevalewadi Pansare Nagar Galli No 3 Shubharamnbh Heights Pune " }, "geometry": { "type": "Point", "coordinates": [ 73.887482, 18.4347611 ] } },
{ "type": "Feature", "properties": { "ccd_name": "Pipeline/Valve Leakage of PMC line", "com_location": "mArutI chauka yogI pArka bANera pAShANa TekaDI javaLa bANera  , Pune, Maharashtra" }, "geometry": { "type": "Point", "coordinates": [ 73.7749244, 18.5475179 ] } },
{ "type": "Feature", "properties": { "ccd_name": "Leakage of public toilet water tank", "com_location": "prabhAga kramAMka 35 tAvare ka lanI surabhI ha la shejArI gaNapatI maMdirA mAge 47 /16 araNyeshvara tAvare ka lanI puNe 411009" }, "geometry": { "type": "Point", "coordinates": [ 73.8540828, 18.488083 ] } },
{ "type": "Feature", "properties": { "ccd_name": "Cleaning of strom water chamber and nalla", "com_location": "survey no 17 near ganpati mandir ambegaon bk 411046 , Pune, Maharashtra" }, "geometry": { "type": "Point", "coordinates": [ 73.8462142, 18.4562801 ] } },
{ "type": "Feature", "properties": { "ccd_name": "NO water Supply", "com_location": "Address: samosa shop ,Shanta Nagar, Near   Sinhagad Law college ambegaon bk 411046, Pune, Maharashtra" }, "geometry": { "type": "Point", "coordinates": [ 73.8364797, 18.4640896 ] } },
{ "type": "Feature", "properties": { "ccd_name": "Providing / repairing of storm water chamber and cover", "com_location": "Shivajinagar Pune Maharashtra India" }, "geometry": { "type": "Point", "coordinates": [ 73.8445617, 18.5314419 ] } },
{ "type": "Feature", "properties": { "ccd_name": "Providing / repairing of storm water chamber and cover", "com_location": "Bank of Baroda Lane Chitrakar Chowk Thite Vasti Kharadi Pune 411014" }, "geometry": { "type": "Point", "coordinates": [ 73.9363495, 18.5443337 ] } },
{ "type": "Feature", "properties": { "ccd_name": "Low water pressure to Individual", "com_location": "50/2, Shree Ram Society, Pune International Airport Area, Lohegaon, Pune, Maharashtra 411014, India" }, "geometry": { "type": "Point", "coordinates": [ 73.937263488769531, 18.563735961914062 ] } },
{ "type": "Feature", "properties": { "ccd_name": "Low water pressure to Individual", "com_location": "56, Mitra Mandal Colony, Parvati Paytha, Pune, Maharashtra 411009, India" }, "geometry": { "type": "Point", "coordinates": [ 73.853724, 18.496175 ] } },
{ "type": "Feature", "properties": { "ccd_name": "Clearing Water Logging on Road", "com_location": "Lonkar chowk,deccan paper mill road,tulsi corner ,near police thana, mundhwa,pune" }, "geometry": { "type": "Point", "coordinates": [ 73.9282209, 18.5313334 ] } },
{ "type": "Feature", "properties": { "ccd_name": "Others (Water Supply)", "com_location": "8 muLA roDa Ishvara kRRipA sosAyaTI samora , Pune, Maharashtra" }, "geometry": { "type": "Point", "coordinates": [ 73.8553862, 18.5509255 ] } },
{ "type": "Feature", "properties": { "ccd_name": "Pipeline/Valve Leakage of PMC line", "com_location": "rajwada hotel someshwarwadi road pashan , Pune, Maharashtra" }, "geometry": { "type": "Point", "coordinates": [ 73.8039916, 18.5494314 ] } },
{ "type": "Feature", "properties": { "ccd_name": "Contamination / Turbid Water Problem", "com_location": "sr.no124/283 lane no24 .bhimnagar mundhva pune 36 dhole patil " }, "geometry": { "type": "Point", "coordinates": [ 73.933003, 18.5330323 ] } },
{ "type": "Feature", "properties": { "ccd_name": "NO water Supply", "com_location": "survey no 61/1c/3/2/1  golden bell road,mundhwa pune- 411036" }, "geometry": { "type": "Point", "coordinates": [ 73.9213456, 18.5317902 ] } },
{ "type": "Feature", "properties": { "ccd_name": "Pipeline/Valve Leakage of PMC line", "com_location": "Location - Shinde Farm, 69/5, near Turf Ground, Paud Road, Jijai Nagar, Kothrud, Pune, Maharashtra 411038" }, "geometry": { "type": "Point", "coordinates": [ 73.7929558, 18.502685 ] } },
{ "type": "Feature", "properties": { "ccd_name": "Pipeline/Valve Leakage of PMC line", "com_location": "Map :- Gulawani Maharaj Road, Swapnamandir Society, Vakil Nagar, Erandwane, Pune, Maharashtra 411004" }, "geometry": { "type": "Point", "coordinates": [ 73.8270436, 18.5016562 ] } },
{ "type": "Feature", "properties": { "ccd_name": "Others (Water Supply)", "com_location": " yashavaMtarAva chavhANa sabhAgRRihAta kothrud 411038, Pune, Maharashtra" }, "geometry": { "type": "Point", "coordinates": [ 73.8076543, 18.5073514 ] } },
{ "type": "Feature", "properties": { "ccd_name": "Pipeline/Valve Leakage of PMC line", "com_location": "DAvI bhusArI ka lanI  ha Tela sevana elhevana , Pune, Maharashtra" }, "geometry": { "type": "Point", "coordinates": [ 73.7904396, 18.5082124 ] } },
{ "type": "Feature", "properties": { "ccd_name": "Clearing Water Logging on Road", "com_location": "Uruli Devachi Pune Maharashtra India" }, "geometry": { "type": "Point", "coordinates": [ 73.9563832, 18.4563105 ] } },
{ "type": "Feature", "properties": { "ccd_name": "Clearing Water Logging on Road", "com_location": "WeWork Raheja Woods Kalyani Nagar Pune Maharashtra India" }, "geometry": { "type": "Point", "coordinates": [ 73.8981689, 18.5471027 ] } },
{ "type": "Feature", "properties": { "ccd_name": "NO water Supply", "com_location": "B5, Abhimanshree Society Rd Number 2, Abhimanshree Society, Pashan, Pune, Maharashtra 411008, India" }, "geometry": { "type": "Point", "coordinates": [ 73.817464187292998, 18.543669021214001 ] } },
{ "type": "Feature", "properties": { "ccd_name": "Motor / Pump on water line of pmc", "com_location": "78/615 Laxmi Nagar Parvati Pune 09\r\nParvati Police Station line." }, "geometry": { "type": "Point", "coordinates": [ 73.8484109, 18.4928165 ] } },
{ "type": "Feature", "properties": { "ccd_name": "Providing / repairing of storm water chamber and cover", "com_location": "Nimbalkar Nagar Lohegaon Pune Maharashtra India" }, "geometry": { "type": "Point", "coordinates": [ 73.9117325, 18.6102659 ] } },
{ "type": "Feature", "properties": { "ccd_name": "NO water Supply", "com_location": "Survey No. 315 Martande Nagar Vaiduvadi Hadapsar Pune 13 " }, "geometry": { "type": "Point", "coordinates": [ 73.9603151, 18.4906966 ] } },
{ "type": "Feature", "properties": { "ccd_name": "Unauthorised tapping of water connection/Water Theft", "com_location": "saptagirI sosAyaTI, sarve naM 51 , vAghajAI nagara ,AMbegAMva khurda puNe 46" }, "geometry": { "type": "Point", "coordinates": [ 73.9531189, 18.5646495 ] } },
{ "type": "Feature", "properties": { "ccd_name": "Pipeline/Valve Leakage of PMC line", "com_location": "657, NC Kelkar Road, Narayan Peth, Pune, Maharashtra 411030, India" }, "geometry": { "type": "Point", "coordinates": [ 73.853698730469006, 18.516159057616999 ] } },
{ "type": "Feature", "properties": { "ccd_name": "Pipeline/Valve Leakage of PMC line", "com_location": "jaina maMdira mahAvIra ka mpleksa \r\nmahAlakShmI pharasANa sha pa samora , Pune, Maharashtra" }, "geometry": { "type": "Point", "coordinates": [ 73.8786239, 18.5246091 ] } },
{ "type": "Feature", "properties": { "ccd_name": "Clearing Water Logging on Road", "com_location": "VATIKA SOCIETY Balewadi, Behind Orvi Society  , Pune, Maharashtra" }, "geometry": { "type": "Point", "coordinates": [ 73.7662007, 18.5792725 ] } },
{ "type": "Feature", "properties": { "ccd_name": "No water as per time table", "com_location": "Survey no 26/3/5 , backside ram mandir , opposite sahyadri residency lane , ambegaon pathar , ambegaon Bk , pune 411046" }, "geometry": { "type": "Point", "coordinates": [ 73.8410499, 18.458556 ] } },
{ "type": "Feature", "properties": { "ccd_name": "Contamination / Turbid Water Problem", "com_location": "NAREN BLISS Amanora Park Town Hadapsar Pune Maharashtra India" }, "geometry": { "type": "Point", "coordinates": [ 73.9336859, 18.5225837 ] } },
{ "type": "Feature", "properties": { "ccd_name": "NO water Supply", "com_location": "sarvhe naMbara 10,11, sukhasAgara nagara, banakara shALechyA mAge, kAtraja puNe 46\t" }, "geometry": { "type": "Point", "coordinates": [ 73.8712384, 18.4556348 ] } },
{ "type": "Feature", "properties": { "ccd_name": "NO water Supply", "com_location": "residents of [Amar Serenity wing E, Baner Pashan link road], , Pune, Maharashtra" }, "geometry": { "type": "Point", "coordinates": [ 73.7940618, 18.54927 ] } },
{ "type": "Feature", "properties": { "ccd_name": "Others (Water Supply)", "com_location": "14, Ganga Constella Rd, EON Free Zone, Kharadi, Pune, Maharashtra 411014, India" }, "geometry": { "type": "Point", "coordinates": [ 73.950228818114269, 18.555240941745907 ] } },
{ "type": "Feature", "properties": { "ccd_name": "Others (Water Supply)", "com_location": "Sarve no 112 Shri ram colony no 8 Sutardara kothrud, Pune, Maharashtra" }, "geometry": { "type": "Point", "coordinates": [ 73.8076057, 18.5180325 ] } },
{ "type": "Feature", "properties": { "ccd_name": "Others (Water Supply)", "com_location": " shiva kA.clanI, pavAra vastImadhe pune  " }, "geometry": { "type": "Point", "coordinates": [ 73.8786239, 18.5246091 ] } },
{ "type": "Feature", "properties": { "ccd_name": "Pipeline/Valve Leakage of PMC line", "com_location": "sarva naM 11 shivajInagara relve sTeshana mallIkArjuna maMdirAjavaLa puNe 411005.\r\n" }, "geometry": { "type": "Point", "coordinates": [ 73.851083, 18.531405 ] } },
{ "type": "Feature", "properties": { "ccd_name": "Water Flowing / wastage", "com_location": "prAyavheTa roDa siddhArtha nagara lena naMbara 26 somorIla rastyAchyA sheDa chyA shejArIla jAgeta , Pune, Maharashtra" }, "geometry": { "type": "Point", "coordinates": [ 73.8834376, 18.550535 ] } },
{ "type": "Feature", "properties": { "ccd_name": "Water Flowing / wastage", "com_location": "Plot no 50/51, Lane no-4, Tulshibagwale Colony Rd, near Nana Nani Park, Sahakar Nagar, Tulshibagwale Colony, Parvati Paytha, Pune, Maharashtra 411009, India" }, "geometry": { "type": "Point", "coordinates": [ 73.844857627328665, 18.49016515623995 ] } },
{ "type": "Feature", "properties": { "ccd_name": "Others (Water Supply)", "com_location": "B-102, Firdaus Apartment, Junedi Chauk, Unity Park Road, Kondhwa,Pune-411048" }, "geometry": { "type": "Point", "coordinates": [ 73.8860302, 18.4667599 ] } },
{ "type": "Feature", "properties": { "ccd_name": "Providing / repairing of storm water chamber and cover", "com_location": "Jail Road Yerwada Pune Maharashtra India" }, "geometry": { "type": "Point", "coordinates": [ 73.885264100000015, 18.5639293 ] } },
{ "type": "Feature", "properties": { "ccd_name": "Providing / repairing of storm water chamber and cover", "com_location": "230 Nana peth Ashok chowk Pune 411002" }, "geometry": { "type": "Point", "coordinates": [ 73.866115, 18.514266 ] } },
{ "type": "Feature", "properties": { "ccd_name": "NO water Supply", "com_location": "KOHINOOR IRIS PARK KALE PADAL ROAD BEHIND SMRUDDHI SOCIETY NEAR RAILWAY CROSSING KALE PADAL PUNE 411028" }, "geometry": { "type": "Point", "coordinates": [ 73.9370384, 18.4843869 ] } },
{ "type": "Feature", "properties": { "ccd_name": "NO water Supply", "com_location": "raikar nagar, bhagyashree society , sinhagadroad dhayari behind solapur janata sahakari bank pune - 411041." }, "geometry": { "type": "Point", "coordinates": [ 73.8490969, 18.5018728 ] } },
{ "type": "Feature", "properties": { "ccd_name": "Providing / repairing of storm water chamber and cover", "com_location": "Dekkana ka rnara vimalAbAI garavAre chyA samora  411038 , Pune, Maharashtra" }, "geometry": { "type": "Point", "coordinates": [ 73.840567, 18.5138277 ] } },
{ "type": "Feature", "properties": { "ccd_name": "Pipeline/Valve Leakage of PMC line", "com_location": "Katraj Kondhwa Road Near Gokul Nagar Chowk Miracle Hospital Samor Road Pune 411046." }, "geometry": { "type": "Point", "coordinates": [ 73.8738348, 18.4495599 ] } },
{ "type": "Feature", "properties": { "ccd_name": "Pipeline/Valve Leakage of PMC line", "com_location": "riverview residency road 42, baramatiagro chicken shop, warje gaon near dilip barate bunglow pune 411052." }, "geometry": { "type": "Point", "coordinates": [ 73.805681, 18.476009 ] } },
{ "type": "Feature", "properties": { "ccd_name": "Pipeline/Valve Leakage of PMC line", "com_location": "Lane no.14 .behind d'mart ,balewadi ,pune 45" }, "geometry": { "type": "Point", "coordinates": [ 73.7707954, 18.5664003 ] } },
{ "type": "Feature", "properties": { "ccd_name": "Others (Water Supply)", "com_location": "It's near pride house pune 411016" }, "geometry": { "type": "Point", "coordinates": [ 73.8297302, 18.5410314 ] } },
{ "type": "Feature", "properties": { "ccd_name": "Pipeline/Valve Leakage of PMC line", "com_location": "951, raviwar peth, adhikari wada, near gurudwar, pune - 411002" }, "geometry": { "type": "Point", "coordinates": [ 73.8610417, 18.5185718 ] } },
{ "type": "Feature", "properties": { "ccd_name": "Pipeline/Valve Leakage of PMC line", "com_location": "navagraha hanumAna maMdira javaLa omakAra ka lanI lena 2 vAraje, Pune, Maharashtra" }, "geometry": { "type": "Point", "coordinates": [ 73.8066056, 18.4809125 ] } },
{ "type": "Feature", "properties": { "ccd_name": "Pipeline/Valve Leakage of PMC line", "com_location": "Pashan Hwy Side Rd, Baner Bio-Diversity Park, Baner, Pune, Maharashtra 411021" }, "geometry": { "type": "Point", "coordinates": [ 73.7702062, 18.5574388 ] } },
{ "type": "Feature", "properties": { "ccd_name": "NO water Supply", "com_location": " gaMgA nagara lena,pune" }, "geometry": { "type": "Point", "coordinates": [ 73.9587593, 18.4904527 ] } },
{ "type": "Feature", "properties": { "ccd_name": "Pipeline/Valve Leakage of PMC line", "com_location": "address 21B, KAPILA SOCIETY,  GOKHALENAGAR,  PUNE 411016" }, "geometry": { "type": "Point", "coordinates": [ 73.8255487, 18.5255008 ] } },
{ "type": "Feature", "properties": { "ccd_name": "Pipeline/Valve Leakage of PMC line", "com_location": "Anandi Road mental corner chitale Bandhu chowk Vishrantwadi pune 411006" }, "geometry": { "type": "Point", "coordinates": [ 73.879357, 18.56802 ] } },
{ "type": "Feature", "properties": { "ccd_name": "Contamination / Turbid Water Problem", "com_location": "kirakaTavADI gAvaThANa parisarAtIla,pune" }, "geometry": { "type": "Point", "coordinates": [ 73.8786239, 18.5246091 ] } },
{ "type": "Feature", "properties": { "ccd_name": "Others (Water Supply)", "com_location": "Sai corner waraje, canal road. , Pune, Maharashtra" }, "geometry": { "type": "Point", "coordinates": [ 73.8071667, 18.4821029 ] } },
{ "type": "Feature", "properties": { "ccd_name": "Low water pressure to Individual", "com_location": "Mahadev nagar,vadgaon sheri,pune 411014." }, "geometry": { "type": "Point", "coordinates": [ 73.9264296, 18.5481541 ] } },
{ "type": "Feature", "properties": { "ccd_name": "Contamination / Turbid Water Problem", "com_location": "Pine code is 411038\r\nAddress is : 13 Saad bungalow , kunkulol housing society, Azad nagar, Kothrud. Near Vaishnavi food center, Pune, Maharashtra" }, "geometry": { "type": "Point", "coordinates": [ 73.8077192, 18.5028847 ] } },
{ "type": "Feature", "properties": { "ccd_name": "Providing / repairing of storm water chamber and cover", "com_location": "eraMDavaNA tIla abhinava hAyaskUla javaLI la pasAyadAna udyama pasAyadAna navIna apArTameMTa eraMDavanA 411038, Pune, Maharashtra" }, "geometry": { "type": "Point", "coordinates": [ 73.8036752, 18.5165691 ] } },
{ "type": "Feature", "properties": { "ccd_name": "NO water Supply", "com_location": "315 B , narayan peth , sukhkarta sadan , near modi ganpati , vishwakarma bol ,near sarswat bank , pune 411030" }, "geometry": { "type": "Point", "coordinates": [ 73.8466063, 18.5104228 ] } },
{ "type": "Feature", "properties": { "ccd_name": "Providing / repairing of storm water chamber and cover", "com_location": "944 budhavAra peTha javaLIla ka rnara , Pune, Maharashtra" }, "geometry": { "type": "Point", "coordinates": [ 73.8575825, 18.5149624 ] } },
{ "type": "Feature", "properties": { "ccd_name": "Clearing Water Logging on Road", "com_location": "Vadgaon Sheri survey number 52/4 galande Patil corner Juna mundwa Road Near jok Company Pune 411014 " }, "geometry": { "type": "Point", "coordinates": [ 73.9272762, 18.5295311 ] } },
{ "type": "Feature", "properties": { "ccd_name": "Pipeline/Valve Leakage of PMC line", "com_location": "Near kirloskar commence,balewadi,pune 411045." }, "geometry": { "type": "Point", "coordinates": [ 73.7377012, 18.5657315 ] } },
{ "type": "Feature", "properties": { "ccd_name": "Others (Water Supply)", "com_location": "Sr no 64/1/1 Telephone holder society VIIT college Javal hagavaNe nagara 411046, Pune, Maharashtra" }, "geometry": { "type": "Point", "coordinates": [ 73.8673832, 18.4626958 ] } },
{ "type": "Feature", "properties": { "ccd_name": "Clearing Water Logging on Road", "com_location": "Kumar Selena Society Behind Tukaram High School Opposite , Whispering Wind Society Baner Pashan Link Road Pune 411021" }, "geometry": { "type": "Point", "coordinates": [ 73.7934186, 18.5492272 ] } },
{ "type": "Feature", "properties": { "ccd_name": "Water Flowing / wastage", "com_location": ": patil nagar, Balewadi., Pune, Maharashtra" }, "geometry": { "type": "Point", "coordinates": [ 73.7639658, 18.5836386 ] } },
{ "type": "Feature", "properties": { "ccd_name": "Others (Water Supply)", "com_location": "Block-8, Rohan Leher III, Mohan Nagar Co-Op Society, Baner, Pune, Maharashtra 411021, India" }, "geometry": { "type": "Point", "coordinates": [ 73.7686873, 18.5561244 ] } },
{ "type": "Feature", "properties": { "ccd_name": "NO water Supply", "com_location": "Block 19/B  Shilanand housing society,somnathnagar,vadgaonsheri,Pune-14" }, "geometry": { "type": "Point", "coordinates": [ 73.923674, 18.5545775 ] } },
{ "type": "Feature", "properties": { "ccd_name": "Low water pressure to Individual", "com_location": "sr no 59/2, plot no 40, pathare school, chandan nagar, pune - 411014." }, "geometry": { "type": "Point", "coordinates": [ 73.9280219, 18.5595932 ] } },
{ "type": "Feature", "properties": { "ccd_name": "Providing / repairing of storm water chamber and cover", "com_location": "seMTa eDavarDasa ba Ija prAyamarI skUla\r\n775 guruvAra peTha, puNe-42." }, "geometry": { "type": "Point", "coordinates": [ 73.8418604, 18.5065402 ] } },
{ "type": "Feature", "properties": { "ccd_name": "Providing / repairing of storm water chamber and cover", "com_location": "kAtraja sukhasAgara nagara sarve kramAMka 13 grIna la nsa sosAyaTI sapanA pAvabhAjI shejArIla gallImadhye sonahIrA baMgalyA bAherIla , Pune, Maharashtra" }, "geometry": { "type": "Point", "coordinates": [ 73.9531189, 18.5646495 ] } },
{ "type": "Feature", "properties": { "ccd_name": "Others (Water Supply)", "com_location": "yash apartment , pmc 32 no school ,hadpsar pune -411028 " }, "geometry": { "type": "Point", "coordinates": [ 73.8293959, 18.5081391 ] } },
{ "type": "Feature", "properties": { "ccd_name": "Providing / repairing of storm water chamber and cover", "com_location": " chiMchechI aLI mahAdeva maMdira mAge pAShANa gAvaThANa yethe., Pune, Maharashtra" }, "geometry": { "type": "Point", "coordinates": [ 73.8786239, 18.5246091 ] } },
{ "type": "Feature", "properties": { "ccd_name": "Pipeline/Valve Leakage of PMC line", "com_location": "prabhAga 18  khaDakamALa charcha samora 678 ghorapaDe peTha ,, Pune, Maharashtra" }, "geometry": { "type": "Point", "coordinates": [ 73.860931, 18.503266 ] } },
{ "type": "Feature", "properties": { "ccd_name": "Pipeline/Valve Leakage of PMC line", "com_location": "sAI darshana bilDiMga goMdavalekara mahArAja maThAshejArI mitra maMDaLa chauka parvatI puNe 411009" }, "geometry": { "type": "Point", "coordinates": [ 73.849636, 18.485861 ] } },
{ "type": "Feature", "properties": { "ccd_name": "NO water Supply", "com_location": "56/441, maharashi nagar, near by timave colony bibwewadi road maharshi nagar pune 411037." }, "geometry": { "type": "Point", "coordinates": [ 73.859699, 18.4839522 ] } },
{ "type": "Feature", "properties": { "ccd_name": "NO water Supply", "com_location": "\"Poona college society lane no.2\r\nWadgaonsheri, Pune, Maharashtra" }, "geometry": { "type": "Point", "coordinates": [ 73.9228878, 18.5602961 ] } },
{ "type": "Feature", "properties": { "ccd_name": "Low water pressure to Individual", "com_location": "nanded grampachyat office samor, pune " }, "geometry": { "type": "Point", "coordinates": [ 73.8786239, 18.5246091 ] } },
{ "type": "Feature", "properties": { "ccd_name": "NO water Supply", "com_location": "105 ghorapaDe peTha, mIrA mArkeTa, , Pune, Maharashtra" }, "geometry": { "type": "Point", "coordinates": [ 73.8630328, 18.501401 ] } },
{ "type": "Feature", "properties": { "ccd_name": "Pipeline/Valve Leakage of PMC line", "com_location": "rAmaTekaDI sayyadanagara yetIla Da .bAbasAheba AMbeDakara sAMskRRitika bhavana rAmaTekaDI, Pune, Maharashtra" }, "geometry": { "type": "Point", "coordinates": [ 73.9161418, 18.5040461 ] } },
{ "type": "Feature", "properties": { "ccd_name": "Clearing Water Logging on Road", "com_location": "vAkaDevADI, sAkharasaMkulachyA shejArI. durgA svITa chyA mAge, shivAjInagara, puNe-411005." }, "geometry": { "type": "Point", "coordinates": [ 73.8521981, 18.5424091 ] } },
{ "type": "Feature", "properties": { "ccd_name": "Contamination / Turbid Water Problem", "com_location": "siddhi vinayak colony ghule vasti , navaratna mangal karyalaya near Pune - 412307." }, "geometry": { "type": "Point", "coordinates": [ 73.9579392, 18.5079747 ] } },
{ "type": "Feature", "properties": { "ccd_name": "Providing / repairing of storm water chamber and cover", "com_location": "Lane no 5 near Yashwant appartment mseb d p tulshibaug Wale colony sahakarnagar 2 pune411009" }, "geometry": { "type": "Point", "coordinates": [ 73.844403, 18.4870075 ] } },
{ "type": "Feature", "properties": { "ccd_name": "Water Flowing / wastage", "com_location": "Agama maMdira, kAtraja,chaDha chaDhatAnA yA tIvra UtArAlA kalashasamora,pune." }, "geometry": { "type": "Point", "coordinates": [ 73.865238, 18.4529322 ] } },
{ "type": "Feature", "properties": { "ccd_name": "Cleaning of strom water chamber and nalla", "com_location": "susa smashAna bhUmI  susa 411021., Pune, Maharashtra" }, "geometry": { "type": "Point", "coordinates": [ 73.7871439, 18.5443023 ] } },
{ "type": "Feature", "properties": { "ccd_name": "Unauthorised tapping of water connection/Water Theft", "com_location": "Flat No 4 Saniya Apartment Opposite Nagarwala School Kalyani Nagar Pune 411006\t" }, "geometry": { "type": "Point", "coordinates": [ 73.8983909, 18.547961 ] } },
{ "type": "Feature", "properties": { "ccd_name": "Pipeline/Valve Leakage of PMC line", "com_location": "at the junction of Patwardhan Baug Rd and Mhatre Bridge DP Rd., Pune, Maharashtra" }, "geometry": { "type": "Point", "coordinates": [ 73.835052300000015, 18.5045148 ] } },
{ "type": "Feature", "properties": { "ccd_name": "Pipeline/Valve Leakage of PMC line", "com_location": "Shop no. 1, Jadhav Bungalow, Bhosle Gdn Rd, near Kalyan Bhel, Bhosale Nagar, Hadapsar, Pune, Maharashtra 411028" }, "geometry": { "type": "Point", "coordinates": [ 73.9330652, 18.5050812 ] } },
{ "type": "Feature", "properties": { "ccd_name": "NO water Supply", "com_location": "opp to serum institute Nisarg colony, Dhere bunglow, Ghule colony 4 , Manjari Road, Hadapsar, Pune -" }, "geometry": { "type": "Point", "coordinates": [ 73.9471842, 18.5044622 ] } },
{ "type": "Feature", "properties": { "ccd_name": "NO water Supply", "com_location": "Sr.No.11/A,Sai nagar Apartment,Near Hiraman Bankar School,Galli No.3,Sukhsagar nagar-1,Katraj,Pune 411046." }, "geometry": { "type": "Point", "coordinates": [ 73.8745972, 18.4529943 ] } },
{ "type": "Feature", "properties": { "ccd_name": "Providing / repairing of storm water chamber and cover", "com_location": "Map:- Sr. No. 38, 1, Sterling Nisarga II, Narhe, Pune, Khadewadi, Maharashtra" }, "geometry": { "type": "Point", "coordinates": [ 73.8147886, 18.4480317 ] } },
{ "type": "Feature", "properties": { "ccd_name": "NO water Supply", "com_location": "Survey No 224/1 Suyog Society, Beside Sanjeevani Hospital, Gadital, Hadapsar,Pune 411028." }, "geometry": { "type": "Point", "coordinates": [ 73.9410363, 18.501012 ] } },
{ "type": "Feature", "properties": { "ccd_name": "Providing / repairing of storm water chamber and cover", "com_location": "shrI kaMTrola chauka naRhe te kALUbAI maMdira, dhAyarI  roDavara , Pune, Maharashtra" }, "geometry": { "type": "Point", "coordinates": [ 73.8329712, 18.4485995 ] } },
{ "type": "Feature", "properties": { "ccd_name": "Providing / repairing of storm water chamber and cover", "com_location": "Opposite Mandeshi foundation in front of sirvi kirana store Dhayari Narhe Road pune 411041" }, "geometry": { "type": "Point", "coordinates": [ 73.8216698, 18.4459988 ] } },
{ "type": "Feature", "properties": { "ccd_name": "Pipeline/Valve Leakage of PMC line", "com_location": "Agarakara nagara  puNe sTeshana sasUna roDa " }, "geometry": { "type": "Point", "coordinates": [ 73.8786239, 18.5246091 ] } },
{ "type": "Feature", "properties": { "ccd_name": "Water meter not working", "com_location": "Amar Business Park, Sadanand Estates, Veerbhadra Nagar, Baner, Pune, Maharashtra 411045" }, "geometry": { "type": "Point", "coordinates": [ 73.7666465, 18.568374 ] } },
{ "type": "Feature", "properties": { "ccd_name": "Others (Water Supply)", "com_location": "mI bhUShaNa sitArAma jAdhava rAhaNAra yeravaDA mAjhe nagara roDa maMtrI AyaTI pArka yethe , Pune, Maharashtra" }, "geometry": { "type": "Point", "coordinates": [ 73.879711, 18.5529226 ] } },
{ "type": "Feature", "properties": { "ccd_name": "NO water Supply", "com_location": "Near Wagheshwar Temple, Baif Road, Wagholi, Pune, Maharashtra" }, "geometry": { "type": "Point", "coordinates": [ 73.9777212, 18.5817586 ] } },
{ "type": "Feature", "properties": { "ccd_name": "NO water Supply", "com_location": "GWG5+8R4, Millind Nagar, Bhagyashree Nagar, Ghorpadi, Pune, Maharashtra 411036, India" }, "geometry": { "type": "Point", "coordinates": [ 73.909435831010342, 18.525715261723004 ] } },
{ "type": "Feature", "properties": { "ccd_name": "Providing / repairing of storm water chamber and cover", "com_location": "haDapasara sasANenagara ravi pArka , Pune, Maharashtra" }, "geometry": { "type": "Point", "coordinates": [ 73.8786239, 18.5246091 ] } },
{ "type": "Feature", "properties": { "ccd_name": "No water as per time table", "com_location": "Bunglow no.11, Cinderella CHS, Yogi Park, Baner, Pune 411045" }, "geometry": { "type": "Point", "coordinates": [ 73.7744934, 18.5526813 ] } },
{ "type": "Feature", "properties": { "ccd_name": "Pipeline/Valve Leakage of PMC line", "com_location": "Near SNBP school, bavdhan Budruk, Pune, Maharashtra" }, "geometry": { "type": "Point", "coordinates": [ 73.7634113, 18.5085884 ] } },
{ "type": "Feature", "properties": { "ccd_name": "Others (Water Supply)", "com_location": "Abhijit Complex Bharti Vidyapith Ambegaon PatharJijamata Cahuk Pune 4111046" }, "geometry": { "type": "Point", "coordinates": [ 73.8426415, 18.4587777 ] } },
{ "type": "Feature", "properties": { "ccd_name": "Low water pressure to Individual", "com_location": "48/1/I/A/2, Anand Pk Rd No 1 J, Nandan Euphora, Anand Park Nagar, Dhanori, Pune, Maharashtra 411015, India" }, "geometry": { "type": "Point", "coordinates": [ 73.886621517581261, 18.580893495455079 ] } },
{ "type": "Feature", "properties": { "ccd_name": "Others (Water Supply)", "com_location": " shrIrAma sosAyaTI kharADI bAyapAsa,pune " }, "geometry": { "type": "Point", "coordinates": [ 73.9531189, 18.5646495 ] } },
{ "type": "Feature", "properties": { "ccd_name": "Water Flowing / wastage", "com_location": " umA maheshvara maMdira shAhU mahAvidyAlayAlAjavaLa, lakShmInagara, parvatI, puNe 9" }, "geometry": { "type": "Point", "coordinates": [ 73.8793282, 18.5010953 ] } },
{ "type": "Feature", "properties": { "ccd_name": "Pipeline/Valve Leakage of PMC line", "com_location": "Siddharth Nagar Survey No. 17 Lane No. 03 Dhanori Pune 15" }, "geometry": { "type": "Point", "coordinates": [ 73.9553639, 18.5757361 ] } },
{ "type": "Feature", "properties": { "ccd_name": "Providing / repairing of storm water chamber and cover", "com_location": "HQCC+X3J, Laxman Nagar, Baner, Pune, Maharashtra 411045, India" }, "geometry": { "type": "Point", "coordinates": [ 73.7701376, 18.572461 ] } },
{ "type": "Feature", "properties": { "ccd_name": "Contamination / Turbid Water Problem", "com_location": "Manas Sarovar Society, lane no. 10b, Dhayari Phata, Pune-411041" }, "geometry": { "type": "Point", "coordinates": [ 73.8136944, 18.4581063 ] } },
{ "type": "Feature", "properties": { "ccd_name": "NO water Supply", "com_location": "303, Mominpura Road, Ghorpade Peth, Swargate, Pune, Maharashtra 411042, India" }, "geometry": { "type": "Point", "coordinates": [ 73.8631454, 18.5029045 ] } },
{ "type": "Feature", "properties": { "ccd_name": "Cleaning of strom water chamber and nalla", "com_location": "GULMOHAR PRIMROSE, Wagholi, Maharashtra 412207, India, Pune, Maharashtra" }, "geometry": { "type": "Point", "coordinates": [ 73.9971437, 18.5850888 ] } },
{ "type": "Feature", "properties": { "ccd_name": "NO water Supply", "com_location": "Sayyed nagar,lane no 25A,mohammadwadi road,hadapsar,pune 411028." }, "geometry": { "type": "Point", "coordinates": [ 73.9302347, 18.4846152 ] } },
{ "type": "Feature", "properties": { "ccd_name": "Pipeline/Valve Leakage of PMC line", "com_location": "Vadar vasti \r\nB and C1 buildings of State Bank Nagar at Karve Nagar chowk.\r\nPin code 411052, Pune, Maharashtra" }, "geometry": { "type": "Point", "coordinates": [ 73.8143669, 18.4890996 ] } },
{ "type": "Feature", "properties": { "ccd_name": "Providing / repairing of storm water chamber and cover", "com_location": "8 mula Road Bhayyawadi ,khadki pune 411003 " }, "geometry": { "type": "Point", "coordinates": [ 73.8553862, 18.5509255 ] } },
{ "type": "Feature", "properties": { "ccd_name": "Pipeline/Valve Leakage of PMC line", "com_location": "Map :- Paud Rd, Bhusari Colony, Kothrud, Pune, Maharashtra 411038" }, "geometry": { "type": "Point", "coordinates": [ 73.7909854, 18.5083043 ] } },
{ "type": "Feature", "properties": { "ccd_name": "Others (Water Supply)", "com_location": "Sr No 15/17/18 Jay Malhar Nagar Lane No 4 Ambegaon bk Pune 411046" }, "geometry": { "type": "Point", "coordinates": [ 73.841515, 18.462118 ] } },
{ "type": "Feature", "properties": { "ccd_name": "Unauthorised / Uncovered water storage tanks", "com_location": "Sr no-49/01, ganesh colony, gandi bhavan road, kotharud pune-38\t" }, "geometry": { "type": "Point", "coordinates": [ 73.9396735, 18.4830312 ] } },
{ "type": "Feature", "properties": { "ccd_name": "Cleaning of strom water chamber and nalla", "com_location": "Lane no 1 ,48/2, Dhanlaxmi housing society near Anand park behind Pankaj jewellers , pune " }, "geometry": { "type": "Point", "coordinates": [ 73.925811, 18.552741 ] } },
{ "type": "Feature", "properties": { "ccd_name": "NO water Supply", "com_location": "Tirupati campus phase 1 , lane no 2 , tingare nagar , pune 411015" }, "geometry": { "type": "Point", "coordinates": [ 73.8881327, 18.5769426 ] } },
{ "type": "Feature", "properties": { "ccd_name": "Providing / repairing of storm water chamber and cover", "com_location": "paMcha hauda guruvAra peTha shItaLAdevI roDa kAshI apArTameMTa samora, Pune, Maharashtra" }, "geometry": { "type": "Point", "coordinates": [ 73.8367429, 18.6217855 ] } },
{ "type": "Feature", "properties": { "ccd_name": "Water Flowing / wastage", "com_location": "36/3/D/10, Gokul Nagar Lane Number 2, Gokul Nagar, Katraj, Pune, Maharashtra 411046, India" }, "geometry": { "type": "Point", "coordinates": [ 73.8757384, 18.4487963 ] } },
{ "type": "Feature", "properties": { "ccd_name": "NO water Supply", "com_location": "MAP FXCG+VPH Phursungi, Maharashtra BrightMinds Maple Preschool\r\n Suvidya Complex, Sabji Mandhi, Kamthe Mala Rd, near Fursungi, Ali Road, Phursungi, Maharashtra 412308, Pune, Maharashtra" }, "geometry": { "type": "Point", "coordinates": [ 73.976567, 18.4724932 ] } },
{ "type": "Feature", "properties": { "ccd_name": "Others (Water Supply)", "com_location": "vRRiMdAvana nisarga siddhI chauka prabhAta lena parisara dhAyarI puNe 411 041 " }, "geometry": { "type": "Point", "coordinates": [ 73.8164684, 18.4504336 ] } },
{ "type": "Feature", "properties": { "ccd_name": "Contamination / Turbid Water Problem", "com_location": "sr no 34 mohan nagar shivshambo complex sahakari grih rachna dhankawadi pune 43 " }, "geometry": { "type": "Point", "coordinates": [ 73.8498548, 18.4576543 ] } },
{ "type": "Feature", "properties": { "ccd_name": "Pipeline/Valve Leakage of PMC line", "com_location": "26, Shiv Swami Samarth Math Marg, Hingne Khurd, Pune, Maharashtra 411051" }, "geometry": { "type": "Point", "coordinates": [ 73.828064, 18.480514 ] } },
{ "type": "Feature", "properties": { "ccd_name": "Clearing Water Logging on Road", "com_location": "Acolade road in Tukaram Nagar, Kharadi, Pune 411014." }, "geometry": { "type": "Point", "coordinates": [ 73.9350212, 18.5471992 ] } },
{ "type": "Feature", "properties": { "ccd_name": "NO water Supply", "com_location": "sarve naMbara 97 mAMjarI roDa ghule vastI shrIrama insTiTyUTa chyA samora haDapasara 412 3607\t, Pune, Maharashtra" }, "geometry": { "type": "Point", "coordinates": [ 73.962779, 18.510575 ] } },
{ "type": "Feature", "properties": { "ccd_name": "Pipeline/Valve Leakage of PMC line", "com_location": "outside Sky lounge, Kalyani Nagar, Pune, Maharashtra" }, "geometry": { "type": "Point", "coordinates": [ 73.9041999, 18.5442405 ] } },
{ "type": "Feature", "properties": { "ccd_name": "Water Flowing / wastage", "com_location": "Shre Ram flex printing , katraj., Pune, Maharashtra" }, "geometry": { "type": "Point", "coordinates": [ 73.8585102, 18.4469768 ] } },
{ "type": "Feature", "properties": { "ccd_name": "Pipeline/Valve Leakage of PMC line", "com_location": "sthaLa - umA maheshvara maMdira, shAhU mahAvidyAlayA javaLa, lakShmInagara, parvatI, puNe" }, "geometry": { "type": "Point", "coordinates": [ 73.854679, 18.4923126 ] } },
{ "type": "Feature", "properties": { "ccd_name": "Others (Water Supply)", "com_location": "Bhekrai Nagar, Fursungi, Pune, Maharashtra" }, "geometry": { "type": "Point", "coordinates": [ 73.9521468, 18.4819581 ] } },
{ "type": "Feature", "properties": { "ccd_name": "Pipeline/Valve Leakage of PMC line", "com_location": "FRJX+R6F, Taljai Mandir Rd, Taljai Forest Area, Pune, Maharashtra 411009, India" }, "geometry": { "type": "Point", "coordinates": [ 73.847887904091621, 18.481998566387208 ] } },
{ "type": "Feature", "properties": { "ccd_name": "NO water Supply", "com_location": "427iMdrA nagara gulaTekaDI bAgavAna gallI gulaTekaDI puNe 411037" }, "geometry": { "type": "Point", "coordinates": [ 73.8704877, 18.4877372 ] } },
{ "type": "Feature", "properties": { "ccd_name": "Others (Water Supply)", "com_location": "Bhagyoday Nagar Lane No 31 near Nawazish chowk Cafe Hayat hotel Kondhwa Khurd Pune" }, "geometry": { "type": "Point", "coordinates": [ 73.8832022, 18.4725249 ] } },
{ "type": "Feature", "properties": { "ccd_name": "Contamination / Turbid Water Problem", "com_location": "Lane No. 11 Ghulam Ali Nagar, Yusufiya Masjid Line, Opposite Runwal Seagull Society, Handewadi Road, Hadapsar, Pune 411028.\t" }, "geometry": { "type": "Point", "coordinates": [ 73.9340784, 18.4660052 ] } },
{ "type": "Feature", "properties": { "ccd_name": "Others (Water Supply)", "com_location": "Sasane colony,mundhwa,keshav nagar,pune 411036." }, "geometry": { "type": "Point", "coordinates": [ 73.9405926, 18.5324382 ] } },
{ "type": "Feature", "properties": { "ccd_name": "Contamination / Turbid Water Problem", "com_location": "indramani society plot no 15, anand park vadgaon sheri opp sai baba mandir, pune 411014 " }, "geometry": { "type": "Point", "coordinates": [ 73.9241035, 18.5526097 ] } },
{ "type": "Feature", "properties": { "ccd_name": "Others (Water Supply)", "com_location": "plot number 6/a Pune College Cooperative Housing Society behind Tail Maris School gharkul society Lane 3 Vadgaon Sheri pune14" }, "geometry": { "type": "Point", "coordinates": [ 73.9250845, 18.5460607 ] } },
{ "type": "Feature", "properties": { "ccd_name": "Cleaning of strom water chamber and nalla", "com_location": "Kai. Pai. Hiraman Bankar Vidyalaya\r\n Swami Vivekanand Rd, Sukhsagar Nagar, Katraj, Pune, Maharashtra 411046" }, "geometry": { "type": "Point", "coordinates": [ 73.8668451, 18.4589064 ] } },
{ "type": "Feature", "properties": { "ccd_name": "Low water pressure to Individual", "com_location": "35/2/11, Late Ranu Baburao Path, Tulja Bhavani Nagar, Wagholi, Pune, Maharashtra 411014, India" }, "geometry": { "type": "Point", "coordinates": [ 73.9474293, 18.5644063 ] } },
{ "type": "Feature", "properties": { "ccd_name": "Others (Water Supply)", "com_location": "(Arv Royale B wing Society) Handewadi road Hadapsar - Pune.\t" }, "geometry": { "type": "Point", "coordinates": [ 73.9344696, 18.4674043 ] } },
{ "type": "Feature", "properties": { "ccd_name": "Others (Water Supply)", "com_location": "Dhayari narhe road,yash platinum society,dhayari,pune 411041." }, "geometry": { "type": "Point", "coordinates": [ 73.8188856, 18.4473068 ] } },
{ "type": "Feature", "properties": { "ccd_name": "Pipeline/Valve Leakage of PMC line", "com_location": "bANera pAShANa liMka roDa vara ha Tela mahAbaLeshvara signala , ka rnara la Icon 45 bldg Ahe, Pune, Maharashtra" }, "geometry": { "type": "Point", "coordinates": [ 73.929669, 18.5436023 ] } },
{ "type": "Feature", "properties": { "ccd_name": "Pipeline/Valve Leakage of PMC line", "com_location": "isakAna maMdira khaDi mashina roDa kaDUna kAtrajakaDe yetAnA shivashaMbhonagara lena na3 chyA agodara , Pune, Maharashtra" }, "geometry": { "type": "Point", "coordinates": [ 73.8786239, 18.5246091 ] } },
{ "type": "Feature", "properties": { "ccd_name": "Others (Water Supply)", "com_location": "Salisbury park sopan soc, Pune, Maharashtra" }, "geometry": { "type": "Point", "coordinates": [ 73.7712093, 18.5728546 ] } },
{ "type": "Feature", "properties": { "ccd_name": "Clearing Water Logging on Road", "com_location": " Plot no 2 girija shankar society chavannagar dhankawadi pune 43" }, "geometry": { "type": "Point", "coordinates": [ 73.8527981, 18.4708892 ] } },
{ "type": "Feature", "properties": { "ccd_name": "NO water Supply", "com_location": "mit olympus society , lane e , north main road , koregaon park , pune 411001" }, "geometry": { "type": "Point", "coordinates": [ 73.8943272, 18.5405525 ] } },
{ "type": "Feature", "properties": { "ccd_name": "NO water Supply", "com_location": "2296 nyU modI khAnA\r\nka.cmpa puNe" }, "geometry": { "type": "Point", "coordinates": [ 73.8768225, 18.5067506 ] } },
{ "type": "Feature", "properties": { "ccd_name": "Clearing Water Logging on Road", "com_location": "Location: outside Sanskriti school,Undri main gate., Pune, Maharashtra" }, "geometry": { "type": "Point", "coordinates": [ 73.9065273, 18.4624725 ] } },
{ "type": "Feature", "properties": { "ccd_name": "Others (Water Supply)", "com_location": "Rahul colony,Satavwadi,Hadapsar,Pune and the pincode of the area is 411028" }, "geometry": { "type": "Point", "coordinates": [ 73.9484731, 18.4953248 ] } },
{ "type": "Feature", "properties": { "ccd_name": "Others (Water Supply)", "com_location": "sarvhe naMbara 31/22/1 yethIla pira.cmiDa inphrAsTrakchara aMtargata hAtImI hilsa pheja 1 ANi pira.cmiDa AshiyAnA mhADA viMga, Pune, Maharashtra" }, "geometry": { "type": "Point", "coordinates": [ 73.8786239, 18.5246091 ] } },
{ "type": "Feature", "properties": { "ccd_name": "Pipeline/Valve Leakage of PMC line", "com_location": "Kirkatwadi., gram panchyayat chouk, sigh gad road., Pune, Maharashtra" }, "geometry": { "type": "Point", "coordinates": [ 73.7902304, 18.4410799 ] } },
{ "type": "Feature", "properties": { "ccd_name": "NO water Supply", "com_location": "Address:- Lane no -2H, opposite badrinath mandir, kalwad wasti, Lohegoan pune - 411032" }, "geometry": { "type": "Point", "coordinates": [ 73.9058534, 18.5881421 ] } },
{ "type": "Feature", "properties": { "ccd_name": "Others (Water Supply)", "com_location": "Nirman-Viva Apartment, Sinhagad Institute Road, Ambegaon-BK, Behind Shivshruti, Pune -411046." }, "geometry": { "type": "Point", "coordinates": [ 73.8377252, 18.4598346 ] } },
{ "type": "Feature", "properties": { "ccd_name": "Providing / repairing of storm water chamber and cover", "com_location": "Map :- Netsurf, Office No 4, Kubera Chambers, Opp Sacnheti Hospital, Near Kala Niketan, Shivajinagar, Pune, Maharashtra 411003, India\r\n" }, "geometry": { "type": "Point", "coordinates": [ 73.8527863, 18.5288814 ] } },
{ "type": "Feature", "properties": { "ccd_name": "Others (Water Supply)", "com_location": "Sr no 15 jaya malhAra nagara AMbegAva paThAra puNe 46 " }, "geometry": { "type": "Point", "coordinates": [ 73.865695, 18.4427252 ] } },
{ "type": "Feature", "properties": { "ccd_name": "Providing / repairing of storm water chamber and cover", "com_location": " Meritech Katraj nagar Katraj Pune Maharashtra India " }, "geometry": { "type": "Point", "coordinates": [ 73.8597883, 18.4315358 ] } },
{ "type": "Feature", "properties": { "ccd_name": "Pipeline/Valve Leakage of PMC line", "com_location": "1206/A/15, Gopika Apartment, Off Shirole Road,Opp Kakade Capital,Sahityik Jog Lane,Shivajinagar,Pune 411004." }, "geometry": { "type": "Point", "coordinates": [ 73.8448415, 18.5215424 ] } },
{ "type": "Feature", "properties": { "ccd_name": "Others (Water Supply)", "com_location": "Woods Royale B wing,\r\nSurvey No.71,\r\nKothrud,\r\nPune 411038" }, "geometry": { "type": "Point", "coordinates": [ 73.7887806, 18.4985815 ] } },
{ "type": "Feature", "properties": { "ccd_name": "Providing / repairing of storm water chamber and cover", "com_location": "manaji baug,bopodi bhau patil , vandana hotel, hanuman mandhir chattrapatil maharaj udhyan pune 411020." }, "geometry": { "type": "Point", "coordinates": [ 73.8417708, 18.5696756 ] } },
{ "type": "Feature", "properties": { "ccd_name": "Providing / repairing of storm water chamber and cover", "com_location": "Loc: Nagar Road, Janak Baba Durgah Signal, Kharadi Pune 14" }, "geometry": { "type": "Point", "coordinates": [ 73.9437385, 18.5655008 ] } },
{ "type": "Feature", "properties": { "ccd_name": "Clearing Water Logging on Road", "com_location": "ildwoods Society, Baif Road, Wagholi, Pune, Maharashtra" }, "geometry": { "type": "Point", "coordinates": [ 73.9785352, 18.5751646 ] } },
{ "type": "Feature", "properties": { "ccd_name": "Providing / repairing of storm water chamber and cover", "com_location": "mhasobA maMdira , Pune, Maharashtra" }, "geometry": { "type": "Point", "coordinates": [ 73.8472005, 18.4596366 ] } },
{ "type": "Feature", "properties": { "ccd_name": "Others (Water Supply)", "com_location": "shikShaka ka   naM 3 sonAI shALA javaLa bhekarAInagara phurasuMgI  411308, Pune, Maharashtra" }, "geometry": { "type": "Point", "coordinates": [ 73.9521468, 18.4819581 ] } },
{ "type": "Feature", "properties": { "ccd_name": "Pipeline/Valve Leakage of PMC line", "com_location": "sarve naMbara 570 AMbeDakara nagara mArkeTa yArDa gallI naMbara 7 chyA samora , Pune, Maharashtra" }, "geometry": { "type": "Point", "coordinates": [ 73.8660125, 18.483847 ] } },
{ "type": "Feature", "properties": { "ccd_name": "Providing / repairing of storm water chamber and cover", "com_location": "Mr DY store summer City Pride Residency shamra shamra Vitthal Bank samor  Salunke Vihar Road Kondwa Khurd Pune 411048" }, "geometry": { "type": "Point", "coordinates": [ 73.8954726, 18.4814586 ] } },
{ "type": "Feature", "properties": { "ccd_name": "Providing / repairing of storm water chamber and cover", "com_location": "adhikArI nivAsasthAne rAja bhavana auMdha kaDUna  puNe vidyApITha kaDe yeNARyA lena " }, "geometry": { "type": "Point", "coordinates": [ 73.8786239, 18.5246091 ] } },
{ "type": "Feature", "properties": { "ccd_name": "Low water pressure to Individual", "com_location": "43 privet drive co-op housing society, opp Rabindranath Tagore School, Balewadi-45, Pune, Maharashtra" }, "geometry": { "type": "Point", "coordinates": [ 73.7722393, 18.5733869 ] } },
{ "type": "Feature", "properties": { "ccd_name": "Providing / repairing of storm water chamber and cover", "com_location": "saMchetI chauka,Federal bank samora,PUNE\r\n18 31'45.0\"N 73 51'09.3\"E" }, "geometry": { "type": "Point", "coordinates": [ 73.8786239, 18.5246091 ] } },
{ "type": "Feature", "properties": { "ccd_name": "Providing / repairing of storm water chamber and cover", "com_location": "sarvhe naMbara 15 AMbegAva paThAra lena naMbara 3 vighnahartA nagara vighnahartA Ta vara samorIla cheMbara che , Pune, Maharashtra" }, "geometry": { "type": "Point", "coordinates": [ 73.8668996, 18.4457684 ] } },
{ "type": "Feature", "properties": { "ccd_name": "NO water Supply", "com_location": "E-Building, SOBHA ORION, Kondhwa, Pune, Maharashtra 411048, India" }, "geometry": { "type": "Point", "coordinates": [ 73.895996, 18.46376 ] } },
{ "type": "Feature", "properties": { "ccd_name": "Unauthorised / Uncovered water storage tanks", "com_location": "Koregaon Park North Main Road  Behind Zudio Pune \r\nFront Of Rajput Dairy " }, "geometry": { "type": "Point", "coordinates": [ 73.8996622, 18.539409 ] } },
{ "type": "Feature", "properties": { "ccd_name": "Pipeline/Valve Leakage of PMC line", "com_location": "in Wadgaon Budruk, Sinhagad Engineering college road, , Pune, Maharashtra" }, "geometry": { "type": "Point", "coordinates": [ 73.836784, 18.4679772 ] } },
{ "type": "Feature", "properties": { "ccd_name": "NO water Supply", "com_location": "Oxford Elegance Apartments , Pune, Maharashtra" }, "geometry": { "type": "Point", "coordinates": [ 73.9015019, 18.481745 ] } },
{ "type": "Feature", "properties": { "ccd_name": "NO water Supply", "com_location": "sanjay park,airport road , pune" }, "geometry": { "type": "Point", "coordinates": [ 73.8976485, 18.5691028 ] } },
{ "type": "Feature", "properties": { "ccd_name": "Others (Water Supply)", "com_location": "vAgholI tIla society, Pune, Maharashtra" }, "geometry": { "type": "Point", "coordinates": [ 73.9787063, 18.5807719 ] } },
{ "type": "Feature", "properties": { "ccd_name": "NO water Supply", "com_location": "39  gAyakavADa ha spiTala lena  naMbara vana sarasvatI ka mpleksa shiMde vastI keshavanagara puNe 411036" }, "geometry": { "type": "Point", "coordinates": [ 73.914672, 18.516882 ] } },
{ "type": "Feature", "properties": { "ccd_name": "Providing / repairing of storm water chamber and cover", "com_location": "yeravaDA prabhAga kraM 6 shani ALI devakarAchI chALa, Pune, Maharashtra" }, "geometry": { "type": "Point", "coordinates": [ 73.884896, 18.5475 ] } },
{ "type": "Feature", "properties": { "ccd_name": "Pipeline/Valve Leakage of PMC line", "com_location": "Shukrawar Peth Nehru Chowk Ghar No 808 chya societichya parking pudhe Dr.kotnis Hospital chya mage.Gadikhana hospital mage , Pune, Maharashtra" }, "geometry": { "type": "Point", "coordinates": [ 73.857973, 18.511847 ] } },
{ "type": "Feature", "properties": { "ccd_name": "Providing / repairing of storm water chamber and cover", "com_location": "Sr. No. 8 Char Nal Pune - Saswad Road Satavwadi Hadapsar" }, "geometry": { "type": "Point", "coordinates": [ 73.9492128, 18.4912774 ] } },
{ "type": "Feature", "properties": { "ccd_name": "Clearing Water Logging on Road", "com_location": "Shankar maharaj math bridge both sides,pune satara road,pune" }, "geometry": { "type": "Point", "coordinates": [ 73.8573179, 18.4706803 ] } },
{ "type": "Feature", "properties": { "ccd_name": "Clearing Water Logging on Road", "com_location": "On. 411009.Sahakar  Babar 1.Tangewala society.(Gangs Fifth. GHI { Building}. Gate.\r\nSahakar nagar No.1.Tangewala society,GHI. Building Gate., Pune, Maharashtra" }, "geometry": { "type": "Point", "coordinates": [ 73.8519195, 18.483954 ] } },
{ "type": "Feature", "properties": { "ccd_name": "Providing / repairing of storm water chamber and cover", "com_location": "Chal No.03 Back Side Ambeel Road PMC Colony, Sadashiv Peth Pune Next to Swami Samarth Math" }, "geometry": { "type": "Point", "coordinates": [ 73.8520533, 18.5384519 ] } },
{ "type": "Feature", "properties": { "ccd_name": "Pipeline/Valve Leakage of PMC line", "com_location": "sa naM 12 lakShmI nagara yeravaDA lena naM 18 19 20 , Pune, Maharashtra" }, "geometry": { "type": "Point", "coordinates": [ 73.8836809, 18.5494253 ] } },
{ "type": "Feature", "properties": { "ccd_name": "NO water Supply", "com_location": " New Era socy bibvewadi nr. Gangadham Pune 37" }, "geometry": { "type": "Point", "coordinates": [ 73.8734461, 18.4812328 ] } },
{ "type": "Feature", "properties": { "ccd_name": "NO water Supply", "com_location": "Galli no.3 patil estet Shivangi nagar, Pune, Maharashtra" }, "geometry": { "type": "Point", "coordinates": [ 73.8547709, 18.5329125 ] } },
{ "type": "Feature", "properties": { "ccd_name": "Clearing Water Logging on Road", "com_location": " kAtraja te koMDavA roDa shiva shaMbhU nagara gallI 2,3 ANi mena roDa , Pune, Maharashtra" }, "geometry": { "type": "Point", "coordinates": [ 73.8473682, 18.4893987 ] } },
{ "type": "Feature", "properties": { "ccd_name": "NO water Supply", "com_location": "in Maharashtra Housing board Yerwada area  , Pune, Maharashtra" }, "geometry": { "type": "Point", "coordinates": [ 73.8955645, 18.5598742 ] } },
{ "type": "Feature", "properties": { "ccd_name": "NO water Supply", "com_location": "PLOTNO 16 B RAJIV NAGAR SOUTH VIMAN NAGAR PUNE 14 " }, "geometry": { "type": "Point", "coordinates": [ 73.9150395, 18.5698535 ] } },
{ "type": "Feature", "properties": { "ccd_name": "Pipeline/Valve Leakage of PMC line", "com_location": "opposite konark pooram , near bikaner sweets , kondhwa Kh , pune 411048" }, "geometry": { "type": "Point", "coordinates": [ 73.8893023, 18.4725368 ] } },
{ "type": "Feature", "properties": { "ccd_name": "Others (Water Supply)", "com_location": "parvatI gAva purohita ha spiTala, Pune, Maharashtra" }, "geometry": { "type": "Point", "coordinates": [ 73.854679, 18.4923126 ] } },
{ "type": "Feature", "properties": { "ccd_name": "Water Flowing / wastage", "com_location": "ghule pArka gopAlapaTTI mAMjarI yethe rahAto| phla.cTa naMbara 201|ANi sarve naMbara 101, Pune, Maharashtra" }, "geometry": { "type": "Point", "coordinates": [ 73.945505, 18.528299 ] } },
{ "type": "Feature", "properties": { "ccd_name": "Pipeline/Valve Leakage of PMC line", "com_location": "Mitra Mandal Chowk, near Sarasbag, Parvati, Mitra Mandal Colony, Parvati Paytha, Pune, Maharashtra 411009" }, "geometry": { "type": "Point", "coordinates": [ 73.8537567, 18.5026501 ] } },
{ "type": "Feature", "properties": { "ccd_name": "Providing / repairing of storm water chamber and cover", "com_location": "paMchamI chauka svArageTa kaDe jANAr{}yA BRT mArgAta,pune" }, "geometry": { "type": "Point", "coordinates": [ 73.8786239, 18.5246091 ] } },
{ "type": "Feature", "properties": { "ccd_name": "Others (Water Supply)", "com_location": "dhAbaDI, AMbegAva budrUka  rAjalakShmI resiDensI, Pune, Maharashtra" }, "geometry": { "type": "Point", "coordinates": [ 73.828791400000014, 18.4596325 ] } },
{ "type": "Feature", "properties": { "ccd_name": "Contamination / Turbid Water Problem", "com_location": "flot no-21,icchatrupti housing society, ganesh nagar vadgaon sheri, near by anand park bus stop., Pune, Maharashtra" }, "geometry": { "type": "Point", "coordinates": [ 73.9262459, 18.55228 ] } },
{ "type": "Feature", "properties": { "ccd_name": "No water supply in public toilet(s)", "com_location": "Bramha Suncity Wadgaon Sheri Pune 411014" }, "geometry": { "type": "Point", "coordinates": [ 73.9194148, 18.5471071 ] } },
{ "type": "Feature", "properties": { "ccd_name": "Cleaning of strom water chamber and nalla", "com_location": "archanA kohinUra glorI sosAyaTI ,klAUDa nAIna sosAyaTI  sainika vihAra puDhe sarve naMbara 37 mohammada vADI ena Aya bI ema  ena eksa  , puNe  411060\t" }, "geometry": { "type": "Point", "coordinates": [ 73.9102857, 18.5049557 ] } },
{ "type": "Feature", "properties": { "ccd_name": "Pipeline/Valve Leakage of PMC line", "com_location": "Sr no-16/01, shrikantview society to Sai siddhi chouk, near by ambegaon budruk-411046, Pune, Maharashtra" }, "geometry": { "type": "Point", "coordinates": [ 73.8306278, 18.456677 ] } },
{ "type": "Feature", "properties": { "ccd_name": "Pipeline/Valve Leakage of PMC line", "com_location": "1963 sadAshiva peTha mADIvAle ka lanI., Pune, Maharashtra" }, "geometry": { "type": "Point", "coordinates": [ 73.8786239, 18.5246091 ] } },
{ "type": "Feature", "properties": { "ccd_name": "Clearing Water Logging on Road", "com_location": "shailesha pulAchyA kopaRyAvarUna , Pune, Maharashtra" }, "geometry": { "type": "Point", "coordinates": [ 73.8786239, 18.5246091 ] } },
{ "type": "Feature", "properties": { "ccd_name": "Water Flowing / wastage", "com_location": "sthaLa-parvatI pAyathA, Pune, Maharashtra" }, "geometry": { "type": "Point", "coordinates": [ 73.849636, 18.485861 ] } },
{ "type": "Feature", "properties": { "ccd_name": "Cleaning of strom water chamber and nalla", "com_location": "yeravaDA prabhAga kraM 6 Da  bAbAsAheba AMbeDakara hausiMga sosAyaTI ChatrapatI shAhU mahArAja signala chaukAmadhye , Pune, Maharashtra" }, "geometry": { "type": "Point", "coordinates": [ 73.8761039, 18.5355834 ] } },
{ "type": "Feature", "properties": { "ccd_name": "Pipeline/Valve Leakage of PMC line", "com_location": "411058, Rajhans Building, Baner Rd, Warje Jakat Naka, Warje, Pune, Maharashtra 411045, India" }, "geometry": { "type": "Point", "coordinates": [ 73.8069863, 18.4876108 ] } },
{ "type": "Feature", "properties": { "ccd_name": "Clearing Water Logging on Road", "com_location": "Somji chowk towards Khadi Machine chowk., Pune, Maharashtra" }, "geometry": { "type": "Point", "coordinates": [ 73.8913365, 18.4522979 ] } },
{ "type": "Feature", "properties": { "ccd_name": "Pipeline/Valve Leakage of PMC line", "com_location": "Behind sbi bank, venkatesh vihar, Lane No 1 Gokul Nagar Katraj Kondwa Road 411048, Pune, Maharashtra" }, "geometry": { "type": "Point", "coordinates": [ 73.857423, 18.4475828 ] } },
{ "type": "Feature", "properties": { "ccd_name": "NO water Supply", "com_location": "Katraj kondhwa road shivshambho nagar lane no 4 datta mandir pune 411046" }, "geometry": { "type": "Point", "coordinates": [ 73.8747982, 18.4498089 ] } },
{ "type": "Feature", "properties": { "ccd_name": "Pipeline/Valve Leakage of PMC line", "com_location": "bhekarAInagara gurudatta ka lanI shivashaktI chauka haDapasara puNe phurasuMgI puNe 412308" }, "geometry": { "type": "Point", "coordinates": [ 73.9277504, 18.4584388 ] } },
{ "type": "Feature", "properties": { "ccd_name": "Providing / repairing of storm water chamber and cover", "com_location": "svapana purtI sosAyaTI \r\ngola ghara134pI ekamukhI datta maMdIrAta mAge janatA bekarI javaLa parvatI darshana puNe 9 \r\npinakoDa 411009" }, "geometry": { "type": "Point", "coordinates": [ 73.8786239, 18.5246091 ] } },
{ "type": "Feature", "properties": { "ccd_name": "Low water pressure to Individual", "com_location": "230/15, Vidhate Colony, Nankude Vasti, Baner, Pune, Maharashtra 411007, India" }, "geometry": { "type": "Point", "coordinates": [ 73.7986207, 18.5612449 ] } },
{ "type": "Feature", "properties": { "ccd_name": "NO water Supply", "com_location": "Runwal Sinclair building, sr no-97 to97, right bhusari colony, lane no-03, kotharud pune-38" }, "geometry": { "type": "Point", "coordinates": [ 73.7934269, 18.5105884 ] } },
{ "type": "Feature", "properties": { "ccd_name": "Pipeline/Valve Leakage of PMC line", "com_location": "near londe vasti pashan,PUNE" }, "geometry": { "type": "Point", "coordinates": [ 73.801611, 18.5604658 ] } },
{ "type": "Feature", "properties": { "ccd_name": "Others (Water Supply)", "com_location": "808 Bhudhwar Peth Near Gulshe Talim Moti Chauk Pune 411002" }, "geometry": { "type": "Point", "coordinates": [ 73.8580397, 18.5158792 ] } },
{ "type": "Feature", "properties": { "ccd_name": "Pipeline/Valve Leakage of PMC line", "com_location": "richa gArDana ha TelachyA mukhya praveshadvArAchyA samorIla bAjUsa, Pune, Maharashtra" }, "geometry": { "type": "Point", "coordinates": [ 73.8786239, 18.5246091 ] } },
{ "type": "Feature", "properties": { "ccd_name": "NO water Supply", "com_location": "GVG8+5XQ, Mangalwar Peth, Somwar Peth, Pune, Maharashtra 411011, India" }, "geometry": { "type": "Point", "coordinates": [ 73.867477416992188, 18.525501251220703 ] } },
{ "type": "Feature", "properties": { "ccd_name": "NO water Supply", "com_location": "S no. 34, 1, Shejwal Park Lane No. 3, Shejwal Park, Raghavendra Nagar, Kharadi, Pune, Maharashtra 411014, India" }, "geometry": { "type": "Point", "coordinates": [ 73.9321108, 18.5534869 ] } },
{ "type": "Feature", "properties": { "ccd_name": "Contamination / Turbid Water Problem", "com_location": "kasabA peTha\" puNe 411011 " }, "geometry": { "type": "Point", "coordinates": [ 73.8610191, 18.5258965 ] } },
{ "type": "Feature", "properties": { "ccd_name": "Others (Water Supply)", "com_location": "Area fursungi, ganga nagar trimurti chowk, Pune, Maharashtra" }, "geometry": { "type": "Point", "coordinates": [ 73.9587208, 18.4823192 ] } },
{ "type": "Feature", "properties": { "ccd_name": "NO water Supply", "com_location": "borate wasti lane no 17, kharadi old mundhawa road Pune 411014." }, "geometry": { "type": "Point", "coordinates": [ 73.9289448, 18.5511836 ] } },
{ "type": "Feature", "properties": { "ccd_name": "Pipeline/Valve Leakage of PMC line", "com_location": "Sutardara Silver Crest Hill Town Road Sutardara Nagar Kothrud Pune Maharashtra India" }, "geometry": { "type": "Point", "coordinates": [ 73.8078576, 18.5170409 ] } },
{ "type": "Feature", "properties": { "ccd_name": "Providing / repairing of storm water chamber and cover", "com_location": "Amba Nagari Society Children Park Kukreja Heritage Road Anand Park Nagar Dhanori Pune Maharashtra India" }, "geometry": { "type": "Point", "coordinates": [ 73.8832779, 18.5798681 ] } },
{ "type": "Feature", "properties": { "ccd_name": "Others (Water Supply)", "com_location": "in Rukmini Nagar (Surnayug Ganesh Mandal, Lonkar Nagar, Keshav Nagar 411036), Pune, Maharashtra" }, "geometry": { "type": "Point", "coordinates": [ 73.948214, 18.527968 ] } },
{ "type": "Feature", "properties": { "ccd_name": "Providing / repairing of storm water chamber and cover", "com_location": "Outside Raheja Woods Kalyani Nagar. Nagar road kshetriya karyalay., Pune, Maharashtra" }, "geometry": { "type": "Point", "coordinates": [ 73.8981368, 18.5467738 ] } },
{ "type": "Feature", "properties": { "ccd_name": "Others (Water Supply)", "com_location": "Survey no 5 , sadashiv dangat nagar, dabhadi , ambegaon Bk, pune 411046" }, "geometry": { "type": "Point", "coordinates": [ 73.8289706, 18.460116 ] } },
{ "type": "Feature", "properties": { "ccd_name": "Water Flowing / wastage", "com_location": "In front of giant wheel shop alka talkies chowk near datta mandir pune " }, "geometry": { "type": "Point", "coordinates": [ 73.8433867, 18.5122459 ] } },
{ "type": "Feature", "properties": { "ccd_name": "Cleaning of strom water chamber and nalla", "com_location": "Address: Swami Vivekananda society near gaikwad petrol pump DP road Aundh pune 411007" }, "geometry": { "type": "Point", "coordinates": [ 73.8086325, 18.5606159 ] } },
{ "type": "Feature", "properties": { "ccd_name": "Contamination / Turbid Water Problem", "com_location": "Rane classic housing society,someshwarwadi,pashan,pune 411008." }, "geometry": { "type": "Point", "coordinates": [ 73.8032153, 18.5458106 ] } },
{ "type": "Feature", "properties": { "ccd_name": "Providing / repairing of storm water chamber and cover", "com_location": "Sahakar Nagar Parvati Paytha Pune Maharashtra India" }, "geometry": { "type": "Point", "coordinates": [ 73.8519813, 18.4846696 ] } },
{ "type": "Feature", "properties": { "ccd_name": "NO water Supply", "com_location": "prachi residency phase no 2, baner road, baner pune 411045." }, "geometry": { "type": "Point", "coordinates": [ 73.791523, 18.55832 ] } },
{ "type": "Feature", "properties": { "ccd_name": "NO water Supply", "com_location": "01, Mundhwa - Kharadi Rd, Rakshak Nagar, Kharadi, Pune, Maharashtra 411014, India" }, "geometry": { "type": "Point", "coordinates": [ 73.9386545, 18.5516284 ] } },
{ "type": "Feature", "properties": { "ccd_name": "Providing / repairing of storm water chamber and cover", "com_location": "dhAyarI narhe roDa, kailAsha jIvana kArakhAnyAjavaLa siravI janarala sToarsa samora, Pune, Maharashtra" }, "geometry": { "type": "Point", "coordinates": [ 73.8216698, 18.4459988 ] } },
{ "type": "Feature", "properties": { "ccd_name": "Contamination / Turbid Water Problem", "com_location": "101 dream home Panna society handewadi Road Indira Nagar Hadapsar 411028, Pune, Maharashtra" }, "geometry": { "type": "Point", "coordinates": [ 73.9320737, 18.4710193 ] } },
{ "type": "Feature", "properties": { "ccd_name": "Providing / repairing of storm water chamber and cover", "com_location": "vishvAvinayak hAITsa samora , saMbhAjI nagara ka lanI , benakara pArka mAge , benakara nagara ,dhAyarI gAva ,puNe 411041" }, "geometry": { "type": "Point", "coordinates": [ 73.8151978, 18.4445645 ] } },
{ "type": "Feature", "properties": { "ccd_name": "Providing / repairing of storm water chamber and cover", "com_location": "chavhANa nagara,shinimaMdirA javaLapAsa dhanakavaDI puNe." }, "geometry": { "type": "Point", "coordinates": [ 73.8546821, 18.4654546 ] } },
{ "type": "Feature", "properties": { "ccd_name": "NO water Supply", "com_location": "nagar road khandve nagar lane no 3., Pune, Maharashtra" }, "geometry": { "type": "Point", "coordinates": [ 73.9536236, 18.5734871 ] } },
{ "type": "Feature", "properties": { "ccd_name": "Others (Water Supply)", "com_location": "siMhagaDa roDa nAMdoshI gAMva marAThI  shALe javaLa ,ji, puNe tA,hAvelI pina koDa naMbara ,411024," }, "geometry": { "type": "Point", "coordinates": [ 73.8786239, 18.5246091 ] } },
{ "type": "Feature", "properties": { "ccd_name": "Providing / repairing of storm water chamber and cover", "com_location": "pAShANa susa roDa. shubhateja maMgala kAryAlaya lena/SBI ba.Nka pAShANa naMtara, kone  phisa samora ANi ma nTa vharTa evhiyana., Pune, Maharashtra" }, "geometry": { "type": "Point", "coordinates": [ 73.7923957, 18.5414267 ] } },
{ "type": "Feature", "properties": { "ccd_name": "Others (Water Supply)", "com_location": "pattA: 13 tADIvAlA roDa mArutI maMdira javaLa vikAsa mitra maMDaLa, Pune, Maharashtra" }, "geometry": { "type": "Point", "coordinates": [ 73.873548, 18.5368902 ] } },
{ "type": "Feature", "properties": { "ccd_name": "Low water pressure to Individual", "com_location": "SHIV PARK BUILDING, SHOP NO.7, PHASE-1, S.NO.78/1, OPP. ANANDI RARDEN, POST., Lonkar Ali, Mundhwa, Pune, Maharashtra 411036, India" }, "geometry": { "type": "Point", "coordinates": [ 73.932999878515659, 18.533072481170187 ] } },
{ "type": "Feature", "properties": { "ccd_name": "NO water Supply", "com_location": "103 sayantara housing society dsp vishwa dhayari pune 41" }, "geometry": { "type": "Point", "coordinates": [ 73.7970914, 18.4431058 ] } },
{ "type": "Feature", "properties": { "ccd_name": "Contamination / Turbid Water Problem", "com_location": "India park, jadhav wasti, bharat forge company road, ghorpadi gaon mundhwa pune 411036.\t" }, "geometry": { "type": "Point", "coordinates": [ 73.9041046, 18.5293393 ] } },
{ "type": "Feature", "properties": { "ccd_name": "Low water pressure to Individual", "com_location": "296/1 Behind Classic Coop Socy Nr St.Patrick's Town Hadapsar\r\nPune 411013" }, "geometry": { "type": "Point", "coordinates": [ 73.9111125, 18.5087634 ] } },
{ "type": "Feature", "properties": { "ccd_name": "Others (Water Supply)", "com_location": "Sr  kra 8/1 ka  sadAshiva dAMgaTa nagara AMbegAva budruka dabhADI 411046, Pune, Maharashtra" }, "geometry": { "type": "Point", "coordinates": [ 73.8246309, 18.4659813 ] } },
{ "type": "Feature", "properties": { "ccd_name": "Others (Water Supply)", "com_location": "Narhe , Pune, Maharashtra" }, "geometry": { "type": "Point", "coordinates": [ 73.826375, 18.4464732 ] } },
{ "type": "Feature", "properties": { "ccd_name": "NO water Supply", "com_location": "Rajhans Residency off medipoint hospital road, behinde pune people s bank aundh pune 411007" }, "geometry": { "type": "Point", "coordinates": [ 73.8014477, 18.5619278 ] } },
{ "type": "Feature", "properties": { "ccd_name": "Providing / repairing of storm water chamber and cover", "com_location": "Vascon Mariplex Mall, Sy No 15, Gr Floor, Marigold Complex Wadgaon Sheri, Kalyani Nagar, Pune, Maharashtra 411015" }, "geometry": { "type": "Point", "coordinates": [ 73.9078172, 18.5427375 ] } },
{ "type": "Feature", "properties": { "ccd_name": "Clearing Water Logging on Road", "com_location": "Passport office to mundhwa road , PMC Bus stop , kachre wasti , pune 411036 " }, "geometry": { "type": "Point", "coordinates": [ 73.923317, 18.53372 ] } },
{ "type": "Feature", "properties": { "ccd_name": "NO water Supply", "com_location": "mahAvIra resiDensI apojiTa svAmI vivekAnaMda gArDana shAMtInagara ba.ckasAIDa koMDhavA budruka  411046, Pune, Maharashtra" }, "geometry": { "type": "Point", "coordinates": [ 73.859549, 18.4321722 ] } },
{ "type": "Feature", "properties": { "ccd_name": "Contamination / Turbid Water Problem", "com_location": "Saad Society Manaji Nagar Nahre Pune 411041" }, "geometry": { "type": "Point", "coordinates": [ 73.8239226, 18.4527749 ] } },
{ "type": "Feature", "properties": { "ccd_name": "Pipeline/Valve Leakage of PMC line", "com_location": "on ITI Road near Reliance Digital. , Pune, Maharashtra" }, "geometry": { "type": "Point", "coordinates": [ 73.8092198, 18.5553894 ] } },
{ "type": "Feature", "properties": { "ccd_name": "NO water Supply", "com_location": "lena kra 3 janatA vasAhata parvatI puNe" }, "geometry": { "type": "Point", "coordinates": [ 73.8437529, 18.4970619 ] } },
{ "type": "Feature", "properties": { "ccd_name": "Providing / repairing of storm water chamber and cover", "com_location": "Maji Sainik Nagar Mohanwadi Yerawada Pune Maharashtra India" }, "geometry": { "type": "Point", "coordinates": [ 73.8823351, 18.5702448 ] } },
{ "type": "Feature", "properties": { "ccd_name": "NO water Supply", "com_location": "shevantha apartment kirti nagar wadgoan budruk Pune - 411041." }, "geometry": { "type": "Point", "coordinates": [ 73.8224241, 18.4652955 ] } },
{ "type": "Feature", "properties": { "ccd_name": "Water Flowing / wastage", "com_location": "66, near Marathi Bana, Upper Indira Nagar, Bibwewadi, Pune, Maharashtra 411037, India" }, "geometry": { "type": "Point", "coordinates": [ 73.8643839, 18.4660525 ] } },
{ "type": "Feature", "properties": { "ccd_name": "Unauthorised tapping of water connection/Water Theft", "com_location": "unique lejecy Grand Society b1302 near Renuka mata mandir road Hanuman Nagar Keshav Nagar mundwa 36, Pune, Maharashtra" }, "geometry": { "type": "Point", "coordinates": [ 73.9457584, 18.5326488 ] } },
{ "type": "Feature", "properties": { "ccd_name": "Water Flowing / wastage", "com_location": "bitwise chowk kia showroom samor highway chya ground tonnel chya ethe baner , Pune, Maharashtra" }, "geometry": { "type": "Point", "coordinates": [ 73.770486, 18.557035 ] } },
{ "type": "Feature", "properties": { "ccd_name": "Providing / repairing of storm water chamber and cover", "com_location": "pattA: sarve naMbara 41/2, siddhivinAyaka ka lanI, keshavanagara muMDhavA puNe 411036." }, "geometry": { "type": "Point", "coordinates": [ 73.9525145, 18.5340692 ] } },
{ "type": "Feature", "properties": { "ccd_name": "Contamination / Turbid Water Problem", "com_location": "Dhayri lane b10 pune " }, "geometry": { "type": "Point", "coordinates": [ 73.8112043, 18.4513726 ] } },
{ "type": "Feature", "properties": { "ccd_name": "Unauthorised tapping of water connection/Water Theft", "com_location": "CTS-1786, house- 215,Navi khadki,Yerwada,pune" }, "geometry": { "type": "Point", "coordinates": [ 73.8859014, 18.5496924 ] } },
{ "type": "Feature", "properties": { "ccd_name": "Pipeline/Valve Leakage of PMC line", "com_location": " opp Nandu Hall Main entry\r\nBehind PGKM school\r\nKakade Wasti road Kondhwa Bk , Pune, Maharashtra" }, "geometry": { "type": "Point", "coordinates": [ 73.8778193, 18.4640864 ] } },
{ "type": "Feature", "properties": { "ccd_name": "Providing / repairing of storm water chamber and cover", "com_location": "mitra maMDaLa chaukAtIla AtIla grAuMDa chyA bAjUlA, 411009.\r\n, Pune, Maharashtra" }, "geometry": { "type": "Point", "coordinates": [ 73.8447742, 18.4718651 ] } },
{ "type": "Feature", "properties": { "ccd_name": "Pipeline/Valve Leakage of PMC line", "com_location": "Whispering Wind phase  Baner  Pashan Link Road Pashan Pune Maharashtra India" }, "geometry": { "type": "Point", "coordinates": [ 73.7948219, 18.549298 ] } },
{ "type": "Feature", "properties": { "ccd_name": "Providing / repairing of storm water chamber and cover", "com_location": "Sarrja Restaurant Opposite Zensar IT Park Kharadi Pune 411014" }, "geometry": { "type": "Point", "coordinates": [ 73.942619, 18.5494369 ] } },
{ "type": "Feature", "properties": { "ccd_name": "Others (Water Supply)", "com_location": "Survey No. 138 Flex Season Mall Magarpatta Road Hadapsar Pune" }, "geometry": { "type": "Point", "coordinates": [ 73.9238445, 18.5119134 ] } },
{ "type": "Feature", "properties": { "ccd_name": "NO water Supply", "com_location": "Flat no B101 , TCG panorama , ambegaon , Bk ,pune 411046" }, "geometry": { "type": "Point", "coordinates": [ 73.8393303, 18.4533298 ] } },
{ "type": "Feature", "properties": { "ccd_name": "Others (Water Supply)", "com_location": "near sumna aanghan society, Kolhewadi, Kirkatwadi, 411024, Pune, Maharashtra" }, "geometry": { "type": "Point", "coordinates": [ 73.7871378, 18.4410735 ] } },
{ "type": "Feature", "properties": { "ccd_name": "Clearing Water Logging on Road", "com_location": "bhairavanagara yethIla Da . bAbAsAheba AMbeDakara shALechyA samorIla rastyAvara , Pune, Maharashtra" }, "geometry": { "type": "Point", "coordinates": [ 73.8786239, 18.5246091 ] } },
{ "type": "Feature", "properties": { "ccd_name": "NO water Supply", "com_location": "Balaji heights building front side,bidi kamgar vasahat, pune 411014." }, "geometry": { "type": "Point", "coordinates": [ 73.932292, 18.55716 ] } },
{ "type": "Feature", "properties": { "ccd_name": "NO water Supply", "com_location": "Dinkar, 1, Eknath Pathare Vasti, Pune, Maharashtra 411014, India" }, "geometry": { "type": "Point", "coordinates": [ 73.9323218, 18.5607992 ] } },
{ "type": "Feature", "properties": { "ccd_name": "Pipeline/Valve Leakage of PMC line", "com_location": "muMDhavyAta mahAtmA phule chaukAtanaM keshavanagara kaDe jAtAnA badhe vastI 411036, Pune, Maharashtra" }, "geometry": { "type": "Point", "coordinates": [ 73.9596018, 18.5888588 ] } },
{ "type": "Feature", "properties": { "ccd_name": "Water Flowing / wastage", "com_location": "Greeneria Icon Renuka Nagar Lane number 3 Warje Pune" }, "geometry": { "type": "Point", "coordinates": [ 73.793641, 18.4916901 ] } },
{ "type": "Feature", "properties": { "ccd_name": "Cleaning of strom water chamber and nalla", "com_location": "vrundavan park mahatma society kothrud pune 411038" }, "geometry": { "type": "Point", "coordinates": [ 73.8001826, 18.4998864 ] } },
{ "type": "Feature", "properties": { "ccd_name": "Providing / repairing of storm water chamber and cover", "com_location": "Dekkana basa sTa pa shejArI bhiDe brija roDa Pune 4 " }, "geometry": { "type": "Point", "coordinates": [ 73.8786239, 18.5246091 ] } },
{ "type": "Feature", "properties": { "ccd_name": "Pipeline/Valve Leakage of PMC line", "com_location": "front of Maitry hotel, sinhgad since  college road vadgaon bk, Pune, Maharashtra" }, "geometry": { "type": "Point", "coordinates": [ 73.8312727, 18.4770395 ] } },
{ "type": "Feature", "properties": { "ccd_name": "Water Flowing / wastage", "com_location": "konark nagar society in Vimanagar pune" }, "geometry": { "type": "Point", "coordinates": [ 73.9132023, 18.5671724 ] } },
{ "type": "Feature", "properties": { "ccd_name": "Others (Water Supply)", "com_location": "pattA - 374 shanivAra peTha , puraMdare vADA , \r\nkAgada gallI , puNe -411030" }, "geometry": { "type": "Point", "coordinates": [ 73.8483963, 18.5170811 ] } },
{ "type": "Feature", "properties": { "ccd_name": "NO water Supply", "com_location": "phurasuMgIgAva  sarode nagara madhye , Pune, Maharashtra" }, "geometry": { "type": "Point", "coordinates": [ 73.9796972, 18.4738945 ] } },
{ "type": "Feature", "properties": { "ccd_name": "Cleaning of strom water chamber and nalla", "com_location": "Bharat cinema to ADcamp chowk, Pune, Maharashtra" }, "geometry": { "type": "Point", "coordinates": [ 73.8786239, 18.5246091 ] } },
{ "type": "Feature", "properties": { "ccd_name": "Providing / repairing of storm water chamber and cover", "com_location": "meMTala ka rnara ALaMdI roDa yeravaDA puNe 06" }, "geometry": { "type": "Point", "coordinates": [ 73.8783213, 18.5664342 ] } },
{ "type": "Feature", "properties": { "ccd_name": "Providing / repairing of storm water chamber and cover", "com_location": "pai. khAshAbA jAdhava krIDAMgaNa. \r\nrAmabhAU kAMbaLe patha., Pune, Maharashtra" }, "geometry": { "type": "Point", "coordinates": [ 73.8524541, 18.4785854 ] } },
{ "type": "Feature", "properties": { "ccd_name": "Providing / repairing of storm water chamber and cover", "com_location": "45 Icon main gate BANER near Vijay sales 411045, Pune, Maharashtra" }, "geometry": { "type": "Point", "coordinates": [ 73.7969981, 18.554563 ] } },
{ "type": "Feature", "properties": { "ccd_name": "Water Flowing / wastage", "com_location": "Majestique Memorie, wadkar mala, mohamdhwadi, hadpsar-28, Pune, Maharashtra" }, "geometry": { "type": "Point", "coordinates": [ 73.9257181, 18.4790934 ] } },
{ "type": "Feature", "properties": { "ccd_name": "NO water Supply", "com_location": "katraj kondhwa road,shivshambho nagar  galli no 1,pune 411046." }, "geometry": { "type": "Point", "coordinates": [ 73.8747982, 18.4498089 ] } },
{ "type": "Feature", "properties": { "ccd_name": "NO water Supply", "com_location": "Survey Number -13, Rahul plot, Laxminarayan Colony, Satavwadi, Hadapsar, Pune, Maharashtra 411028, India" }, "geometry": { "type": "Point", "coordinates": [ 73.947379, 18.4965668 ] } },
{ "type": "Feature", "properties": { "ccd_name": "Pipeline/Valve Leakage of PMC line", "com_location": "pattA: -  junA dattanagara roDa, gallI kramAMka 5, DIlAITa bekarI javaLa. kAtraja. puNe - 411046\r\n" }, "geometry": { "type": "Point", "coordinates": [ 73.865238, 18.4529322 ] } },
{ "type": "Feature", "properties": { "ccd_name": "Clearing Water Logging on Road", "com_location": "https://maps.app.goo.gl/J7LRBK9TmHV16vhp7, Pune, Maharashtra" }, "geometry": { "type": "Point", "coordinates": [ 73.8786239, 18.5246091 ] } },
{ "type": "Feature", "properties": { "ccd_name": "Others (Water Supply)", "com_location": "Map :- Flat No. 06, Muktai Angan , Sai Mandir, Katraj - Ambegaon BK Rd, Dalavi Nagar, Ambegaon Budruk, Pune, Maharashtra 411046" }, "geometry": { "type": "Point", "coordinates": [ 73.8386503, 18.4510737 ] } },
{ "type": "Feature", "properties": { "ccd_name": "Others (Water Supply)", "com_location": "Plot 49+50, off, NIBM Post Office Rd, Nanak Society, Salunkhe Vihar Society, Kondhwa, Pune, Maharashtra 411048, India" }, "geometry": { "type": "Point", "coordinates": [ 73.9024083, 18.4788356 ] } },
{ "type": "Feature", "properties": { "ccd_name": "Unauthorised tapping of water connection/Water Theft", "com_location": "Sr. No. 5, Hissa 2/3, Opp Zensar, Kharadi, Pune" }, "geometry": { "type": "Point", "coordinates": [ 73.9425951, 18.536592 ] } },
{ "type": "Feature", "properties": { "ccd_name": "Others (Water Supply)", "com_location": "PARK LANE URBAN JOY , THAKSEN NAGAR, NEAR SUS HOSPITAL, SUS PUNE - 411021." }, "geometry": { "type": "Point", "coordinates": [ 73.7500633, 18.5540434 ] } },
{ "type": "Feature", "properties": { "ccd_name": "Low water pressure to Individual", "com_location": "Nirmal Niwas Sutarwadi Depo Sus Road 411021, Pune, Maharashtra" }, "geometry": { "type": "Point", "coordinates": [ 73.7825067, 18.5440246 ] } },
{ "type": "Feature", "properties": { "ccd_name": "Pipeline/Valve Leakage of PMC line", "com_location": "446  Shukrawar Peth \r\nShukratara Society  \r\nShivaji Road  \r\nPune 411002" }, "geometry": { "type": "Point", "coordinates": [ 73.8581822, 18.5057016 ] } },
{ "type": "Feature", "properties": { "ccd_name": "NO water Supply", "com_location": "80, Mountain View Society Rd, Shivaji Co operative Housing Society, Janwadi, Gokhalenagar, Pune, Maharashtra 411016, India" }, "geometry": { "type": "Point", "coordinates": [ 73.8269863, 18.5341251 ] } },
{ "type": "Feature", "properties": { "ccd_name": "NO water Supply", "com_location": "shivashaMbhU nagara gallI kramAMka chAra kAtraja koMDhavA roDa niyara datta maMdira niyara sAtapute ,parachuMDe ANi moThe hAUsa , Pune, Maharashtra" }, "geometry": { "type": "Point", "coordinates": [ 73.8786239, 18.5246091 ] } },
{ "type": "Feature", "properties": { "ccd_name": "Stopping leakage of drainage water in Nalla / River", "com_location": "Lake Town Co-Op Hsg Society, KATRAJ LAKE, adjacent to Rajiv Gandhi Park, Katraj,  AMBIL VADA, / Nall, Pune, Maharashtra" }, "geometry": { "type": "Point", "coordinates": [ 73.8607977, 18.4524807 ] } },
{ "type": "Feature", "properties": { "ccd_name": "Clearing Water Logging on Road", "com_location": "Behind Balaji Mandir Ghorpadi Pune 411001 Near Parkland Homes " }, "geometry": { "type": "Point", "coordinates": [ 73.9045069, 18.5228449 ] } },
{ "type": "Feature", "properties": { "ccd_name": "Pipeline/Valve Leakage of PMC line", "com_location": "Address\r\nOpposite Hadapsar Railway station,\r\nJadhav vasti,\r\nInfront of Venkatesh Flora society gate.\r\nMundhwa., Pune, Maharashtra" }, "geometry": { "type": "Point", "coordinates": [ 73.9295526, 18.5284373 ] } },
{ "type": "Feature", "properties": { "ccd_name": "Pipeline/Valve Leakage of PMC line", "com_location": " Model colony behind  Govt Polytechnique, Pune, Maharashtra" }, "geometry": { "type": "Point", "coordinates": [ 73.8374954, 18.5324846 ] } },
{ "type": "Feature", "properties": { "ccd_name": "Pipeline/Valve Leakage of PMC line", "com_location": "narayan peth pune popular house 638 narayan peth appa balwant chouk opposite d s k chintamani pune " }, "geometry": { "type": "Point", "coordinates": [ 73.85258, 18.51612 ] } },
{ "type": "Feature", "properties": { "ccd_name": "Water Flowing / wastage", "com_location": "PIN code 412308 . Homes nearby   sahjeevan Society lane no A5  are having this problem of water leaking regularly, Pune, Maharashtra" }, "geometry": { "type": "Point", "coordinates": [ 73.9106479, 18.5370509 ] } },
{ "type": "Feature", "properties": { "ccd_name": "NO water Supply", "com_location": "Kalpataru Jade residences Baner, Pune, Maharashtra" }, "geometry": { "type": "Point", "coordinates": [ 73.7856599, 18.5549468 ] } },
{ "type": "Feature", "properties": { "ccd_name": "NO water Supply", "com_location": "Jahangir nagar hadapasar pune 13" }, "geometry": { "type": "Point", "coordinates": [ 73.9346733, 18.5009043 ] } },
{ "type": "Feature", "properties": { "ccd_name": "Clearing Water Logging on Road", "com_location": "Wagholi  use Bawdi Road Pune " }, "geometry": { "type": "Point", "coordinates": [ 73.9883057, 18.5854884 ] } },
{ "type": "Feature", "properties": { "ccd_name": "NO water Supply", "com_location": "sai nagar galli no 8 kondhwa bk. pune " }, "geometry": { "type": "Point", "coordinates": [ 73.882904, 18.4694311 ] } },
{ "type": "Feature", "properties": { "ccd_name": "Contamination / Turbid Water Problem", "com_location": "arnavaz villa, shivneri nagar, galli no 1,near pitashree ashram, kondhawa kkhurd Pune- 411048." }, "geometry": { "type": "Point", "coordinates": [ 73.8851905, 18.4731545 ] } },
{ "type": "Feature", "properties": { "ccd_name": "NO water Supply", "com_location": "saMketa pArka naMbara dona vADakara maLA mohammada vADI uMDrI roDa 411060, Pune, Maharashtra" }, "geometry": { "type": "Point", "coordinates": [ 73.9205697, 18.460334 ] } },
{ "type": "Feature", "properties": { "ccd_name": "Providing / repairing of storm water chamber and cover", "com_location": "ToLa ha spiTalachyA chaukAtUna puDhe jANArA roDa posTa  phisa va sahyAdrI kaDe jAto tyA roDachyA madhye DAvyA sAIDache  , Pune, Maharashtra" }, "geometry": { "type": "Point", "coordinates": [ 73.8185255, 18.4469134 ] } },
{ "type": "Feature", "properties": { "ccd_name": "Water Flowing / wastage", "com_location": "Lunkad heritage 1 Viman Nagar 411014. , Pune, Maharashtra" }, "geometry": { "type": "Point", "coordinates": [ 73.9131104, 18.5677947 ] } },
{ "type": "Feature", "properties": { "ccd_name": "Pipeline/Valve Leakage of PMC line", "com_location": "nikAsha la nsa sosAyaTI samora, vAkeshvara chauka, susa roDa, pAShANa. kumAra shAMtiniketana sAIDa, Pune, Maharashtra" }, "geometry": { "type": "Point", "coordinates": [ 73.9531189, 18.5646495 ] } },
{ "type": "Feature", "properties": { "ccd_name": "Providing / repairing of storm water chamber and cover", "com_location": "pattA rAjamAtA jijAU chauka, shanivAra vADA lAla mahAla chauka puNe." }, "geometry": { "type": "Point", "coordinates": [ 73.8786239, 18.5246091 ] } },
{ "type": "Feature", "properties": { "ccd_name": "Providing / repairing of storm water chamber and cover", "com_location": "Katraj Pune Maharashtra India" }, "geometry": { "type": "Point", "coordinates": [ 73.865238, 18.4529322 ] } },
{ "type": "Feature", "properties": { "ccd_name": "NO water Supply", "com_location": "lena naMA2, sarve naM 203, gaNesha nagara, sADesatarA naLI, haDapasara, puNe 411028" }, "geometry": { "type": "Point", "coordinates": [ 73.9439523, 18.5346484 ] } },
{ "type": "Feature", "properties": { "ccd_name": "Clearing Water Logging on Road", "com_location": "Delhi Public School and Neco Beaumont Housing Society Nyati County, Pune, Maharashtra" }, "geometry": { "type": "Point", "coordinates": [ 73.9257765, 18.4601492 ] } },
{ "type": "Feature", "properties": { "ccd_name": "NO water Supply", "com_location": "Newton Homes Tupe Patil Road Malwadi Hadapsar Pune Maharashtra India" }, "geometry": { "type": "Point", "coordinates": [ 73.935064400000016, 18.5097998 ] } },
{ "type": "Feature", "properties": { "ccd_name": "Pipeline/Valve Leakage of PMC line", "com_location": "shrI mehatA yAMchyA kRRiShNa-vijaya baMgalyAsamorIla rastA, peshave udyAna saha. gRRiharachanA saMsthA maryAdita, 2163-ba, sadAshiva peTha, nilAyama chitrapaTa gRRihAshejArI, puNe -411030." }, "geometry": { "type": "Point", "coordinates": [ 73.8786239, 18.5246091 ] } },
{ "type": "Feature", "properties": { "ccd_name": "Providing / repairing of storm water chamber and cover", "com_location": "narapatagirI chauka yethe narapatagirI polIsa chaukIchyA samora, Pune, Maharashtra" }, "geometry": { "type": "Point", "coordinates": [ 73.8786239, 18.5246091 ] } },
{ "type": "Feature", "properties": { "ccd_name": "Contamination / Turbid Water Problem", "com_location": "Map:- 18 33'19.4\"N 73 55'24.4\"E\r\nShop no 1, Mulani corner, Sainath society, near Fatima Masjid, Somnath Nagar, Wadgaon Sheri, Pune, Maharashtra 411014" }, "geometry": { "type": "Point", "coordinates": [ 73.9233585, 18.5554458 ] } },
{ "type": "Feature", "properties": { "ccd_name": "Removal / Installation of new water meters", "com_location": "Kumar Sahawas, Near Ojas Society, Baner Pashan Link Road, Pashan, Pune -411021" }, "geometry": { "type": "Point", "coordinates": [ 73.793313, 18.5482884 ] } },
{ "type": "Feature", "properties": { "ccd_name": "NO water Supply", "com_location": "Near morebaug,sawant vihar,katraj,pune 411046." }, "geometry": { "type": "Point", "coordinates": [ 73.858288, 18.449426 ] } },
{ "type": "Feature", "properties": { "ccd_name": "Clearing Water Logging on Road", "com_location": "Dhanurdhari Society behind Ganesh Market, Gultekdi Mkt Yard \r\nPune 411037" }, "geometry": { "type": "Point", "coordinates": [ 73.8727039, 18.4811591 ] } },
{ "type": "Feature", "properties": { "ccd_name": "Others (Water Supply)", "com_location": "Wagholi is merge into the PMC,, Pune, Maharashtra" }, "geometry": { "type": "Point", "coordinates": [ 73.9787063, 18.5807719 ] } },
{ "type": "Feature", "properties": { "ccd_name": "Low water pressure to Individual", "com_location": "409 shanivar peth front off nidhi hotel ,pune-411030 " }, "geometry": { "type": "Point", "coordinates": [ 73.8517024, 18.5172648 ] } },
{ "type": "Feature", "properties": { "ccd_name": "Pipeline/Valve Leakage of PMC line", "com_location": "saMta rAmadAsa svAmI prAthamika shALA manapA shALA kramAMka 42 bI 37 bI kannaDa pAMDava nagara puNe 16" }, "geometry": { "type": "Point", "coordinates": [ 73.8356575, 18.5262039 ] } },
{ "type": "Feature", "properties": { "ccd_name": "NO water Supply", "com_location": "Sr no 29/01/2A mayuresh society,katraj kondhwa road,Opposite nikhil marble,katraj,pune 411046." }, "geometry": { "type": "Point", "coordinates": [ 73.8679867, 18.4484648 ] } },
{ "type": "Feature", "properties": { "ccd_name": "NO water Supply", "com_location": "Our society address is\r\nAnandtara whitefield Residences \r\nLonkar chowk \r\nKeshav nagar \r\nPune 411036" }, "geometry": { "type": "Point", "coordinates": [ 73.9489087, 18.5284737 ] } },
{ "type": "Feature", "properties": { "ccd_name": "NO water Supply", "com_location": "Anandtara Whitefield Residency, Lonkar chauk, Keshav Nagar, Mundhwa\t, Pune, Maharashtra" }, "geometry": { "type": "Point", "coordinates": [ 73.9489087, 18.5284737 ] } },
{ "type": "Feature", "properties": { "ccd_name": "Low water pressure to Individual", "com_location": "Plot no27, Lane no4 Rajas society Katraj Pune. " }, "geometry": { "type": "Point", "coordinates": [ 73.8636132, 18.451592 ] } },
{ "type": "Feature", "properties": { "ccd_name": "Others (Water Supply)", "com_location": "sAI maMdira AMbegAva budruka vetALa nagara roDa chaMdrabhAgA hAiTsa puNe 46" }, "geometry": { "type": "Point", "coordinates": [ 73.8246309, 18.4659813 ] } },
{ "type": "Feature", "properties": { "ccd_name": "Clearing Water Logging on Road", "com_location": "sthaLa bhUmakara brija bhUmakara nagara naRhe., Pune, Maharashtra" }, "geometry": { "type": "Point", "coordinates": [ 73.826375, 18.4464732 ] } },
{ "type": "Feature", "properties": { "ccd_name": "Pipeline/Valve Leakage of PMC line", "com_location": "MARK RESIDENCY FLAT NO 302 SR NO  46/2/1,46/3/1 PASHAN - SUS ROAD BANER BEHIND AUDI SHOWROOM  BANER 411045\r\nMOBILE - 9850377788, Pune, Maharashtra" }, "geometry": { "type": "Point", "coordinates": [ 73.7707585, 18.5485018 ] } },
{ "type": "Feature", "properties": { "ccd_name": "NO water Supply", "com_location": "yeravaDA puNe 411006 bhImAshaMkara shAsakIya vasAhata , guMjana sinemA shejArI " }, "geometry": { "type": "Point", "coordinates": [ 73.879711, 18.5529226 ] } },
{ "type": "Feature", "properties": { "ccd_name": "Others (Water Supply)", "com_location": "692/2/2/107, Prem Nagar, Market Yard, Pune, Maharashtra 411037, India" }, "geometry": { "type": "Point", "coordinates": [ 73.862661, 18.485531 ] } },
{ "type": "Feature", "properties": { "ccd_name": "Providing / repairing of storm water chamber and cover", "com_location": "Matruchaya shastri nagar chowk society, pune" }, "geometry": { "type": "Point", "coordinates": [ 73.895639, 18.552497 ] } },
{ "type": "Feature", "properties": { "ccd_name": "Pipeline/Valve Leakage of PMC line", "com_location": "55/14, Oamle Path, Shanti Sheela Society, Deccan Gymkhana, Pune, Maharashtra 411004, India" }, "geometry": { "type": "Point", "coordinates": [ 73.82832, 18.513998 ] } },
{ "type": "Feature", "properties": { "ccd_name": "Providing / repairing of storm water chamber and cover", "com_location": "samAja vikAsa vibhAga  phisa chyA bAjUlA, kulakarNI ha spiTala chyA alIkaDe, vAraje , Pune, Maharashtra" }, "geometry": { "type": "Point", "coordinates": [ 73.796834, 18.4864727 ] } },
{ "type": "Feature", "properties": { "ccd_name": "Pipeline/Valve Leakage of PMC line", "com_location": "38 aundh road khadaki pune 20 bhaupatil padal. 411020" }, "geometry": { "type": "Point", "coordinates": [ 73.8300633, 18.5588256 ] } },
{ "type": "Feature", "properties": { "ccd_name": "Low water pressure to Individual", "com_location": "FV5F+793, Sainagar, Kondhwa Budruk, Pune, Maharashtra 411046, India" }, "geometry": { "type": "Point", "coordinates": [ 73.8734881, 18.4580767 ] } },
{ "type": "Feature", "properties": { "ccd_name": "NO water Supply", "com_location": "jed residency wagholi pune nagar highway road " }, "geometry": { "type": "Point", "coordinates": [ 73.968678, 18.5770093 ] } },
{ "type": "Feature", "properties": { "ccd_name": "NO water Supply", "com_location": "shrInAtha teresa sAI nagara koMDhavA budruka puNe 411048 " }, "geometry": { "type": "Point", "coordinates": [ 73.8753525, 18.4547815 ] } },
{ "type": "Feature", "properties": { "ccd_name": "Contamination / Turbid Water Problem", "com_location": "vridavan socity ,bhosale nagar ,range hill pune-411016" }, "geometry": { "type": "Point", "coordinates": [ 73.8390318, 18.5489949 ] } },
{ "type": "Feature", "properties": { "ccd_name": "Pipeline/Valve Leakage of PMC line", "com_location": "rAjIva gAMdhI ka.cpalekasa bibavevADI , Pune, Maharashtra" }, "geometry": { "type": "Point", "coordinates": [ 73.8030937, 18.5601581 ] } },
{ "type": "Feature", "properties": { "ccd_name": "Contamination / Turbid Water Problem", "com_location": "Apeksha apartment B Kasturba B Kasturba Housing Society Vishrantwadi Pune Maharashtra India" }, "geometry": { "type": "Point", "coordinates": [ 73.881797, 18.5743538 ] } },
{ "type": "Feature", "properties": { "ccd_name": "Others (Water Supply)", "com_location": "pattA - 1053, navIna nAnA peTha, patryAchI chALa SRA bilDiMga, puNe 42 " }, "geometry": { "type": "Point", "coordinates": [ 73.8653833, 18.5144313 ] } },
{ "type": "Feature", "properties": { "ccd_name": "Contamination / Turbid Water Problem", "com_location": " nU ahiregAva, Pune, Maharashtra" }, "geometry": { "type": "Point", "coordinates": [ 73.8786239, 18.5246091 ] } },
{ "type": "Feature", "properties": { "ccd_name": "Water Flowing / wastage", "com_location": "Plot no. 83, Manali Apartment, Late Dadasaheb Dhomkar Path, Tulshibagwale Colony, Parvati Paytha, Pune, Maharashtra 411009, India" }, "geometry": { "type": "Point", "coordinates": [ 73.8427577, 18.488911 ] } },
{ "type": "Feature", "properties": { "ccd_name": "Contamination / Turbid Water Problem", "com_location": "The Leaf Society Behind Iscon Temple Yewalewadi Pune 411048" }, "geometry": { "type": "Point", "coordinates": [ 73.885705, 18.4314778 ] } },
{ "type": "Feature", "properties": { "ccd_name": "Pipeline/Valve Leakage of PMC line", "com_location": "Swachta gruh 02PT 70 , puNe mahAnagarapAlikA shauchAlaya  vishrAMtavADI sarkala alIkaDe , vimAnataLa, puNe" }, "geometry": { "type": "Point", "coordinates": [ 73.8786239, 18.5246091 ] } },
{ "type": "Feature", "properties": { "ccd_name": "Others (Water Supply)", "com_location": "638 Narayan Peth Kelkar Road Popular house society front of BCS chintamani Pune 411030" }, "geometry": { "type": "Point", "coordinates": [ 73.85258, 18.51612 ] } },
{ "type": "Feature", "properties": { "ccd_name": "NO water Supply", "com_location": " Baner road and ITI road junction in Aundh , Pune, Maharashtra" }, "geometry": { "type": "Point", "coordinates": [ 73.8094725, 18.5500342 ] } },
{ "type": "Feature", "properties": { "ccd_name": "Pipeline/Valve Leakage of PMC line", "com_location": "Main Ganeshkhind Road near sanmitra bungalow of Firodia, Pune, Maharashtra" }, "geometry": { "type": "Point", "coordinates": [ 73.8265837, 18.5445254 ] } },
{ "type": "Feature", "properties": { "ccd_name": "Pipeline/Valve Leakage of PMC line", "com_location": "FV8Q+CV6, Kondhwa, Pune, Maharashtra 411048, India" }, "geometry": { "type": "Point", "coordinates": [ 73.8895531, 18.4659331 ] } },
{ "type": "Feature", "properties": { "ccd_name": "Pipeline/Valve Leakage of PMC line", "com_location": "166 Shanivar peth, Rama Madhav Apartment, Pune 30" }, "geometry": { "type": "Point", "coordinates": [ 73.8357726, 18.5125863 ] } },
{ "type": "Feature", "properties": { "ccd_name": "Others (Water Supply)", "com_location": "648/10/1/10, Shanti Nagar Society, Chaitanya Nagar, Bibwewadi, Pune, Maharashtra 411037, India" }, "geometry": { "type": "Point", "coordinates": [ 73.8712803, 18.4618163 ] } },
{ "type": "Feature", "properties": { "ccd_name": "Others (Water Supply)", "com_location": "Prasanna Datta Temple\r\nLokamanya Nagar, Navi Peth, Sadashiv Peth, Pune, Maharashtra 411030" }, "geometry": { "type": "Point", "coordinates": [ 73.8419092, 18.5056951 ] } },
{ "type": "Feature", "properties": { "ccd_name": "NO water Supply", "com_location": "Sr no 36/1/1A, junA sAI bAbA maMdira, chaMdana nagara, kharADI, puNe 411014." }, "geometry": { "type": "Point", "coordinates": [ 73.9476257, 18.5539311 ] } },
{ "type": "Feature", "properties": { "ccd_name": "Others (Water Supply)", "com_location": "dhAyarI yethIla uMbarayA gaNapatI chauka yethe , Pune, Maharashtra" }, "geometry": { "type": "Point", "coordinates": [ 73.8101999, 18.4471444 ] } },
{ "type": "Feature", "properties": { "ccd_name": "Clearing Water Logging on Road", "com_location": "nIlUbhAU limaye sadana kra. 155 lena kra 35 e dhAyarI roDa puNe 41" }, "geometry": { "type": "Point", "coordinates": [ 73.8130728, 18.4420545 ] } },
{ "type": "Feature", "properties": { "ccd_name": "Providing / repairing of storm water chamber and cover", "com_location": "At karishma chowk, kothrud., Pune, Maharashtra" }, "geometry": { "type": "Point", "coordinates": [ 73.8229386, 18.5033094 ] } },
{ "type": "Feature", "properties": { "ccd_name": "Cleaning of strom water chamber and nalla", "com_location": "akShaya vhilA bilDiMga AshiyAnA pArka lena naMbara 2, gAyakavADa peTrola paMpa samora auMdha puNe 7\r\n\r\n" }, "geometry": { "type": "Point", "coordinates": [ 73.8786239, 18.5246091 ] } },
{ "type": "Feature", "properties": { "ccd_name": "Clearing Water Logging on Road", "com_location": "6, Aundh - Baner Link Rd, Baner, Pune, Maharashtra 411045" }, "geometry": { "type": "Point", "coordinates": [ 73.7904832, 18.5621607 ] } },
{ "type": "Feature", "properties": { "ccd_name": "Providing / repairing of storm water chamber and cover", "com_location": "kasture chauka yethUna mITha gaMja polisa chaukI kaDe jANARyA mArgAvara sva. deDagAvakara chauka, Pune, Maharashtra" }, "geometry": { "type": "Point", "coordinates": [ 73.8755148, 18.5154028 ] } },
{ "type": "Feature", "properties": { "ccd_name": "Providing / repairing of storm water chamber and cover", "com_location": "vasaMta TokIjha samora tapakIra gallI boLAta koparayAta.  , Pune, Maharashtra" }, "geometry": { "type": "Point", "coordinates": [ 73.8273, 18.514327 ] } },
{ "type": "Feature", "properties": { "ccd_name": "Pipeline/Valve Leakage of PMC line", "com_location": "Ghorpade Peth Udyan Darga Jawal Walking Track Pune" }, "geometry": { "type": "Point", "coordinates": [ 73.8662917, 18.5019469 ] } },
{ "type": "Feature", "properties": { "ccd_name": "Providing / repairing of storm water chamber and cover", "com_location": "48/1 Ichhatrupti Housing Society Ganesh Nagar Vadgaon Sheri Pune 14" }, "geometry": { "type": "Point", "coordinates": [ 73.9252534, 18.5572414 ] } },
{ "type": "Feature", "properties": { "ccd_name": "Contamination / Turbid Water Problem", "com_location": "Parmar Park Phase 1,\r\nEbony Court \r\nJambhulkar Chowk\r\nWanowrie, Pune, Maharashtra" }, "geometry": { "type": "Point", "coordinates": [ 73.9000364, 18.4936734 ] } },
{ "type": "Feature", "properties": { "ccd_name": "Contamination / Turbid Water Problem", "com_location": "Pashan Circle Pashan Gaon Pashan Pune Maharashtra India" }, "geometry": { "type": "Point", "coordinates": [ 73.7963198, 18.5377199 ] } },