{
"type": "FeatureCollection",
"name": "2025_Drainage",
"crs": { "type": "name", "properties": { "name": "urn:ogc:def:crs:OGC:1.3:CRS84" } },
"features": [
{ "type": "Feature", "properties": { "ccd_name": "Cleaning / Overflowing choked drains or manholes", "com_location": "Address aple ghar society line no 6 near by sanjivni hospital, Pune, Maharashtra" }, "geometry": { "type": "Point", "coordinates": [ 73.837314, 18.5102804 ] } },
{ "type": "Feature", "properties": { "ccd_name": "Cleaning / Overflowing choked drains or manholes", "com_location": "Marigold Phase 2 Co-op Housing Society, Marigold Premises, Kalyani Nagar, Pune" }, "geometry": { "type": "Point", "coordinates": [ 73.7619204, 18.5084361 ] } },
{ "type": "Feature", "properties": { "ccd_name": "Cleaning / Overflowing choked drains or manholes", "com_location": "Handewadi road Satav nagar, Pune, Maharashtra" }, "geometry": { "type": "Point", "coordinates": [ 73.9314736, 18.4754573 ] } },
{ "type": "Feature", "properties": { "ccd_name": "Cleaning / Overflowing choked drains or manholes", "com_location": "No 2 Gate of  Preetnagar Housing Society,  Old Mundhwa Road, Chandan Nagar, \r\nPune-411 014" }, "geometry": { "type": "Point", "coordinates": [ 73.9281184, 18.5590081 ] } },
{ "type": "Feature", "properties": { "ccd_name": "Cleaning / Overflowing choked drains or manholes", "com_location": "Lane Number  MLS Colony Dhanori Pune Maharashtra India" }, "geometry": { "type": "Point", "coordinates": [ 73.8960111, 18.5773569 ] } },
{ "type": "Feature", "properties": { "ccd_name": "Cleaning / Overflowing choked drains or manholes", "com_location": "prabhAga kramAMka 2 ekatAnagara vishrAMtavADI puNe " }, "geometry": { "type": "Point", "coordinates": [ 73.9411815, 18.4780322 ] } },
{ "type": "Feature", "properties": { "ccd_name": "Cleaning / Overflowing choked drains or manholes", "com_location": "prabhAga kramAMka 11, jaya bhavAnI nagara yethIla chALa kramAMka 13/ba , Pune, Maharashtra" }, "geometry": { "type": "Point", "coordinates": [ 73.8786239, 18.5246091 ] } },
{ "type": "Feature", "properties": { "ccd_name": "Cleaning / Overflowing choked drains or manholes", "com_location": "Ganga Park, Vanshaj Society, Pingale Wasti, Koregaon Park Annexe, Mundhwa, Pune, Maharashtra 411036, India" }, "geometry": { "type": "Point", "coordinates": [ 73.9113042, 18.5305146 ] } },
{ "type": "Feature", "properties": { "ccd_name": "Cleaning / Overflowing choked drains or manholes", "com_location": "rojharI skUla vAraje yethe tuMbalelyA gaTArAtUna pANI bAhera yeUna Aditya gArDana siTI samorIla roDavara , Pune, Maharashtra" }, "geometry": { "type": "Point", "coordinates": [ 73.8786239, 18.5246091 ] } },
{ "type": "Feature", "properties": { "ccd_name": "Cleaning / Overflowing choked drains or manholes", "com_location": "Chandan Nagar Pune Maharashtra India" }, "geometry": { "type": "Point", "coordinates": [ 73.9325552, 18.5635511 ] } },
{ "type": "Feature", "properties": { "ccd_name": "Cleaning / Overflowing choked drains or manholes", "com_location": "427 Indira nagar gultekadi market yard road pune " }, "geometry": { "type": "Point", "coordinates": [ 73.8691622, 18.4941245 ] } },
{ "type": "Feature", "properties": { "ccd_name": "Cleaning / Overflowing choked drains or manholes", "com_location": " mhasoba nagar kalepadal nr dreams akruti soc. Hadapsar, Pune, Maharashtra" }, "geometry": { "type": "Point", "coordinates": [ 73.942778800000013, 18.4788071 ] } },
{ "type": "Feature", "properties": { "ccd_name": "Cleaning / Overflowing choked drains or manholes", "com_location": "near shree hospital, gulmohar orchids society, kharadi, pune" }, "geometry": { "type": "Point", "coordinates": [ 73.9424209, 18.5514195 ] } },
{ "type": "Feature", "properties": { "ccd_name": "Cleaning / Overflowing choked drains or manholes", "com_location": "27/3/18, Somnath Nagar, Kharadi, Pune, Maharashtra 411014, India" }, "geometry": { "type": "Point", "coordinates": [ 73.932523, 18.5496813 ] } },
{ "type": "Feature", "properties": { "ccd_name": "Cleaning / Overflowing choked drains or manholes", "com_location": "Katraj Pune Maharashtra India" }, "geometry": { "type": "Point", "coordinates": [ 73.865238, 18.4529322 ] } },
{ "type": "Feature", "properties": { "ccd_name": "Cleaning / Overflowing choked drains or manholes", "com_location": "Bhosale complex, opposite vaibhav theatre, next to aryan centre. Solapur road \r\nHadapsar. Pune 411028" }, "geometry": { "type": "Point", "coordinates": [ 73.9306778, 18.5019985 ] } },
{ "type": "Feature", "properties": { "ccd_name": "Cleaning / Overflowing choked drains or manholes", "com_location": "Manjari Bk Railway Station Vijay Colony Survey No 151/15 Manjari Bk Pune 412307" }, "geometry": { "type": "Point", "coordinates": [ 73.971926, 18.5144444 ] } },
{ "type": "Feature", "properties": { "ccd_name": "Cleaning / Overflowing choked drains or manholes", "com_location": "A-303, Anjor Cooperative Housing Society, Veerbhadra Nagar, Baner, Pune 411045\r\n" }, "geometry": { "type": "Point", "coordinates": [ 73.7752974, 18.5605991 ] } },
{ "type": "Feature", "properties": { "ccd_name": "Cleaning / Overflowing choked drains or manholes", "com_location": "Survey No 23/02 Anand Vihar Hingane kh Singhad Road Opposite Joshi Bunglow Pune" }, "geometry": { "type": "Point", "coordinates": [ 73.8350989, 18.4803326 ] } },
{ "type": "Feature", "properties": { "ccd_name": "Cleaning / Overflowing choked drains or manholes", "com_location": "Ramesh bagwe office behind lane navghane galli Lohyanagar Ganj Peth pune 411042" }, "geometry": { "type": "Point", "coordinates": [ 73.8659671, 18.5059885 ] } },
{ "type": "Feature", "properties": { "ccd_name": "Replacement of missing/damaged manholes/inspection", "com_location": "avadhoot arcade kataraj- dehu road N H 4, near corner wadgon bk Sun City, Pune, 411051, Sun City, Anand Nagar, Pune, Maharashtra 411051, India" }, "geometry": { "type": "Point", "coordinates": [ 73.8116971, 18.4727796 ] } },
{ "type": "Feature", "properties": { "ccd_name": "Septic Tank Cleaning", "com_location": "Flat 403 Sai Water Crest Bldg Modak Wasti Jambhulwadi Road Ambegaon Khurd Pune 411046" }, "geometry": { "type": "Point", "coordinates": [ 73.8453834, 18.4359447 ] } },
{ "type": "Feature", "properties": { "ccd_name": "Cleaning / Overflowing choked drains or manholes", "com_location": "36/3/A/14, Yashwant Nagar, Kharadi, Pune, Maharashtra 411014, India" }, "geometry": { "type": "Point", "coordinates": [ 73.9338746, 18.5560095 ] } },
{ "type": "Feature", "properties": { "ccd_name": "Cleaning / Overflowing choked drains or manholes", "com_location": "Bhande karkhana,sr no. 15 arihant marg,sukhsagar nagar,katraj,pune 411046." }, "geometry": { "type": "Point", "coordinates": [ 73.8682834, 18.4533783 ] } },
{ "type": "Feature", "properties": { "ccd_name": "Cleaning / Overflowing choked drains or manholes", "com_location": "BLOCK-B3, NATIONAL PARK SOCIETY, umA hAusiMga sosAyaTI, niraMjana pArka, AnaMda nagara, puNe, mahArAShTra 411051, India" }, "geometry": { "type": "Point", "coordinates": [ 73.823458, 18.4713019 ] } },
{ "type": "Feature", "properties": { "ccd_name": "Cleaning / Overflowing choked drains or manholes", "com_location": "Acolade road, 411014\t, Pune, Maharashtra" }, "geometry": { "type": "Point", "coordinates": [ 73.9350212, 18.5471992 ] } },
{ "type": "Feature", "properties": { "ccd_name": "Cleaning / Overflowing choked drains or manholes", "com_location": "bAlevADI phATA , Pune, Maharashtra" }, "geometry": { "type": "Point", "coordinates": [ 73.7838215, 18.5645048 ] } },
{ "type": "Feature", "properties": { "ccd_name": "Cleaning / Overflowing choked drains or manholes", "com_location": "Laxminagar, Lane no.10 Kondhwa BK, Pune, Maharashtra" }, "geometry": { "type": "Point", "coordinates": [ 73.8834668, 18.4702914 ] } },
{ "type": "Feature", "properties": { "ccd_name": "Cleaning / Overflowing choked drains or manholes", "com_location": "Mumbai Pune Bypass Rd Flyover, Ambegaon Budruk, Pune, Maharashtra 411046 \r\nFR6P+998 Pune, Maharashtra" }, "geometry": { "type": "Point", "coordinates": [ 73.8396875, 18.43861 ] } },
{ "type": "Feature", "properties": { "ccd_name": "Repairing pothole around manhole", "com_location": "Maharaja complex at CHandragupt society entrance, Pune, Maharashtra" }, "geometry": { "type": "Point", "coordinates": [ 73.7988119, 18.5068919 ] } },
{ "type": "Feature", "properties": { "ccd_name": "Replacement of missing/damaged manholes/inspection", "com_location": "230/15, Vidhate Colony, Nankude Vasti, Baner, Pune, Maharashtra 411007, India" }, "geometry": { "type": "Point", "coordinates": [ 73.7985139, 18.5612916 ] } },
{ "type": "Feature", "properties": { "ccd_name": "Cleaning / Overflowing choked drains or manholes", "com_location": "United Oil Company 325 nana peth opposite Punjab National Bank Lakshmi Road Pune 411002" }, "geometry": { "type": "Point", "coordinates": [ 73.8665759, 18.5153158 ] } },
{ "type": "Feature", "properties": { "ccd_name": "Cleaning / Overflowing choked drains or manholes", "com_location": ", bhora gallI, ajiMkya mitra maMDaLa javaLa ujavyA bAjUlA,,  puNe 411046" }, "geometry": { "type": "Point", "coordinates": [ 73.8479266, 18.4501501 ] } },
{ "type": "Feature", "properties": { "ccd_name": "Cleaning / Overflowing choked drains or manholes", "com_location": "Lane No 2, Sai Nath Nagar, Wadgaon Sheri, Pune - 411014." }, "geometry": { "type": "Point", "coordinates": [ 73.9327477, 18.5413789 ] } },
{ "type": "Feature", "properties": { "ccd_name": "Raising of manhole(except in monsoon)", "com_location": "Shop No 3, Shrushti Complex, Nagar Rd, nearby Metro Station, Sankalp Nagri, Ramwadi, Wadgaon Sheri, Pune, Maharashtra 411014, India" }, "geometry": { "type": "Point", "coordinates": [ 73.9102447, 18.557755 ] } },
{ "type": "Feature", "properties": { "ccd_name": "Cleaning / Overflowing choked drains or manholes", "com_location": "Porwal Sathe wasti-road , Near Shriram Euphoria Uttareshwar road, Lohegaon, Pune, Maharashtra" }, "geometry": { "type": "Point", "coordinates": [ 73.9179292, 18.6010079 ] } },
{ "type": "Feature", "properties": { "ccd_name": "Cleaning / Overflowing choked drains or manholes", "com_location": "Sr. No. 10, Rm. No. 11, Bidi kamgar vasahat, Ashok nagar, Golf club road, Yerwada, Pune 6" }, "geometry": { "type": "Point", "coordinates": [ 73.8817264, 18.5528728 ] } },
{ "type": "Feature", "properties": { "ccd_name": "Cleaning / Overflowing choked drains or manholes", "com_location": "Sane Guruji Vasahat Malewadi Survey No 165 Land Mark Shivsena Bhavan Near Ganesh Temple Hadapsar  Pune 411028" }, "geometry": { "type": "Point", "coordinates": [ 73.9389213, 18.5053012 ] } },
{ "type": "Feature", "properties": { "ccd_name": "Cleaning / Overflowing choked drains or manholes", "com_location": "bANera madhIla pArakhe shiMde maLA, Pune, Maharashtra" }, "geometry": { "type": "Point", "coordinates": [ 73.8786239, 18.5246091 ] } },
{ "type": "Feature", "properties": { "ccd_name": "Cleaning / Overflowing choked drains or manholes", "com_location": "W57 society, Bhumkar chowk, near Vision One Mall, \r\nBehind McDonalds, Wakad, 411057, Pune, Maharashtra" }, "geometry": { "type": "Point", "coordinates": [ 73.7524367, 18.6078792 ] } },
{ "type": "Feature", "properties": { "ccd_name": "Cleaning / Overflowing choked drains or manholes", "com_location": "Merriment english school, front side of tukai tekdi police station,front side of nikhil niwas,hadapsar,pune 411028." }, "geometry": { "type": "Point", "coordinates": [ 73.9503881, 18.4848319 ] } },
{ "type": "Feature", "properties": { "ccd_name": "Cleaning / Overflowing choked drains or manholes", "com_location": "Swapnil Shah \r\n(M)9011037290 \r\nGoodness Bags \r\nbasement - Kothrud Homeo Pharmacy, Infront of Yashwant R, Pune, Maharashtra" }, "geometry": { "type": "Point", "coordinates": [ 73.8119047, 18.5019529 ] } },
{ "type": "Feature", "properties": { "ccd_name": "Cleaning / Overflowing choked drains or manholes", "com_location": "lane no 26 A Sayyad nagar maohmadwadi road hadpsar 411028 , Pune, Maharashtra" }, "geometry": { "type": "Point", "coordinates": [ 73.9287735, 18.4848318 ] } },
{ "type": "Feature", "properties": { "ccd_name": "Cleaning / Overflowing choked drains or manholes", "com_location": "411014\r\nDowntown road, opposite Majestique Marbella @CleanKharadi, Pune, Maharashtra" }, "geometry": { "type": "Point", "coordinates": [ 73.9409183, 18.5594929 ] } },
{ "type": "Feature", "properties": { "ccd_name": "Cleaning / Overflowing choked drains or manholes", "com_location": "Location :-rajarampatil nagare sr no 63 lane no 13 kharadi pune 14\"" }, "geometry": { "type": "Point", "coordinates": [ 73.9387189, 18.5440939 ] } },
{ "type": "Feature", "properties": { "ccd_name": "Cleaning / Overflowing choked drains or manholes", "com_location": "Irani cafe , opposite hyderabadi biryani house , beside rosary school , , viman nagar,pune 411014." }, "geometry": { "type": "Point", "coordinates": [ 73.9151613, 18.5638488 ] } },
{ "type": "Feature", "properties": { "ccd_name": "Raising of manhole(except in monsoon)", "com_location": "Lohegaon Pune Maharashtra India" }, "geometry": { "type": "Point", "coordinates": [ 73.9275889, 18.5944704 ] } },
{ "type": "Feature", "properties": { "ccd_name": "Cleaning / Overflowing choked drains or manholes", "com_location": "sr no 5 near alif tower ashraf nagar kondhwa bk pune 411048" }, "geometry": { "type": "Point", "coordinates": [ 73.8829038, 18.4638113 ] } },
{ "type": "Feature", "properties": { "ccd_name": "Replacement of missing/damaged manholes/inspection", "com_location": "Chaturshrungi Vaiduwadi shivaji housing society pune " }, "geometry": { "type": "Point", "coordinates": [ 73.8249973, 18.5321126 ] } },
{ "type": "Feature", "properties": { "ccd_name": "Cleaning / Overflowing choked drains or manholes", "com_location": "Sr no, 18 Ashtavinayak nagar Ashtavinayak ganpati mandhir line, dhankawadi ambegaon pathar Pune 411043. prabag 39" }, "geometry": { "type": "Point", "coordinates": [ 73.854903, 18.4688615 ] } },
{ "type": "Feature", "properties": { "ccd_name": "Cleaning / Overflowing choked drains or manholes", "com_location": "NANCY BRAHMA RESIDENCY, NDA PASHAN ROAD, BAVDHAN, Pune, Maharashtra" }, "geometry": { "type": "Point", "coordinates": [ 73.7804204, 18.522182 ] } },
{ "type": "Feature", "properties": { "ccd_name": "Raising of manhole(except in monsoon)", "com_location": "HQG8+3QJ, Balewadi, Pune, Maharashtra 411045, India" }, "geometry": { "type": "Point", "coordinates": [ 73.7669002, 18.5752163 ] } },
{ "type": "Feature", "properties": { "ccd_name": "Cleaning / Overflowing choked drains or manholes", "com_location": " pashan  sus road, outside pizza hut in  Baner business bay building. Behind Audy showroom,  baner.     , Pune, Maharashtra" }, "geometry": { "type": "Point", "coordinates": [ 73.7695218, 18.5484961 ] } },
{ "type": "Feature", "properties": { "ccd_name": "Cleaning / Overflowing choked drains or manholes", "com_location": "rA. 19 sItAbAga ka lanI, gaNesha maLA off siMhagaDa roDa puNe 30 pla Ta 19 " }, "geometry": { "type": "Point", "coordinates": [ 73.8384398, 18.4961222 ] } },
{ "type": "Feature", "properties": { "ccd_name": "Cleaning / Overflowing choked drains or manholes", "com_location": "43/2/A/8, Wadgaon Budruk, Vadagaon Budruk, Pune, Maharashtra 411041, India" }, "geometry": { "type": "Point", "coordinates": [ 73.8262255, 18.4731406 ] } },
{ "type": "Feature", "properties": { "ccd_name": "Cleaning / Overflowing choked drains or manholes", "com_location": "sarve naMbara 29  blika eka kAtraja koMDhavA roDa mAUlI nagara ArAdhyA iMglisha mIDiyama skUla shejArI junA pIemasI va Tara Ta.Nka puNe 411046" }, "geometry": { "type": "Point", "coordinates": [ 73.859549, 18.4321722 ] } },
{ "type": "Feature", "properties": { "ccd_name": "Cleaning / Overflowing choked drains or manholes", "com_location": "prabhAta roDa navavI gallI gokhale garimA bilDiMga samorIla , Pune, Maharashtra" }, "geometry": { "type": "Point", "coordinates": [ 73.8357909, 18.5131573 ] } },
{ "type": "Feature", "properties": { "ccd_name": "Cleaning / Overflowing choked drains or manholes", "com_location": "Survey no 235 / A ,Plot no 49 , lane no 1 , next to maitri corner building , sanjay park , airport road , pune 411032" }, "geometry": { "type": "Point", "coordinates": [ 73.902347, 18.5477 ] } },
{ "type": "Feature", "properties": { "ccd_name": "Cleaning / Overflowing choked drains or manholes", "com_location": "Lane No 17 Sayyasd Nagar Hadapsar pune 411028 " }, "geometry": { "type": "Point", "coordinates": [ 73.9264902, 18.4959163 ] } },
{ "type": "Feature", "properties": { "ccd_name": "Cleaning / Overflowing choked drains or manholes", "com_location": "836 budhwar peth kedari chowk 4111002, Pune, Maharashtra" }, "geometry": { "type": "Point", "coordinates": [ 73.8580291, 18.5158512 ] } },
{ "type": "Feature", "properties": { "ccd_name": "Cleaning / Overflowing choked drains or manholes", "com_location": "Sr no 38,hawaldhar mala tingre nagar, Surabhi town ship near, Pune - 411015." }, "geometry": { "type": "Point", "coordinates": [ 73.8846089, 18.5767229 ] } },
{ "type": "Feature", "properties": { "ccd_name": "Cleaning / Overflowing choked drains or manholes", "com_location": "530 Shukrawar Peth, Kamthe Wada, Pune, Maharashtra" }, "geometry": { "type": "Point", "coordinates": [ 73.8578195, 18.5096275 ] } },
{ "type": "Feature", "properties": { "ccd_name": "Cleaning / Overflowing choked drains or manholes", "com_location": "khadakwasla sinhgad road sant rohidas nagar behind harimate building back side pune " }, "geometry": { "type": "Point", "coordinates": [ 73.7844846, 18.4445577 ] } },
{ "type": "Feature", "properties": { "ccd_name": "Cleaning / Overflowing choked drains or manholes", "com_location": "Gulmohar and Solacia societies are located in Wagholi, Pune," }, "geometry": { "type": "Point", "coordinates": [ 73.9748499, 18.5718694 ] } },
{ "type": "Feature", "properties": { "ccd_name": "Cleaning / Overflowing choked drains or manholes", "com_location": "Near Marvel Society, opposite to new kailash super market , Viman Nagar .  pune" }, "geometry": { "type": "Point", "coordinates": [ 73.9159124, 18.5536438 ] } },
{ "type": "Feature", "properties": { "ccd_name": "Cleaning / Overflowing choked drains or manholes", "com_location": " Bhatnagar residency St. Lawrence Colony ,Plot no 8 B T kawade road , Wanwadi, Pune 411013 " }, "geometry": { "type": "Point", "coordinates": [ 73.9075272, 18.5083813 ] } },
{ "type": "Feature", "properties": { "ccd_name": "Cleaning / Overflowing choked drains or manholes", "com_location": "Prabha tayrs lane no 7 santosh nager katraj, Pune, Maharashtra" }, "geometry": { "type": "Point", "coordinates": [ 73.8555779, 18.4479495 ] } },
{ "type": "Feature", "properties": { "ccd_name": "Cleaning / Overflowing choked drains or manholes", "com_location": "Hadapsar Industrial area Shinde Vasti Sun Sapphire society pune 411013" }, "geometry": { "type": "Point", "coordinates": [ 73.9156072, 18.5175988 ] } },
{ "type": "Feature", "properties": { "ccd_name": "Cleaning / Overflowing choked drains or manholes", "com_location": "Newton homes society Malwadi Hadapsar Pune-28\t" }, "geometry": { "type": "Point", "coordinates": [ 73.935064400000016, 18.5097998 ] } },
{ "type": "Feature", "properties": { "ccd_name": "Repairing pothole around manhole", "com_location": "Vitthalrao Shivarkar Road, outside Oxford Village, Main Road Department, Pune, Maharashtra" }, "geometry": { "type": "Point", "coordinates": [ 73.9006387, 18.4834633 ] } },
{ "type": "Feature", "properties": { "ccd_name": "Repairing pothole around manhole", "com_location": "\r\ntakShashilA buddhavihArAchyA mAge , Pune, Maharashtra" }, "geometry": { "type": "Point", "coordinates": [ 73.8028276, 18.5642859 ] } },
{ "type": "Feature", "properties": { "ccd_name": "Cleaning / Overflowing choked drains or manholes", "com_location": "Arvind Gupta\r\nFlat 401 Chitrakoot B, 1065 Gokhale Cross Road, Model Colony, Pune 411016" }, "geometry": { "type": "Point", "coordinates": [ 73.8340549, 18.53577 ] } },
{ "type": "Feature", "properties": { "ccd_name": "Cleaning / Overflowing choked drains or manholes", "com_location": "Nisarg Srushti, Pune-Solapur Highway, Next to Krushna Pure Veg/Opp. Kalyan Bhel, Manjri Bk - 412307" }, "geometry": { "type": "Point", "coordinates": [ 73.7757928, 18.5972827 ] } },
{ "type": "Feature", "properties": { "ccd_name": "Cleaning / Overflowing choked drains or manholes", "com_location": "Ghule colony no 3 dhere bunglow manjari bk. pune " }, "geometry": { "type": "Point", "coordinates": [ 73.8616747, 18.5890296 ] } },
{ "type": "Feature", "properties": { "ccd_name": "Cleaning / Overflowing choked drains or manholes", "com_location": "Pathare Thube Nagar Lane No2 Kharadi Bay Pass Pune 411014" }, "geometry": { "type": "Point", "coordinates": [ 73.9399942, 18.561778 ] } },
{ "type": "Feature", "properties": { "ccd_name": "Cleaning / Overflowing choked drains or manholes", "com_location": "pattA mAnasI la nDI javaLa vaDAra vastI, Pune, Maharashtra" }, "geometry": { "type": "Point", "coordinates": [ 73.8786239, 18.5246091 ] } },
{ "type": "Feature", "properties": { "ccd_name": "Cleaning / Overflowing choked drains or manholes", "com_location": "bhosale vhileja phurasuMgI puNe" }, "geometry": { "type": "Point", "coordinates": [ 73.9506866, 18.4810058 ] } },
{ "type": "Feature", "properties": { "ccd_name": "Cleaning / Overflowing choked drains or manholes", "com_location": "Ambedkar vasahat , ganesh nagar , near sundarabai school , chandan nagar , pune 411014" }, "geometry": { "type": "Point", "coordinates": [ 73.9275895, 18.557424 ] } },
{ "type": "Feature", "properties": { "ccd_name": "Cleaning / Overflowing choked drains or manholes", "com_location": "263, 263, Baburao Ganpatrao Virkar Rd, Narayan Peth, Pune, Maharashtra 411030, India" }, "geometry": { "type": "Point", "coordinates": [ 73.847043661794004, 18.515644221165999 ] } },
{ "type": "Feature", "properties": { "ccd_name": "Cleaning / Overflowing choked drains or manholes", "com_location": "sarve naMbara 649shivateja nagara bibevADI 14/bI yA ThikANI , Pune, Maharashtra" }, "geometry": { "type": "Point", "coordinates": [ 73.8730671, 18.4671487 ] } },
{ "type": "Feature", "properties": { "ccd_name": "Cleaning / Overflowing choked drains or manholes", "com_location": "Sr no 241/42, Indiranagar,lohegaon road, pune 32, near ganpati mandhir  Burma Shell Colony" }, "geometry": { "type": "Point", "coordinates": [ 73.9275889, 18.5944704 ] } },
{ "type": "Feature", "properties": { "ccd_name": "Cleaning / Overflowing choked drains or manholes", "com_location": "Sanmitra Colony Ganga Nagar Fursungi Pune 412308" }, "geometry": { "type": "Point", "coordinates": [ 73.9587593, 18.4904527 ] } },
{ "type": "Feature", "properties": { "ccd_name": "Cleaning / Overflowing choked drains or manholes", "com_location": "Baner  Pashan Link Road Pashan Pune Maharashtra India" }, "geometry": { "type": "Point", "coordinates": [ 73.7911009, 18.5480592 ] } },
{ "type": "Feature", "properties": { "ccd_name": "Cleaning / Overflowing choked drains or manholes", "com_location": "3, Ganesh Complex, Anand Estates, Anand Nagar, Pune, Maharashtra 411026, India" }, "geometry": { "type": "Point", "coordinates": [ 73.821924990328, 18.473904989105002 ] } },
{ "type": "Feature", "properties": { "ccd_name": "Cleaning / Overflowing choked drains or manholes", "com_location": "570 Ambedkar Nagar Galli No 5 Near Priti Balwadi Pune 411037" }, "geometry": { "type": "Point", "coordinates": [ 73.8660125, 18.483847 ] } },
{ "type": "Feature", "properties": { "ccd_name": "Cleaning / Overflowing choked drains or manholes", "com_location": "Dhayari Pune Maharashtra India" }, "geometry": { "type": "Point", "coordinates": [ 73.8101999, 18.4471444 ] } },
{ "type": "Feature", "properties": { "ccd_name": "Cleaning / Overflowing choked drains or manholes", "com_location": "Address - Bluegrass business park \r\nYerwada, Shastri nagar chowk. Near wadia banglow. 411006., Pune, Maharashtra" }, "geometry": { "type": "Point", "coordinates": [ 73.8942478, 18.5502336 ] } },
{ "type": "Feature", "properties": { "ccd_name": "Cleaning / Overflowing choked drains or manholes", "com_location": "Suswani Complex Near Kondhwa police station Kondhwa, Pune, Maharashtra" }, "geometry": { "type": "Point", "coordinates": [ 73.889762, 18.4657647 ] } },
{ "type": "Feature", "properties": { "ccd_name": "Cleaning / Overflowing choked drains or manholes", "com_location": "Lane no-02, raja ram pati nagar kharadi , Pune, Maharashtra" }, "geometry": { "type": "Point", "coordinates": [ 73.955154, 18.5753989 ] } },
{ "type": "Feature", "properties": { "ccd_name": "Replacement of missing/damaged manholes/inspection", "com_location": "585/7, Late Suryakant Khatu Path, Burhanj Baug-B Colony, Salisbury Park, Gultekadi, Pune, Maharashtra 411037, India" }, "geometry": { "type": "Point", "coordinates": [ 73.874733, 18.487695 ] } },
{ "type": "Feature", "properties": { "ccd_name": "Cleaning / Overflowing choked drains or manholes", "com_location": "near railway gate Vijay Colony survey number 151/51 Manjari Budruk Pune 412307" }, "geometry": { "type": "Point", "coordinates": [ 73.971926, 18.5144444 ] } },
{ "type": "Feature", "properties": { "ccd_name": "Cleaning / Overflowing choked drains or manholes", "com_location": "Ghar no 268 to 273 , Somwar peth , prabhag no 16 , near audumbar mitra mandal , pune 411011" }, "geometry": { "type": "Point", "coordinates": [ 73.8636372, 18.5215827 ] } },
{ "type": "Feature", "properties": { "ccd_name": "Cleaning / Overflowing choked drains or manholes", "com_location": "Sambhaji Udyan Shivajinagar Pune Maharashtra" }, "geometry": { "type": "Point", "coordinates": [ 73.847404, 18.521761 ] } },
{ "type": "Feature", "properties": { "ccd_name": "Cleaning / Overflowing choked drains or manholes", "com_location": "13 state bank colony no 2 \r\nShahu college road Parvati \r\nPune 411009" }, "geometry": { "type": "Point", "coordinates": [ 73.8527131, 18.4926841 ] } },
{ "type": "Feature", "properties": { "ccd_name": "Cleaning / Overflowing choked drains or manholes", "com_location": "3, Fule Market, Nanded Fata, Pandurang Industrial Area, Nanded, Pune, Maharashtra 411041, India" }, "geometry": { "type": "Point", "coordinates": [ 73.7979418, 18.4558486 ] } },
{ "type": "Feature", "properties": { "ccd_name": "Cleaning / Overflowing choked drains or manholes", "com_location": "Hotel Paradise  Opposite Zensar IT Park Kharadi Pune 411014" }, "geometry": { "type": "Point", "coordinates": [ 73.9418604, 18.5478297 ] } },
{ "type": "Feature", "properties": { "ccd_name": "Cleaning / Overflowing choked drains or manholes", "com_location": "near Sinhagad Science college. pune " }, "geometry": { "type": "Point", "coordinates": [ 73.8328103, 18.4618204 ] } },
{ "type": "Feature", "properties": { "ccd_name": "Cleaning / Overflowing choked drains or manholes", "com_location": "Datta Mandir , narhe road, serve no 50 , Pune, Maharashtra" }, "geometry": { "type": "Point", "coordinates": [ 73.81515, 18.459396 ] } },
{ "type": "Feature", "properties": { "ccd_name": "Cleaning / Overflowing choked drains or manholes", "com_location": "lohagAva, gurudvArA ka lanI vaiShNavI skUla pAshI,lena naMbara A-6, Pune, Maharashtra" }, "geometry": { "type": "Point", "coordinates": [ 73.867158100000012, 18.6043221 ] } },
{ "type": "Feature", "properties": { "ccd_name": "Cleaning / Overflowing choked drains or manholes", "com_location": "Sutarwadi pashan PDCC bank near laxmidhan society pune" }, "geometry": { "type": "Point", "coordinates": [ 73.78315, 18.538529 ] } },
{ "type": "Feature", "properties": { "ccd_name": "Cleaning / Overflowing choked drains or manholes", "com_location": "Pargenagar, Kondhwa opp Kumar Palmgrove., Pune, Maharashtra" }, "geometry": { "type": "Point", "coordinates": [ 73.8917781, 18.4634191 ] } },
{ "type": "Feature", "properties": { "ccd_name": "Choke in main drain", "com_location": "Baner, Pune, Maharashtra, India" }, "geometry": { "type": "Point", "coordinates": [ 73.7768511, 18.5642452 ] } },
{ "type": "Feature", "properties": { "ccd_name": "Cleaning / Overflowing choked drains or manholes", "com_location": "Tarangan Residency Dhayari Phata Road Abasaheb Raikar Nagar Dhayari Phata Pune Maharashtra India" }, "geometry": { "type": "Point", "coordinates": [ 73.8110708, 18.4545358 ] } },
{ "type": "Feature", "properties": { "ccd_name": "Cleaning / Overflowing choked drains or manholes", "com_location": "GANGA CONSTELLA, B2/103, Gera Commerzone IT Park Rd, near World Trade Center, EON phrI jhona, kharADI, puNe, mahArAShTra 411014, India" }, "geometry": { "type": "Point", "coordinates": [ 73.9511978, 18.5554294 ] } },
{ "type": "Feature", "properties": { "ccd_name": "Cleaning / Overflowing choked drains or manholes", "com_location": "Gruhakalp/ Vastukalp society Bibwewadi Pune 411037" }, "geometry": { "type": "Point", "coordinates": [ 73.8640944, 18.4690213 ] } },
{ "type": "Feature", "properties": { "ccd_name": "Cleaning / Overflowing choked drains or manholes", "com_location": "Survey no 63/67 , mukund nagar , rukari road , opposite laxmi vilas society , maink banglwo , backside of ekbote furniture , daulat ram mandir road , pune 411037" }, "geometry": { "type": "Point", "coordinates": [ 73.8633411, 18.4940077 ] } },
{ "type": "Feature", "properties": { "ccd_name": "Cleaning / Overflowing choked drains or manholes", "com_location": "8-Mula road, Khadaki, behand satyam appartment, mona beauty parlor samor -411003 , Pune, Maharashtra" }, "geometry": { "type": "Point", "coordinates": [ 73.8551526, 18.5503064 ] } },
{ "type": "Feature", "properties": { "ccd_name": "Cleaning / Overflowing choked drains or manholes", "com_location": "sarve naM 32/3 ba, gallI naM-2,bhairavanAtha maMdira,gujaravastI-\r\nshelAramaLA, utkarSha sosAyaTI ,kAtraja ,\r\npuNe-411 046" }, "geometry": { "type": "Point", "coordinates": [ 73.865238, 18.4529322 ] } },
{ "type": "Feature", "properties": { "ccd_name": "Cleaning / Overflowing choked drains or manholes", "com_location": "Vetal Nagar, Ambegaon Budruk, Pune, Maharashtra 411046, India" }, "geometry": { "type": "Point", "coordinates": [ 73.8411712, 18.4514511 ] } },
{ "type": "Feature", "properties": { "ccd_name": "Replacement of missing/damaged manholes/inspection", "com_location": "44/4, Late G H Urf Appasaheb Kulkarni Path, Navasahyadri Society, Karvenagar, Pune, Maharashtra 411052, India" }, "geometry": { "type": "Point", "coordinates": [ 73.829544067382997, 18.494995117188001 ] } },
{ "type": "Feature", "properties": { "ccd_name": "Replacement of missing/damaged manholes/inspection", "com_location": "Warje Pune Maharashtra India" }, "geometry": { "type": "Point", "coordinates": [ 73.796834, 18.4864727 ] } },
{ "type": "Feature", "properties": { "ccd_name": "Cleaning / Overflowing choked drains or manholes", "com_location": "sachhaimata mandir samor near pmc water tank katraj pune 46" }, "geometry": { "type": "Point", "coordinates": [ 73.8530762, 18.4424459 ] } },
{ "type": "Feature", "properties": { "ccd_name": "Cleaning / Overflowing choked drains or manholes", "com_location": "Shree Samrtha Sahawas, Near Lakdi Wakhar, Opposite Kalbhiravnath Temple, Dhayari, Pune" }, "geometry": { "type": "Point", "coordinates": [ 73.8131542, 18.4500402 ] } },
{ "type": "Feature", "properties": { "ccd_name": "Cleaning / Overflowing choked drains or manholes", "com_location": "Galli No 26 A  Sayyad Nagar Mohammadwadi road Hadapasr Pune" }, "geometry": { "type": "Point", "coordinates": [ 73.9301223, 18.4846558 ] } },
{ "type": "Feature", "properties": { "ccd_name": "Cleaning / Overflowing choked drains or manholes", "com_location": "lane no A/16 Garmal chankankar house back side Dhayari pune 411041 near dnyanda nursery school " }, "geometry": { "type": "Point", "coordinates": [ 73.8138655, 18.4581949 ] } },
{ "type": "Feature", "properties": { "ccd_name": "Cleaning / Overflowing choked drains or manholes", "com_location": "S.NO. 120 Santosh Nagar, near New Ekta Ganesh Mandal, Temple , opp.Luniya   \r\nFloor mill.Katraj Pune 411046 " }, "geometry": { "type": "Point", "coordinates": [ 73.8566316, 18.4430994 ] } },
{ "type": "Feature", "properties": { "ccd_name": "Cleaning / Overflowing choked drains or manholes", "com_location": "kondhwa hospital ,antule nagar, galli no 7 near  Pisoli Pune" }, "geometry": { "type": "Point", "coordinates": [ 73.895535, 18.438986 ] } },
{ "type": "Feature", "properties": { "ccd_name": "Cleaning / Overflowing choked drains or manholes", "com_location": "Shivatri Building Front, Shani Nagar, Jambhulwadi Road, Pune - 411046." }, "geometry": { "type": "Point", "coordinates": [ 73.8472833, 18.4415208 ] } },
{ "type": "Feature", "properties": { "ccd_name": "Cleaning / Overflowing choked drains or manholes", "com_location": "GQ6C+7Q6, Pranjali Patil Nagar, Bavdhan, Pune, Maharashtra 411021, India" }, "geometry": { "type": "Point", "coordinates": [ 73.772055, 18.5105169 ] } },
{ "type": "Feature", "properties": { "ccd_name": "Cleaning / Overflowing choked drains or manholes", "com_location": "Galli No 1, 425/26, Audyogik Vasahat, Gultekdi Pune - 411037 Vehicle Depot Near." }, "geometry": { "type": "Point", "coordinates": [ 73.8576017, 18.5050692 ] } },
{ "type": "Feature", "properties": { "ccd_name": "Replacement of missing/damaged manholes/inspection", "com_location": "sr no 302/ 3 sai vihar lane no 1 kalepadal Hadapsar,Pune 411028 " }, "geometry": { "type": "Point", "coordinates": [ 73.9440748, 18.4798956 ] } },
{ "type": "Feature", "properties": { "ccd_name": "Cleaning / Overflowing choked drains or manholes", "com_location": "near santosh hall on sinhgad road, Pune, Maharashtra" }, "geometry": { "type": "Point", "coordinates": [ 73.8243008, 18.4783489 ] } },
{ "type": "Feature", "properties": { "ccd_name": "Cleaning / Overflowing choked drains or manholes", "com_location": " Mahalunge,\r\nBehind Balewadi Stadium., Pune, Maharashtra" }, "geometry": { "type": "Point", "coordinates": [ 73.7610241, 18.5747407 ] } },
{ "type": "Feature", "properties": { "ccd_name": "Cleaning / Overflowing choked drains or manholes", "com_location": "prabhAga kramAMka 27 koMDhavA khurda ekatA resiDensI hAusiMga sosAyaTI saMDe bAjAra javaLa sAIbAbA nagara  yethIla , Pune, Maharashtra" }, "geometry": { "type": "Point", "coordinates": [ 73.8786601, 18.4698283 ] } },
{ "type": "Feature", "properties": { "ccd_name": "Cleaning / Overflowing choked drains or manholes", "com_location": "1B, Karve Rd, Shubh Nagari, Kothrud, Pune, Maharashtra 411038, India" }, "geometry": { "type": "Point", "coordinates": [ 73.820465087890994, 18.503616333008001 ] } },
{ "type": "Feature", "properties": { "ccd_name": "Cleaning / Overflowing choked drains or manholes", "com_location": "Viva Sarovar society  Jambhulwadi road ambegoan way from datta nagar road towards jambhulwadi gaon  411046, Pune, Maharashtra" }, "geometry": { "type": "Point", "coordinates": [ 73.846502, 18.4380731 ] } },
{ "type": "Feature", "properties": { "ccd_name": "Cleaning / Overflowing choked drains or manholes", "com_location": "Mangadewadi sundar nagar lane no 9 near mayur dhara dairy pune 411046\r\n" }, "geometry": { "type": "Point", "coordinates": [ 73.8655345, 18.4317204 ] } },
{ "type": "Feature", "properties": { "ccd_name": "Cleaning / Overflowing choked drains or manholes", "com_location": "nAMdeDagAva mArutI maMdira mAgachI ALI che phoTo, Pune, Maharashtra" }, "geometry": { "type": "Point", "coordinates": [ 73.850154, 18.4654281 ] } },
{ "type": "Feature", "properties": { "ccd_name": "Cleaning / Overflowing choked drains or manholes", "com_location": " Dresa \r\nnityAnaMda sosAyaTI.. gallI naMbara 2..bArAmatI ba.Nka javaLa.. Opp plot no 26, puNe sAtArA roDa, dhanakavaDI 411043" }, "geometry": { "type": "Point", "coordinates": [ 73.856672, 18.467452 ] } },
{ "type": "Feature", "properties": { "ccd_name": "Cleaning / Overflowing choked drains or manholes", "com_location": "3, Agarkar Nagar, Pune, Maharashtra 411001, India" }, "geometry": { "type": "Point", "coordinates": [ 73.878402709960994, 18.529556274413999 ] } },
{ "type": "Feature", "properties": { "ccd_name": "Cleaning / Overflowing choked drains or manholes", "com_location": "Pune Solapur Road Manjari Budruk Sainath Colony No. 2 Opposite Siddhivinayak Petrol Pump Pune 412307" }, "geometry": { "type": "Point", "coordinates": [ 73.9682757, 18.4949782 ] } },
{ "type": "Feature", "properties": { "ccd_name": "Cleaning / Overflowing choked drains or manholes", "com_location": "34/3/2/1, Tanaje Nagar, Satya Sai Nagar, Dhankawadi, Pune, Maharashtra 411043\r\nhttps://maps.app.goo.gl/cHw7b9mN7dyXbXrg9?g_st=iw" }, "geometry": { "type": "Point", "coordinates": [ 73.849384, 18.4580482 ] } },
{ "type": "Feature", "properties": { "ccd_name": "Cleaning / Overflowing choked drains or manholes", "com_location": "658/4 Ambikanagar, Upper, Kondhwa road, Pune- 411037." }, "geometry": { "type": "Point", "coordinates": [ 73.8724041, 18.4610982 ] } },
{ "type": "Feature", "properties": { "ccd_name": "Cleaning / Overflowing choked drains or manholes", "com_location": "Casalino Towers  near, nawale vasti, handewadi Road Hadapsar pune - 411028." }, "geometry": { "type": "Point", "coordinates": [ 73.9378695, 18.4611591 ] } },
{ "type": "Feature", "properties": { "ccd_name": "Repairing pothole around manhole", "com_location": "Near Chandni Chaowk on the steep road to LMd Chaowk  Bavdhan , Pune, Maharashtra" }, "geometry": { "type": "Point", "coordinates": [ 73.777771, 18.511031 ] } },
{ "type": "Feature", "properties": { "ccd_name": "Cleaning / Overflowing choked drains or manholes", "com_location": "Map :- 18 26'58.0\"N 73 52'33.4\"E\r\n Shree Ganesh Vishwa Building, Shree Ganesh Vishwa, Gokul Nagar, Katraj, Pune, Maharashtra 411046" }, "geometry": { "type": "Point", "coordinates": [ 73.8758197, 18.449448 ] } },
{ "type": "Feature", "properties": { "ccd_name": "Cleaning / Overflowing choked drains or manholes", "com_location": "sasane lawn sayyed nager hadapser pune" }, "geometry": { "type": "Point", "coordinates": [ 73.9296673, 18.4839337 ] } },
{ "type": "Feature", "properties": { "ccd_name": "Replacement of missing/damaged manholes/inspection", "com_location": "22/8, Thite Vasti, Thite Nagar, Kharadi, Pune, Maharashtra 411014, India" }, "geometry": { "type": "Point", "coordinates": [ 73.9373807, 18.5432257 ] } },
{ "type": "Feature", "properties": { "ccd_name": "Cleaning / Overflowing choked drains or manholes", "com_location": "from Puranik society entering in Balaji Metro Jazz CHS Mahalunge S.No.12/1, Mouje Mahalunge, Near Orchid Hotel, Pune 411045 " }, "geometry": { "type": "Point", "coordinates": [ 73.7621905, 18.5679729 ] } },
{ "type": "Feature", "properties": { "ccd_name": "Cleaning / Overflowing choked drains or manholes", "com_location": "B-68, Kalwad, Lohegaon, Pune, Maharashtra 411032, India" }, "geometry": { "type": "Point", "coordinates": [ 73.9054501, 18.5904101 ] } },
{ "type": "Feature", "properties": { "ccd_name": "Cleaning / Overflowing choked drains or manholes", "com_location": "Somnath Nagar Wadgaon Sheri Pune Maharashtra India" }, "geometry": { "type": "Point", "coordinates": [ 73.9216532, 18.5581835 ] } },
{ "type": "Feature", "properties": { "ccd_name": "Replacement of missing/damaged manholes/inspection", "com_location": "kaLavaDa vastI Pune Maharashtra India" }, "geometry": { "type": "Point", "coordinates": [ 73.9058534, 18.5881421 ] } },
{ "type": "Feature", "properties": { "ccd_name": "Cleaning / Overflowing choked drains or manholes", "com_location": "Lokmanya nagar sadashiv peth building no opposite kaka halwai pune " }, "geometry": { "type": "Point", "coordinates": [ 73.8443143, 18.5063339 ] } },
{ "type": "Feature", "properties": { "ccd_name": "Cleaning / Overflowing choked drains or manholes", "com_location": "Rajmudra Society Near Sai Baba Temple  Dhankawadi Pune 411043." }, "geometry": { "type": "Point", "coordinates": [ 73.8520863, 18.4624035 ] } },
{ "type": "Feature", "properties": { "ccd_name": "Cleaning / Overflowing choked drains or manholes", "com_location": " AshIrvAda nivAsa, sarve naMbara 71/4, ka lanI naMbara 1, shrInAtha nagara ( ksisa ba.Nka ke pIChe), bI TI kavaDe roDa, ghorapaDI gAva, puNe-1" }, "geometry": { "type": "Point", "coordinates": [ 73.906346, 18.5235518 ] } },
{ "type": "Feature", "properties": { "ccd_name": "Cleaning / Overflowing choked drains or manholes", "com_location": "sAraMga sosAyaTI rila.cksa ha Tela samora sahakAra nagara naM 2 puNe 9" }, "geometry": { "type": "Point", "coordinates": [ 73.8786239, 18.5246091 ] } },
{ "type": "Feature", "properties": { "ccd_name": "Cleaning / Overflowing choked drains or manholes", "com_location": "Wageshwar Nagar Socierty Wagholi Pune 412207" }, "geometry": { "type": "Point", "coordinates": [ 73.9802481, 18.5821831 ] } },
{ "type": "Feature", "properties": { "ccd_name": "Cleaning / Overflowing choked drains or manholes", "com_location": "Hingne khurd,zp school back side,sinhgad road,pune 411051." }, "geometry": { "type": "Point", "coordinates": [ 73.784653, 18.4606013 ] } },
{ "type": "Feature", "properties": { "ccd_name": "Cleaning / Overflowing choked drains or manholes", "com_location": "Vascon Willows Block-F, VASCON WILLOWS, Willows Ln, Baner, Maharashtra 411045, India, Pune, Maharashtra" }, "geometry": { "type": "Point", "coordinates": [ 73.7829819, 18.571342 ] } },
{ "type": "Feature", "properties": { "ccd_name": "Cleaning / Overflowing choked drains or manholes", "com_location": "Ghule Nagar Vadgaon Pune 411041" }, "geometry": { "type": "Point", "coordinates": [ 73.8279381, 18.4632565 ] } },
{ "type": "Feature", "properties": { "ccd_name": "Cleaning / Overflowing choked drains or manholes", "com_location": "Bhau Patil Harris Bridge Railway Bridge Khali Bopodi Pune" }, "geometry": { "type": "Point", "coordinates": [ 73.8362786, 18.5745417 ] } },
{ "type": "Feature", "properties": { "ccd_name": "Cleaning / Overflowing choked drains or manholes", "com_location": "dhAyarI yethIla chavhANa bAga , Pune, Maharashtra" }, "geometry": { "type": "Point", "coordinates": [ 73.8447479, 18.4400227 ] } },
{ "type": "Feature", "properties": { "ccd_name": "Replacement of missing/damaged manholes/inspection", "com_location": "12/1/2/1, Raj Bhavan Ganesh Khind, Pune University, Pune, Maharashtra 411007, India" }, "geometry": { "type": "Point", "coordinates": [ 73.820447, 18.54797 ] } },
{ "type": "Feature", "properties": { "ccd_name": "Cleaning / Overflowing choked drains or manholes", "com_location": "prabhAga kramAMka 27 koMDhavA khurda ekatA resiDensI hAusiMga sosAyaTI saMDe bAjAra javaLa sAIbAbA nagara yethe, Pune, Maharashtra" }, "geometry": { "type": "Point", "coordinates": [ 73.8786601, 18.4698283 ] } },
{ "type": "Feature", "properties": { "ccd_name": "Cleaning / Overflowing choked drains or manholes", "com_location": "Quarter gate pune 411011" }, "geometry": { "type": "Point", "coordinates": [ 73.8710919, 18.5162516 ] } },
{ "type": "Feature", "properties": { "ccd_name": "Cleaning / Overflowing choked drains or manholes", "com_location": "near shree hospital, gulmohar orchids society, kharadi, pune" }, "geometry": { "type": "Point", "coordinates": [ 73.9424209, 18.5514195 ] } },
{ "type": "Feature", "properties": { "ccd_name": "Cleaning / Overflowing choked drains or manholes", "com_location": "Yashashree society C wing , Ekadashi hotel , near kiga ice cream shop , gokul nagar , pune 411046" }, "geometry": { "type": "Point", "coordinates": [ 73.8726617, 18.4528906 ] } },
{ "type": "Feature", "properties": { "ccd_name": "Cleaning / Overflowing choked drains or manholes", "com_location": "PLEASANT AVENUE SOCIETY ,VIMAN NAGAR CHOKARE NAGAR ROAD BALAJI FINSERV FRONT PUNE 411014." }, "geometry": { "type": "Point", "coordinates": [ 73.9128806, 18.5615171 ] } },
{ "type": "Feature", "properties": { "ccd_name": "Cleaning / Overflowing choked drains or manholes", "com_location": " 415 shanivAra peTha keLakara rastA, Pune, Maharashtra" }, "geometry": { "type": "Point", "coordinates": [ 73.8786239, 18.5246091 ] } },
{ "type": "Feature", "properties": { "ccd_name": "Cleaning / Overflowing choked drains or manholes", "com_location": "Laxmi Vilas Sweets Shop Nawanagar Yerwada Village Yerawada Pune Maharashtra India" }, "geometry": { "type": "Point", "coordinates": [ 73.8851121, 18.5452394 ] } },
{ "type": "Feature", "properties": { "ccd_name": "Cleaning / Overflowing choked drains or manholes", "com_location": "Lunkad Heritage  Phase 2 Society, Viman Nagar Pune 411014. Land Mark- Baby Shelther." }, "geometry": { "type": "Point", "coordinates": [ 73.912820900000014, 18.567577 ] } },
{ "type": "Feature", "properties": { "ccd_name": "Cleaning / Overflowing choked drains or manholes", "com_location": "430 Narayan Peth Patra Behind Maruti Mandir Pune 411030" }, "geometry": { "type": "Point", "coordinates": [ 73.850262, 18.515242 ] } },
{ "type": "Feature", "properties": { "ccd_name": "Cleaning / Overflowing choked drains or manholes", "com_location": " pragatI pArka nayana bilDiMgachyA samora kamaladIpa gArDana javaLa koMDhavA khurda puNe 48 " }, "geometry": { "type": "Point", "coordinates": [ 73.8889779, 18.4695088 ] } },
{ "type": "Feature", "properties": { "ccd_name": "Cleaning / Overflowing choked drains or manholes", "com_location": "Dhanori logo road Anand Nagar puncture society, Pune, Maharashtra" }, "geometry": { "type": "Point", "coordinates": [ 73.9570345, 18.5212272 ] } },
{ "type": "Feature", "properties": { "ccd_name": "Cleaning / Overflowing choked drains or manholes", "com_location": "\r\nsarvhe kra. 17, gallI kra. 5, shivasAI mitra maMDaLa TrasTa, aMbAmAtA maMdirAjavaLa, sukhasAgaranagara, kAtraja, puNe 411046\r\n" }, "geometry": { "type": "Point", "coordinates": [ 73.8694116, 18.4558486 ] } },
{ "type": "Feature", "properties": { "ccd_name": "Cleaning / Overflowing choked drains or manholes", "com_location": "shrIdatta sahakArI gRRiharachanA saMsthA maryAdita\r\nnArAyaNI nagara, vaMDara siTI roDa, bhAratI vidyApITha, kAtraja, puNe 46" }, "geometry": { "type": "Point", "coordinates": [ 73.8505345, 18.4553445 ] } },
{ "type": "Feature", "properties": { "ccd_name": "Repairing pothole around manhole", "com_location": "tAthavaDe udyAna chaukApAsUna puDhe jANArA roDa viThThala maMdira kaDe jAto karvenagara 411052, Pune, Maharashtra" }, "geometry": { "type": "Point", "coordinates": [ 73.8273627, 18.4932423 ] } },
{ "type": "Feature", "properties": { "ccd_name": "Cleaning / Overflowing choked drains or manholes", "com_location": "uttama nagara smashAnabhUmI madhye yAchyAbarobara samorachyA geTalA,pune" }, "geometry": { "type": "Point", "coordinates": [ 73.8185255, 18.4469134 ] } },
{ "type": "Feature", "properties": { "ccd_name": "Cleaning / Overflowing choked drains or manholes", "com_location": "Pratik Nagar, Gokulnagar, Katraj-Kondhwa Road, Pune" }, "geometry": { "type": "Point", "coordinates": [ 73.875687, 18.450668 ] } },
{ "type": "Feature", "properties": { "ccd_name": "Cleaning / Overflowing choked drains or manholes", "com_location": "front of \"Manasi vishwas nagar housing society\", narhe road. pune" }, "geometry": { "type": "Point", "coordinates": [ 73.8162197, 18.4580122 ] } },
{ "type": "Feature", "properties": { "ccd_name": "Replacement of missing/damaged manholes/inspection", "com_location": "CVVJ+X4W, Lane Number 4, Tilekar Nagar, Kondhwa Budruk, Pune, Maharashtra 411048, India" }, "geometry": { "type": "Point", "coordinates": [ 73.88034913, 18.44496399 ] } },
{ "type": "Feature", "properties": { "ccd_name": "Cleaning / Overflowing choked drains or manholes", "com_location": "FRRX+5X7 Pune, Maharashtra, 84/2, Darpan Sarang SOC, Sahakar Nagar, Parvati Paytha, Pune, Maharashtra 411009" }, "geometry": { "type": "Point", "coordinates": [ 73.8499219, 18.4904125 ] } },
{ "type": "Feature", "properties": { "ccd_name": "Cleaning / Overflowing choked drains or manholes", "com_location": "Serve Number 93 maahadev  Nagar manajri Road manjri budruk opposite lijatt papad Pune412307 https://goo.gl/maps/KCEEXXpXuTq16pYF9 " }, "geometry": { "type": "Point", "coordinates": [ 73.9853901, 18.5234487 ] } },
{ "type": "Feature", "properties": { "ccd_name": "Cleaning / Overflowing choked drains or manholes", "com_location": "Near pingale wasti Ganga narsing homes  pune" }, "geometry": { "type": "Point", "coordinates": [ 73.9129665, 18.5305144 ] } },
{ "type": "Feature", "properties": { "ccd_name": "Cleaning / Overflowing choked drains or manholes", "com_location": "No. 15, Vitthal Nagar Hadapsar, 411028., Pune, Maharashtra" }, "geometry": { "type": "Point", "coordinates": [ 73.9532145, 18.4986049 ] } },
{ "type": "Feature", "properties": { "ccd_name": "Cleaning / Overflowing choked drains or manholes", "com_location": "Madhukosh building, Yashoda chowk, Balewadi, Pune-411045 " }, "geometry": { "type": "Point", "coordinates": [ 73.7707318, 18.5789038 ] } },
{ "type": "Feature", "properties": { "ccd_name": "Cleaning / Overflowing choked drains or manholes", "com_location": "Pandhari Nagar Near Handewadi Opposite Samruddhi Hotel Pune " }, "geometry": { "type": "Point", "coordinates": [ 73.9396399, 18.4577417 ] } },
{ "type": "Feature", "properties": { "ccd_name": "Repairing pothole around manhole", "com_location": "Keshav Nagar, Mundhwa , exactly opposite Renuka mata temple., Pune, Maharashtra" }, "geometry": { "type": "Point", "coordinates": [ 73.9455133, 18.5323802 ] } },
{ "type": "Feature", "properties": { "ccd_name": "Cleaning / Overflowing choked drains or manholes", "com_location": "16, Raviwar Peth Rd, Kapad Ganj, Budhwar Peth, Pune, Maharashtra 411002, India" }, "geometry": { "type": "Point", "coordinates": [ 73.8604452, 18.5158902 ] } },
{ "type": "Feature", "properties": { "ccd_name": "Cleaning / Overflowing choked drains or manholes", "com_location": "Dr Baba Saheb Ambedkar Vasahat Near Sundara Bai Marathi Vidyalay Chandannagar Pune 411014" }, "geometry": { "type": "Point", "coordinates": [ 73.9313437, 18.5621324 ] } },
{ "type": "Feature", "properties": { "ccd_name": "Cleaning / Overflowing choked drains or manholes", "com_location": "mALa ALI, sAvatA mALI maMdirA javaLa lohagAva puNe " }, "geometry": { "type": "Point", "coordinates": [ 73.8786239, 18.5246091 ] } },
{ "type": "Feature", "properties": { "ccd_name": "Cleaning / Overflowing choked drains or manholes", "com_location": "gaNesha kokATe chALa chyA mAge,sutAra chALa chyA shevaTI ,ma.na . pA shALe mAge , sutAravADI pAShANa puNe -21" }, "geometry": { "type": "Point", "coordinates": [ 73.8553755, 18.5238117 ] } },
{ "type": "Feature", "properties": { "ccd_name": "Cleaning / Overflowing choked drains or manholes", "com_location": "Sainathnagar Wadgaonsheri Dakshinmukhi Ganpati mandir, Pune, Maharashtra" }, "geometry": { "type": "Point", "coordinates": [ 73.9300045, 18.5410936 ] } },
{ "type": "Feature", "properties": { "ccd_name": "Cleaning / Overflowing choked drains or manholes", "com_location": "Viola society , D building , near mai mangeshkar hospital , trilok society , giridhar nagar , warje , pune 411058" }, "geometry": { "type": "Point", "coordinates": [ 73.7989916, 18.4863587 ] } },
{ "type": "Feature", "properties": { "ccd_name": "Cleaning / Overflowing choked drains or manholes", "com_location": "FWRJ+Q4R, Kanifnath Colony, Sasane Nagar, Hadapsar, Pune, Autadwadi Handewadi, Maharashtra 411028, India" }, "geometry": { "type": "Point", "coordinates": [ 73.9302742, 18.4920252 ] } },
{ "type": "Feature", "properties": { "ccd_name": "Cleaning / Overflowing choked drains or manholes", "com_location": "ambegaoM paThAra Pune Maharashtra India" }, "geometry": { "type": "Point", "coordinates": [ 73.8426415, 18.4587777 ] } },
{ "type": "Feature", "properties": { "ccd_name": "Cleaning / Overflowing choked drains or manholes", "com_location": "Royal heights anand vihar colony 1 hingne khurd sinhgad road pune 411051" }, "geometry": { "type": "Point", "coordinates": [ 73.8211295, 18.442613 ] } },
{ "type": "Feature", "properties": { "ccd_name": "Cleaning / Overflowing choked drains or manholes", "com_location": "Plot 19/ B sarve 120  naMbara shivaratna sosAyaTI ma Darna ka lanI pauDa roDa kotharUDa puNe 38 kiShkiMdhA nagarachyA javaLa" }, "geometry": { "type": "Point", "coordinates": [ 73.8786239, 18.5246091 ] } },
{ "type": "Feature", "properties": { "ccd_name": "Repairing pothole around manhole", "com_location": "Kothrud Pune Maharashtra India" }, "geometry": { "type": "Point", "coordinates": [ 73.8076543, 18.5073514 ] } },
{ "type": "Feature", "properties": { "ccd_name": "Cleaning / Overflowing choked drains or manholes", "com_location": "836, Laxmi Rd, near Sonya Maruti Chowk, Budhwar Peth. pune" }, "geometry": { "type": "Point", "coordinates": [ 73.8583926, 18.515989 ] } },
{ "type": "Feature", "properties": { "ccd_name": "Cleaning / Overflowing choked drains or manholes", "com_location": "puNe-solApUra hAyave lagatachI sugaMdhI sosAyaTI pAsUna mAMjarI phArma oDhyAparyaMta  harapaLe lA.cnsa samora" }, "geometry": { "type": "Point", "coordinates": [ 73.8786239, 18.5246091 ] } },
{ "type": "Feature", "properties": { "ccd_name": "Cleaning / Overflowing choked drains or manholes", "com_location": "chafekar nagar central mall shejari shivaji nagar pune " }, "geometry": { "type": "Point", "coordinates": [ 73.8385718, 18.5344201 ] } },
{ "type": "Feature", "properties": { "ccd_name": "Cleaning / Overflowing choked drains or manholes", "com_location": "omakAra nagara gallI naMbara pAcha shivateja  nagara roDa bibavevADI , Pune, Maharashtra" }, "geometry": { "type": "Point", "coordinates": [ 73.8640944, 18.4690213 ] } },
{ "type": "Feature", "properties": { "ccd_name": "Cleaning / Overflowing choked drains or manholes", "com_location": "Swami Vivekanand society near Gaikwad petrol pump D P Road Aundh Pune 411007" }, "geometry": { "type": "Point", "coordinates": [ 73.8033452, 18.5585478 ] } },
{ "type": "Feature", "properties": { "ccd_name": "Cleaning / Overflowing choked drains or manholes", "com_location": "29/4/118, Lonkar Nagar, Sade Satra Nali, Pune, Maharashtra 411028, India" }, "geometry": { "type": "Point", "coordinates": [ 73.9430725, 18.5297687 ] } },
{ "type": "Feature", "properties": { "ccd_name": "Cleaning / Overflowing choked drains or manholes", "com_location": "nirmANa nisarga apArTameMTa \r\nDAvI bhusArI ka lanI ,kotharUDa, Pune, Maharashtra" }, "geometry": { "type": "Point", "coordinates": [ 73.7904396, 18.5082124 ] } },
{ "type": "Feature", "properties": { "ccd_name": "Cleaning / Overflowing choked drains or manholes", "com_location": "sahakAra nagara dhanakavaDI kShetrIya kAryAlaya pattA. taLajAI mAtA vasAhata ukiraNa De reshaniMga dukAnAmAge , Pune, Maharashtra" }, "geometry": { "type": "Point", "coordinates": [ 73.8528419, 18.5128563 ] } },
{ "type": "Feature", "properties": { "ccd_name": "Repairing pothole around manhole", "com_location": "tophakhAnA Shivajinagar Pune Maharashtra India" }, "geometry": { "type": "Point", "coordinates": [ 73.855506, 18.5250558 ] } },
{ "type": "Feature", "properties": { "ccd_name": "Cleaning / Overflowing choked drains or manholes", "com_location": "Vatika Homes behind MITCON Patil Nagar Balewadi Pune Maharashtra India" }, "geometry": { "type": "Point", "coordinates": [ 73.7666879, 18.5809029 ] } },
{ "type": "Feature", "properties": { "ccd_name": "Repairing pothole around manhole", "com_location": "chALa naM. 118 / 8, shivadarshana. , Pune, Maharashtra" }, "geometry": { "type": "Point", "coordinates": [ 73.813614, 18.5006288 ] } },
{ "type": "Feature", "properties": { "ccd_name": "Cleaning / Overflowing choked drains or manholes", "com_location": "Dr minu Mehta Nagar kondhwa budhruk pune 411048" }, "geometry": { "type": "Point", "coordinates": [ 73.884658500000015, 18.470406 ] } },
{ "type": "Feature", "properties": { "ccd_name": "Replacement of missing/damaged manholes/inspection", "com_location": "S. No.74 A1, Lane B, Prakash Complex, B. T. Kawade Road, Ghorpadi Gaon, Pune, Maharashtra" }, "geometry": { "type": "Point", "coordinates": [ 73.906003, 18.528028 ] } },
{ "type": "Feature", "properties": { "ccd_name": "Cleaning / Overflowing choked drains or manholes", "com_location": "197/B/12/9, Malwadi, Hadapsar, Pune, Maharashtra 411028, India" }, "geometry": { "type": "Point", "coordinates": [ 73.9481632, 18.516107 ] } },
{ "type": "Feature", "properties": { "ccd_name": "Stopping chamber overflow (HO)", "com_location": "lena no.16 A sayyada nagara haDapasara puNe " }, "geometry": { "type": "Point", "coordinates": [ 73.9497113, 18.4957482 ] } },
{ "type": "Feature", "properties": { "ccd_name": "Cleaning / Overflowing choked drains or manholes", "com_location": "sarva naMbara 94 rAjIva gAMdhI ka lanI taravaDe vastI mohammada vADI puNe 60" }, "geometry": { "type": "Point", "coordinates": [ 73.9268939, 18.475396 ] } },
{ "type": "Feature", "properties": { "ccd_name": "Replacement of missing/damaged manholes/inspection", "com_location": "GWVQ+RC7 Thite wasti, Thite Vasti, Thite Nagar, Kharadi, Pune, Maharashtra 411014, India" }, "geometry": { "type": "Point", "coordinates": [ 73.9385495, 18.5445401 ] } },
{ "type": "Feature", "properties": { "ccd_name": "Cleaning / Overflowing choked drains or manholes", "com_location": "Sr no 60/1 sai nagar galli no 3 sukhsagar nagar bhag 2 kondhwa bk. pune 48" }, "geometry": { "type": "Point", "coordinates": [ 73.875734, 18.4562445 ] } },
{ "type": "Feature", "properties": { "ccd_name": "Cleaning / Overflowing choked drains or manholes", "com_location": "Address -Lane no 11,near shri swami samarth medical,Sundarnagar Mangadewadi ,katraj, Pune 411046" }, "geometry": { "type": "Point", "coordinates": [ 73.8642072, 18.4327794 ] } },
{ "type": "Feature", "properties": { "ccd_name": "Cleaning / Overflowing choked drains or manholes", "com_location": "JW64+W6, Dighi, Pune, Maharashtra 411047, India" }, "geometry": { "type": "Point", "coordinates": [ 73.90620444, 18.6118061 ] } },
{ "type": "Feature", "properties": { "ccd_name": "Cleaning / Overflowing choked drains or manholes", "com_location": "Dahanukar Colony lane no 1 near hotel Jalsa pune 38" }, "geometry": { "type": "Point", "coordinates": [ 73.8127957, 18.4939887 ] } },
{ "type": "Feature", "properties": { "ccd_name": "Cleaning / Overflowing choked drains or manholes", "com_location": "Ba Vermont Co-Operative Housing Society Limited \r\nBaif Road , Pune, Maharashtra" }, "geometry": { "type": "Point", "coordinates": [ 73.9794906, 18.5731805 ] } },
{ "type": "Feature", "properties": { "ccd_name": "Cleaning / Overflowing choked drains or manholes", "com_location": "Street Number  Nirmal Township Sasane Nagar Hadapsar Pune Maharashtra India" }, "geometry": { "type": "Point", "coordinates": [ 73.9386972, 18.4871056 ] } },
{ "type": "Feature", "properties": { "ccd_name": "Cleaning / Overflowing choked drains or manholes", "com_location": "Rajaram patil nagar, lane no 1 and 2 between, Near Shriraj medico, Kharadi Pune - 411014 " }, "geometry": { "type": "Point", "coordinates": [ 73.9460574, 18.566086 ] } },
{ "type": "Feature", "properties": { "ccd_name": "Raising of manhole (except in monsoon)", "com_location": "Kirloskar Brothers Limited KBL Baner Pune Maharashtra India" }, "geometry": { "type": "Point", "coordinates": [ 73.7655875, 18.5604781 ] } },
{ "type": "Feature", "properties": { "ccd_name": "Cleaning / Overflowing choked drains or manholes", "com_location": "Sumedhashri society \r\nOpposite rajiv gandhi e learning school\r\nShivdarshan chowk Parvati, Pune, Maharashtra" }, "geometry": { "type": "Point", "coordinates": [ 73.8537508, 18.4921205 ] } },
{ "type": "Feature", "properties": { "ccd_name": "Cleaning / Overflowing choked drains or manholes", "com_location": "Sr.No. 203 Shivarastha,Sade Satara Nali, todmal vasti Hadapsar Pune 411028" }, "geometry": { "type": "Point", "coordinates": [ 73.9501677, 18.5133271 ] } },
{ "type": "Feature", "properties": { "ccd_name": "Cleaning / Overflowing choked drains or manholes", "com_location": " in Natraj Colony, Gondhale Nagar, Hadapsar , Pune, Maharashtra" }, "geometry": { "type": "Point", "coordinates": [ 73.9478961, 18.4937072 ] } },
{ "type": "Feature", "properties": { "ccd_name": "Cleaning / Overflowing choked drains or manholes", "com_location": "22/01/01 , len.no 5 , opp Swamini Enterprises, Thitewasthi, Karadhi, Pune 411014 \r\nContact person: Swapnil Subhash Markad" }, "geometry": { "type": "Point", "coordinates": [ 73.9371913, 18.5437813 ] } },
{ "type": "Feature", "properties": { "ccd_name": "Cleaning / Overflowing choked drains or manholes", "com_location": "Bibawewadi gavthan kitak nashak kothi samor, Pune, Maharashtra" }, "geometry": { "type": "Point", "coordinates": [ 73.8632019, 18.4746754 ] } },
{ "type": "Feature", "properties": { "ccd_name": "Cleaning / Overflowing choked drains or manholes", "com_location": "Kingston Aura Handewadi Road opp Jai Tulja Bhavani Mangal Karyalay Pandhari Nagar Hadapsar Autade Pune Maharashtra India" }, "geometry": { "type": "Point", "coordinates": [ 73.9339671, 18.4604276 ] } },
{ "type": "Feature", "properties": { "ccd_name": "Cleaning / Overflowing choked drains or manholes", "com_location": "Flat No. 402, Akshara Residency, Near Ideal Park, Opposite Hotel Krishnasagar, Gokulnagar,\r\nKatraj-Kondhwa Road, Lane no. 12, Pune 411046" }, "geometry": { "type": "Point", "coordinates": [ 73.8731955, 18.4491809 ] } },
{ "type": "Feature", "properties": { "ccd_name": "Cleaning / Overflowing choked drains or manholes", "com_location": "kasabA peTha kuMbhAravADAbAMgI boLa puNe " }, "geometry": { "type": "Point", "coordinates": [ 73.8786239, 18.5246091 ] } },
{ "type": "Feature", "properties": { "ccd_name": "Cleaning / Overflowing choked drains or manholes", "com_location": "Hadpasar Manjri Budruk GopalPatti Near ZP School Pune 412307" }, "geometry": { "type": "Point", "coordinates": [ 73.9826107, 18.5212073 ] } },
{ "type": "Feature", "properties": { "ccd_name": "Cleaning / Overflowing choked drains or manholes", "com_location": "82/23/34, Maharashtra Bhushan Vishnu Narayan Tatha Nanasaheb Dharmadhikari Path, Azad Nagar, Kothrud, Pune, Maharashtra 411038, India" }, "geometry": { "type": "Point", "coordinates": [ 73.802274, 18.503625 ] } },
{ "type": "Feature", "properties": { "ccd_name": "Cleaning / Overflowing choked drains or manholes", "com_location": "prabhAga kramAMka 35 saMbhAjI nagara padmAvatI nagara sosAyaTI lagatachyA roDa varIla, Pune, Maharashtra" }, "geometry": { "type": "Point", "coordinates": [ 73.801344, 18.660783 ] } },
{ "type": "Feature", "properties": { "ccd_name": "Cleaning / Overflowing choked drains or manholes", "com_location": "Ram Indu Park Road Baner Pune Maharashtra India" }, "geometry": { "type": "Point", "coordinates": [ 73.7801709, 18.5654759 ] } },
{ "type": "Feature", "properties": { "ccd_name": "Cleaning / Overflowing choked drains or manholes", "com_location": "WHISPERING WINDS PHASE Pashan Pune Maharashtra India" }, "geometry": { "type": "Point", "coordinates": [ 73.7945758, 18.5491591 ] } },
{ "type": "Feature", "properties": { "ccd_name": "Cleaning / Overflowing choked drains or manholes", "com_location": ". sthaLa nAnAvare pulA samora perIviMkala shejArI yogI pArka bANera puNe 45" }, "geometry": { "type": "Point", "coordinates": [ 73.8786239, 18.5246091 ] } },
{ "type": "Feature", "properties": { "ccd_name": "Cleaning / Overflowing choked drains or manholes", "com_location": "192 shramik nagar behind suda market Mangalwar peth pune " }, "geometry": { "type": "Point", "coordinates": [ 73.8646945, 18.5240566 ] } },
{ "type": "Feature", "properties": { "ccd_name": "Cleaning / Overflowing choked drains or manholes", "com_location": "chALa kramAMka bI 43/16appara chaitrabana vasAhata liMbUni buddha   vihArAchyA samora bibevADI puNe." }, "geometry": { "type": "Point", "coordinates": [ 73.8291465, 18.562796 ] } },
{ "type": "Feature", "properties": { "ccd_name": "Cleaning / Overflowing choked drains or manholes", "com_location": "43/2 c, datta nagar, lane no 3, behind chate kids, katraj road, datta nagar pune - 411046." }, "geometry": { "type": "Point", "coordinates": [ 73.8484533, 18.4494269 ] } },
{ "type": "Feature", "properties": { "ccd_name": "Cleaning / Overflowing choked drains or manholes", "com_location": "Address: sr.no 41 atal 11 Green Hill Park  society near sai baba Temple shankar nagar ambegaon khurd pune 411046" }, "geometry": { "type": "Point", "coordinates": [ 73.8151177, 18.5074457 ] } },
{ "type": "Feature", "properties": { "ccd_name": "Cleaning / Overflowing choked drains or manholes", "com_location": "Map :- 18 28'48.9\"N 73 55'52.3\"E\r\nSiddhi Vinayak Vihar\r\n Sai Colony, Hadapsar, Pune, Autadwadi Handewadi, Maharashtra 411028\r\n" }, "geometry": { "type": "Point", "coordinates": [ 73.9311489, 18.4802512 ] } },
{ "type": "Feature", "properties": { "ccd_name": "Repairing pothole around manhole", "com_location": "shivapratApa chauka pavAra ha spiTala mAge , Pune, Maharashtra" }, "geometry": { "type": "Point", "coordinates": [ 73.8604327, 18.4660852 ] } },
{ "type": "Feature", "properties": { "ccd_name": "Cleaning / Overflowing choked drains or manholes", "com_location": "gallI na,27,shivashaktI nagara,shrI AnaMda bharama va poLekara yAMchyA lAIna madhUna sutAradarA, Pune, Maharashtra" }, "geometry": { "type": "Point", "coordinates": [ 73.8786239, 18.5246091 ] } },
{ "type": "Feature", "properties": { "ccd_name": "Cleaning / Overflowing choked drains or manholes", "com_location": "jaggruti hospital backside , manjari farm, opposite post ofice , shetai nagar hake vasti Pune 412307." }, "geometry": { "type": "Point", "coordinates": [ 73.9681018, 18.4965748 ] } },
{ "type": "Feature", "properties": { "ccd_name": "Cleaning / Overflowing choked drains or manholes", "com_location": "Mahatma Phule Vasahat Lane No 25 13 Tadiwala Road Pune 411001" }, "geometry": { "type": "Point", "coordinates": [ 73.873548, 18.5368902 ] } },
{ "type": "Feature", "properties": { "ccd_name": "Repairing pothole around manhole", "com_location": "Opp.Kapila Pashu Aushdhalay,\r\nBarisster Gadgil Street, Nagnath Par, Sadsshiv Peth\r\nPune -30 " }, "geometry": { "type": "Point", "coordinates": [ 73.8497657, 18.5125832 ] } },
{ "type": "Feature", "properties": { "ccd_name": "Stopping chamber overflow (HO)", "com_location": "9, Kirti Gardens, Pashan - Sus Rd, Pashan, Pune, Maharashtra 411021, India" }, "geometry": { "type": "Point", "coordinates": [ 73.7652269, 18.5412962 ] } },
{ "type": "Feature", "properties": { "ccd_name": "Cleaning / Overflowing choked drains or manholes", "com_location": "Laigude wasti dhayari pune   411041 sr no 30/27 near by ganapati nomber Near by ganapati mondir" }, "geometry": { "type": "Point", "coordinates": [ 73.8059871, 18.4767447 ] } },
{ "type": "Feature", "properties": { "ccd_name": "Cleaning / Overflowing choked drains or manholes", "com_location": "Dhanori Pune Maharashtra India" }, "geometry": { "type": "Point", "coordinates": [ 73.896851, 18.5967587 ] } },
{ "type": "Feature", "properties": { "ccd_name": "Cleaning / Overflowing choked drains or manholes", "com_location": " kAtraja shAninagara te jAMbhuLavADI rastyAvara , Pune, Maharashtra" }, "geometry": { "type": "Point", "coordinates": [ 73.8541758, 18.4357741 ] } },
{ "type": "Feature", "properties": { "ccd_name": "Cleaning / Overflowing choked drains or manholes", "com_location": "166, Jijau Nagar Lane, 10, Late Narayanrao Kondiba Jagtap Path, Jadhav Nagar, Vadgaon Budruk, Pune, Maharashtra 411041, India" }, "geometry": { "type": "Point", "coordinates": [ 73.8282322, 18.4673857 ] } },
{ "type": "Feature", "properties": { "ccd_name": "Cleaning / Overflowing choked drains or manholes", "com_location": "SNO 74/1/B+2 FL NO 36, Smita Housing Complex, Lane No 6, Shriram Nagar, Katraj, Pune, Maharashtra 411046, India" }, "geometry": { "type": "Point", "coordinates": [ 73.853165772240004, 18.45478040643 ] } },
{ "type": "Feature", "properties": { "ccd_name": "Cleaning / Overflowing choked drains or manholes", "com_location": "Shivsena Bhavan Malawadi Hadapsar Pune -411028" }, "geometry": { "type": "Point", "coordinates": [ 73.9356501, 18.5069505 ] } },
{ "type": "Feature", "properties": { "ccd_name": "Cleaning / Overflowing choked drains or manholes", "com_location": "3a/67 Kamaraj nagar , behind Sardar Ji Vakhar , yerwada Pune. 411006" }, "geometry": { "type": "Point", "coordinates": [ 73.879711, 18.5529226 ] } },
{ "type": "Feature", "properties": { "ccd_name": "Cleaning / Overflowing choked drains or manholes", "com_location": "Dr Dilip Kiyawat . A22, Aashiyana Palace, Gugle Lane ,Bund Garden Road, 411001., Pune, Maharashtra" }, "geometry": { "type": "Point", "coordinates": [ 73.876749, 18.5303727 ] } },
{ "type": "Feature", "properties": { "ccd_name": "Cleaning / Overflowing choked drains or manholes", "com_location": "survey number 168 Bhupen Nagar Keshav complex Malwadi Hadapsar Pune 411028" }, "geometry": { "type": "Point", "coordinates": [ 73.9439523, 18.5346484 ] } },
{ "type": "Feature", "properties": { "ccd_name": "Cleaning / Overflowing choked drains or manholes", "com_location": "123/2/B/22, Mavale Basti, Malavalli, Karvenagar, Pune, Maharashtra 411052, India" }, "geometry": { "type": "Point", "coordinates": [ 73.8160859, 18.4919792 ] } },
{ "type": "Feature", "properties": { "ccd_name": "Cleaning / Overflowing choked drains or manholes", "com_location": "Plot no 50/  Mitramandal colony. PARVATI. Pune" }, "geometry": { "type": "Point", "coordinates": [ 73.8516796, 18.4975219 ] } },
{ "type": "Feature", "properties": { "ccd_name": "Replacement of missing/damaged manholes/inspection", "com_location": "ghorapaDe peTha pI ema sI ka lanI kramAMka 9 yethIla chaukonI cheMbara pUrNa phuTale Ahe, Pune, Maharashtra" }, "geometry": { "type": "Point", "coordinates": [ 73.8786239, 18.5246091 ] } },
{ "type": "Feature", "properties": { "ccd_name": "Cleaning / Overflowing choked drains or manholes", "com_location": "Sr no-58, sant gajanan maharaj nagar, gali no-03 beside sai baba mandir, kondhwa bk pune 411048" }, "geometry": { "type": "Point", "coordinates": [ 73.8887006, 18.4344374 ] } },
{ "type": "Feature", "properties": { "ccd_name": "Cleaning / Overflowing choked drains or manholes", "com_location": "Wadarvadi Pune Maharashtra India" }, "geometry": { "type": "Point", "coordinates": [ 73.8323492, 18.528435 ] } },
{ "type": "Feature", "properties": { "ccd_name": "Replacement of missing/damaged manholes/inspection", "com_location": "Eden Villa, 35, Cross Rd 19, Khese Park, Lohegaon, Pune, Maharashtra 411032, India" }, "geometry": { "type": "Point", "coordinates": [ 73.9096456, 18.5923323 ] } },
{ "type": "Feature", "properties": { "ccd_name": "Cleaning / Overflowing choked drains or manholes", "com_location": "Survey No 253/2 Khese Park Lane No 1B Lohegaon Pune 411032." }, "geometry": { "type": "Point", "coordinates": [ 73.9111125, 18.5876325 ] } },
{ "type": "Feature", "properties": { "ccd_name": "Cleaning / Overflowing choked drains or manholes", "com_location": "Location : \r\n55B Sai Krupa Society\r\nNear Ram Mandir, \r\nOpposite Ganesh Prabha society \r\nPune 43" }, "geometry": { "type": "Point", "coordinates": [ 73.9203038, 18.542959 ] } },
{ "type": "Feature", "properties": { "ccd_name": "Cleaning / Overflowing choked drains or manholes", "com_location": "Mohammed Wadi Pune Maharashtra India" }, "geometry": { "type": "Point", "coordinates": [ 73.9163246, 18.4751462 ] } },
{ "type": "Feature", "properties": { "ccd_name": "Cleaning / Overflowing choked drains or manholes", "com_location": "NDA Road Warje Malwadi Near Canara bank, Dhyanesh Society Pune - 411058." }, "geometry": { "type": "Point", "coordinates": [ 73.7980847, 18.4791318 ] } },
{ "type": "Feature", "properties": { "ccd_name": "Cleaning / Overflowing choked drains or manholes", "com_location": "Anil Trimbak Ghule Colony Survey No 104/19 Snehal Khanaval Lane Gopalpatti Manjari Bk Pune 412307" }, "geometry": { "type": "Point", "coordinates": [ 73.9674755, 18.5121178 ] } },
{ "type": "Feature", "properties": { "ccd_name": "Cleaning / Overflowing choked drains or manholes", "com_location": "Start Of Pan Card Club Road Baner  Pune 411045" }, "geometry": { "type": "Point", "coordinates": [ 73.7702062, 18.5574388 ] } },
{ "type": "Feature", "properties": { "ccd_name": "Cleaning / Overflowing choked drains or manholes", "com_location": "bI 49 , tuLashIbAgavAle kA.clanI, sahakAra nagara naMbara 2,lena naMbara 3, dashabhujAgaNapatI javaLa, puNe 411009" }, "geometry": { "type": "Point", "coordinates": [ 73.845316, 18.484966 ] } },
{ "type": "Feature", "properties": { "ccd_name": "Cleaning / Overflowing choked drains or manholes", "com_location": "Sun crest society Hotel Chamunda DSK Vishwa Road diary Pune 411041 " }, "geometry": { "type": "Point", "coordinates": [ 73.803957, 18.4456026 ] } },
{ "type": "Feature", "properties": { "ccd_name": "Cleaning / Overflowing choked drains or manholes", "com_location": "shubhama pArka sAIM nagara koMDavA budraka sAlve gArDana roDa bAlAjI phUDa kirAnA sTora sAIM hoTala ke pAsa , Pune, Maharashtra" }, "geometry": { "type": "Point", "coordinates": [ 73.8786239, 18.5246091 ] } },
{ "type": "Feature", "properties": { "ccd_name": "Cleaning / Overflowing choked drains or manholes", "com_location": "210/8, Purgrasat Vasahat, GaneshNagar, 10 Chawl, Near Vande Mataram Mandal, Pune 411004" }, "geometry": { "type": "Point", "coordinates": [ 73.8277428, 18.496928 ] } },
{ "type": "Feature", "properties": { "ccd_name": "Cleaning / Overflowing choked drains or manholes", "com_location": "Handewadi road shiram chowk near kukudo ku chicken shop hadapsar pune 411028" }, "geometry": { "type": "Point", "coordinates": [ 73.9322668, 18.4926569 ] } },
{ "type": "Feature", "properties": { "ccd_name": "Cleaning / Overflowing choked drains or manholes", "com_location": "B 88 kholI kramAMka 20\r\nsupara pANyAchyA TAkI javaLa bibavevADI puNe 37" }, "geometry": { "type": "Point", "coordinates": [ 73.8640944, 18.4690213 ] } },
{ "type": "Feature", "properties": { "ccd_name": "Cleaning / Overflowing choked drains or manholes", "com_location": "vArDa kramAMka 29 puNe sAtArA roDa sAIbAbA maMdirAsamora jethe brija chAlU hoto" }, "geometry": { "type": "Point", "coordinates": [ 73.8579725, 18.4655022 ] } },
{ "type": "Feature", "properties": { "ccd_name": "Cleaning / Overflowing choked drains or manholes", "com_location": "dhAyarI gAva yethIla mArutI maMdirAjavaLIla, Pune, Maharashtra" }, "geometry": { "type": "Point", "coordinates": [ 73.8101999, 18.4471444 ] } },
{ "type": "Feature", "properties": { "ccd_name": "Problem regarding sewage treatment plant (HO)", "com_location": "JW33+M2X, 7th Heaven Rd, Madhav Nagar, Dhanori, Pune, Maharashtra 411015, India" }, "geometry": { "type": "Point", "coordinates": [ 73.9032624, 18.6033685 ] } },
{ "type": "Feature", "properties": { "ccd_name": "Cleaning / Overflowing choked drains or manholes", "com_location": "shri ram colony, near durga mata temple,iskcon gangadham road,plot no 13,kondhwa budruk,pune 411048." }, "geometry": { "type": "Point", "coordinates": [ 73.8996205, 18.4742443 ] } },
{ "type": "Feature", "properties": { "ccd_name": "Cleaning / Overflowing choked drains or manholes", "com_location": "49/3/2/7, Goraksha Nagar Katraj, Katraj, Pune, Maharashtra 411046, India" }, "geometry": { "type": "Point", "coordinates": [ 73.862433, 18.4394266 ] } },
{ "type": "Feature", "properties": { "ccd_name": "Replacement of missing/damaged manholes/inspection", "com_location": "22/4/10, Thite Vasti, Thite Nagar, Kharadi, Pune, Maharashtra 411014, India" }, "geometry": { "type": "Point", "coordinates": [ 73.9372679, 18.543513 ] } },
{ "type": "Feature", "properties": { "ccd_name": "Cleaning / Overflowing choked drains or manholes", "com_location": "hila misTa hArmonI bhAgAta kausara bAga, Pune, Maharashtra" }, "geometry": { "type": "Point", "coordinates": [ 73.8581668, 18.5223699 ] } },
{ "type": "Feature", "properties": { "ccd_name": "Cleaning / Overflowing choked drains or manholes", "com_location": "sADesatarA naLI sarve naMbara 274 sAInAtha sosAyaTI lAIna naMbara 1 \r\n pune 411028" }, "geometry": { "type": "Point", "coordinates": [ 73.9499426, 18.5127385 ] } },
{ "type": "Feature", "properties": { "ccd_name": "Cleaning / Overflowing choked drains or manholes", "com_location": "Shivaranjani A, Happy colony lane 1, Kothrud 411038, Pune, Maharashtra" }, "geometry": { "type": "Point", "coordinates": [ 73.8158405, 18.4957904 ] } },
{ "type": "Feature", "properties": { "ccd_name": "Cleaning / Overflowing choked drains or manholes", "com_location": "585/7, Late Suryakant Khatu Path, Burhanj Baug-B Colony, Salisbury Park, Gultekadi, Pune, Maharashtra 411037, India" }, "geometry": { "type": "Point", "coordinates": [ 73.874733, 18.487695 ] } },
{ "type": "Feature", "properties": { "ccd_name": "Cleaning / Overflowing choked drains or manholes", "com_location": "sr no 33/12 , behind chandrbhaga hotel near shrinath apartment, ambegaon bk, pune 411046." }, "geometry": { "type": "Point", "coordinates": [ 73.8522622, 18.4429023 ] } },
{ "type": "Feature", "properties": { "ccd_name": "Cleaning / Overflowing choked drains or manholes", "com_location": "Ashirwad building,mitha nagar,kondhwa khurd,pune 411048." }, "geometry": { "type": "Point", "coordinates": [ 73.8887822, 18.4718479 ] } },
{ "type": "Feature", "properties": { "ccd_name": "Cleaning / Overflowing choked drains or manholes", "com_location": "872 kasba peth trimurti mitr mandal 411011, Pune, Maharashtra" }, "geometry": { "type": "Point", "coordinates": [ 73.8567695, 18.5205081 ] } },
{ "type": "Feature", "properties": { "ccd_name": "Cleaning / Overflowing choked drains or manholes", "com_location": "635/79/8, Sane Guruji Rasta, B Block, Gandhi Nagar, Sadashiv Peth, Pune, Maharashtra 411030, India" }, "geometry": { "type": "Point", "coordinates": [ 73.850552, 18.503959 ] } },
{ "type": "Feature", "properties": { "ccd_name": "Cleaning / Overflowing choked drains or manholes", "com_location": "Ambedkar Nagar\r\nAMbeDakara nagara\r\nKondhwa\r\nPune, Maharashtra 411048" }, "geometry": { "type": "Point", "coordinates": [ 73.8896849, 18.4585451 ] } },
{ "type": "Feature", "properties": { "ccd_name": "Cleaning / Overflowing choked drains or manholes", "com_location": "MAP FQRR+VQW Pune, Maharashtra Location : hill view residency, E wing warje, near saai sayaji nagar" }, "geometry": { "type": "Point", "coordinates": [ 73.7919057, 18.4925607 ] } },
{ "type": "Feature", "properties": { "ccd_name": "Cleaning / Overflowing choked drains or manholes", "com_location": "pattA - Sr.No. 25/19, Shri Sadguru Krupa Niwas, Raje Chowk Lane No.1, Near Ram Mandir, Ambegaon Pathar, Pune - 411046" }, "geometry": { "type": "Point", "coordinates": [ 73.8426415, 18.4587777 ] } },
{ "type": "Feature", "properties": { "ccd_name": "Cleaning / Overflowing choked drains or manholes", "com_location": "ba.Nka  pha mahArAShTra naRhe  \r\nsamora puNe" }, "geometry": { "type": "Point", "coordinates": [ 73.826375, 18.4464732 ] } },
{ "type": "Feature", "properties": { "ccd_name": "Cleaning / Overflowing choked drains or manholes", "com_location": "Bartakke Hospital road  Location : Raghavdas Vidyalaya to Rahul Park , Gate no. 6 , Warje , Pune 411058" }, "geometry": { "type": "Point", "coordinates": [ 73.7942524, 18.4836945 ] } },
{ "type": "Feature", "properties": { "ccd_name": "Cleaning / Overflowing choked drains or manholes", "com_location": "Snehal Block, Guruprasad Apartment, 10, Lane Number 10, Anand Vihar, Wanawari, Hingne Budrukh, Karve Nagar, Pune, Maharashtra 411052\t" }, "geometry": { "type": "Point", "coordinates": [ 73.819791, 18.4911135 ] } },
{ "type": "Feature", "properties": { "ccd_name": "Cleaning / Overflowing choked drains or manholes", "com_location": "rojharI skUla vAraje yethe tuMbalelyA gaTArAtUna pANI bAhera yeUna Aditya gArDana siTI samorIla roDavara , Pune, Maharashtra" }, "geometry": { "type": "Point", "coordinates": [ 73.8786239, 18.5246091 ] } },
{ "type": "Feature", "properties": { "ccd_name": "Cleaning / Overflowing choked drains or manholes", "com_location": "Gondhale Nagar Satavwadi Hadapsar Pune Maharashtra India" }, "geometry": { "type": "Point", "coordinates": [ 73.948902, 18.4941368 ] } },
{ "type": "Feature", "properties": { "ccd_name": "Cleaning / Overflowing choked drains or manholes", "com_location": "FV79+H7 Pune, Maharashtra, India" }, "geometry": { "type": "Point", "coordinates": [ 73.868158091328993, 18.463903883046999 ] } },
{ "type": "Feature", "properties": { "ccd_name": "Stopping chamber overflow (HO)", "com_location": "SR 42 shubhda complex, near railway crossing, Kaleborate Nagar, Sasane Nagar, Hadapsar, Autadwadi Handewadi, Pune, Maharashtra 411028, India" }, "geometry": { "type": "Point", "coordinates": [ 73.9393739, 18.4841703 ] } },
{ "type": "Feature", "properties": { "ccd_name": "Septic Tank Cleaning", "com_location": "48/3/6, Milind Nagar, Mundhwa, Pune, Maharashtra 411036, India" }, "geometry": { "type": "Point", "coordinates": [ 73.9078891, 18.5261399 ] } },
{ "type": "Feature", "properties": { "ccd_name": "Cleaning / Overflowing choked drains or manholes", "com_location": "Koregaon Park Annexe, Road Front Of Poonawala Finance Building Pune 411036" }, "geometry": { "type": "Point", "coordinates": [ 73.9329062, 18.5330437 ] } },
{ "type": "Feature", "properties": { "ccd_name": "Cleaning / Overflowing choked drains or manholes", "com_location": "warje snehaparadise  A wing near warje malwasi police station pune " }, "geometry": { "type": "Point", "coordinates": [ 73.7956907, 18.4858914 ] } },
{ "type": "Feature", "properties": { "ccd_name": "Cleaning / Overflowing choked drains or manholes", "com_location": " lane 10 B near inamdar school Sayyad nagar Hadapsar Pune 411028 " }, "geometry": { "type": "Point", "coordinates": [ 73.9407582, 18.4971776 ] } },
{ "type": "Feature", "properties": { "ccd_name": "Cleaning / Overflowing choked drains or manholes", "com_location": "Aradhana Society Narveer Tanaji Wadi Wakdewadi Shivaji Nagar Behind Shivaji Nagar Metro Station Pune." }, "geometry": { "type": "Point", "coordinates": [ 73.8502559, 18.5331868 ] } },
{ "type": "Feature", "properties": { "ccd_name": "Cleaning / Overflowing choked drains or manholes", "com_location": "saikar mala Baner Nagari Sahakari Pat Sanstha Maryadit backside pune " }, "geometry": { "type": "Point", "coordinates": [ 73.7895599, 18.5598696 ] } },
{ "type": "Feature", "properties": { "ccd_name": "Cleaning / Overflowing choked drains or manholes", "com_location": "4, Countrywoods, Tilekar Nagar, Kondhwa Budruk, Pune, Maharashtra 411046, India" }, "geometry": { "type": "Point", "coordinates": [ 73.8848172, 18.4427224 ] } },
{ "type": "Feature", "properties": { "ccd_name": "Cleaning / Overflowing choked drains or manholes", "com_location": "Sub Plot No 11, Final Plot No 106, Ramtekdi Industrial Area, Hadapsar, Pune 411013." }, "geometry": { "type": "Point", "coordinates": [ 73.9178951, 18.4936274 ] } },
{ "type": "Feature", "properties": { "ccd_name": "Cleaning / Overflowing choked drains or manholes", "com_location": "Main Parge nagar Road near City lawns hall Kondhwa bk, Pune, Maharashtra" }, "geometry": { "type": "Point", "coordinates": [ 73.8914174, 18.4674094 ] } },
{ "type": "Feature", "properties": { "ccd_name": "Cleaning / Overflowing choked drains or manholes", "com_location": "Sr no. 3,near chota canal,sainath vasahat,hadapsar gadital,pune 411028." }, "geometry": { "type": "Point", "coordinates": [ 73.9429625, 18.5009698 ] } },
{ "type": "Feature", "properties": { "ccd_name": "Cleaning / Overflowing choked drains or manholes", "com_location": "368, Uday Housing Society, Kiran Housing Society, Sahakarnagar, Pune, Maharashtra 411009, India" }, "geometry": { "type": "Point", "coordinates": [ 73.8505055, 18.4792889 ] } },
{ "type": "Feature", "properties": { "ccd_name": "Cleaning / Overflowing choked drains or manholes", "com_location": "Lake Bridge society Vitthal Nagar pune 411046 " }, "geometry": { "type": "Point", "coordinates": [ 73.844347, 18.4342053 ] } },
{ "type": "Feature", "properties": { "ccd_name": "Replacement of missing/damaged manholes/inspection", "com_location": "Tingre Nagar Pune Maharashtra India" }, "geometry": { "type": "Point", "coordinates": [ 73.8930827, 18.575865 ] } },
{ "type": "Feature", "properties": { "ccd_name": "Cleaning / Overflowing choked drains or manholes", "com_location": "JP Nagar Society, Lohegaon Airport Road, 509 Area, Next to AJ motors, Pune 411032." }, "geometry": { "type": "Point", "coordinates": [ 73.8974018, 18.5733593 ] } },
{ "type": "Feature", "properties": { "ccd_name": "Cleaning / Overflowing choked drains or manholes", "com_location": "Karvenagar, Pune, Maharashtra 411052, India" }, "geometry": { "type": "Point", "coordinates": [ 73.821729, 18.4914883 ] } },
{ "type": "Feature", "properties": { "ccd_name": "Cleaning / Overflowing choked drains or manholes", "com_location": "Ojas till Mont Vert Belrose, Pune, Maharashtra" }, "geometry": { "type": "Point", "coordinates": [ 73.7955817, 18.5475146 ] } },
{ "type": "Feature", "properties": { "ccd_name": "Cleaning / Overflowing choked drains or manholes", "com_location": "from house no 338 narayan peth, common wealth colony, nr modi ganapati mandir onwards., Pune, Maharashtra" }, "geometry": { "type": "Point", "coordinates": [ 73.8500717, 18.5154741 ] } },
{ "type": "Feature", "properties": { "ccd_name": "Cleaning / Overflowing choked drains or manholes", "com_location": "72/A Kasturba Society Vishrantwadi Pune 411015" }, "geometry": { "type": "Point", "coordinates": [ 73.8803194, 18.5717975 ] } },
{ "type": "Feature", "properties": { "ccd_name": "Cleaning / Overflowing choked drains or manholes", "com_location": "14, Narhe Rd, Dhayari Phata, Pune, Maharashtra 411041, India\r\n" }, "geometry": { "type": "Point", "coordinates": [ 73.8200202, 18.4553158 ] } },
{ "type": "Feature", "properties": { "ccd_name": "Cleaning / Overflowing choked drains or manholes", "com_location": "Silver Oak Society Vighnaharta Nagar Kondhwa Budruk Pune Maharashtra India" }, "geometry": { "type": "Point", "coordinates": [ 73.8659181, 18.4476953 ] } },
{ "type": "Feature", "properties": { "ccd_name": "Cleaning / Overflowing choked drains or manholes", "com_location": "Sr . 27/1 puShkarAja imArata shrI rAma maMdira javaLa AMbegAva paThAra bhAratI vidyApITha puNe 46 " }, "geometry": { "type": "Point", "coordinates": [ 73.8786239, 18.5246091 ] } },
{ "type": "Feature", "properties": { "ccd_name": "Cleaning / Overflowing choked drains or manholes", "com_location": "Shree Samrtha Sahawas, Near Lakdi Wakhar, Opposite Kalbhiravnath Temple, Dhayari, Pune" }, "geometry": { "type": "Point", "coordinates": [ 73.8131542, 18.4500402 ] } },
{ "type": "Feature", "properties": { "ccd_name": "Cleaning / Overflowing choked drains or manholes", "com_location": "Pune saswad road ,front side of pavan sweet home,dnyaneshwar colony, back side of bartakke shop,bhekrai nagar " }, "geometry": { "type": "Point", "coordinates": [ 73.9527421, 18.4858326 ] } },
{ "type": "Feature", "properties": { "ccd_name": "Replacement of missing/damaged manholes/inspection", "com_location": "201 , Next to Noori lab , Behind Chatrapati Shivaji Maharaj Putala , Navi Khadki Yerwada Pune 6" }, "geometry": { "type": "Point", "coordinates": [ 73.888737, 18.551179 ] } },
{ "type": "Feature", "properties": { "ccd_name": "Cleaning / Overflowing choked drains or manholes", "com_location": "lane no 23 A Sayyed nagar Hadapsar pune 411028." }, "geometry": { "type": "Point", "coordinates": [ 73.9288468, 18.4852958 ] } },
{ "type": "Feature", "properties": { "ccd_name": "Cleaning / Overflowing choked drains or manholes", "com_location": "MOZE NAGAR KAMAAN Lohegaon Pune Maharashtra India" }, "geometry": { "type": "Point", "coordinates": [ 73.9153603, 18.6119414 ] } },
{ "type": "Feature", "properties": { "ccd_name": "Cleaning / Overflowing choked drains or manholes", "com_location": "Baif road sambhajinagar opp Narayana school Kanchanpuram society Manav society wagholi pune 412207 " }, "geometry": { "type": "Point", "coordinates": [ 73.9785945, 18.5713228 ] } },
{ "type": "Feature", "properties": { "ccd_name": "Cleaning / Overflowing choked drains or manholes", "com_location": "Sr 14/2 thite nagar lane no 2 zensar IT tower back side kharadi pune 14 " }, "geometry": { "type": "Point", "coordinates": [ 73.9408271, 18.5455103 ] } },
{ "type": "Feature", "properties": { "ccd_name": "Cleaning / Overflowing choked drains or manholes", "com_location": "pattA=mahAdeva dugANe .hIMgaNe khurda,jagatApa pIemasI shALemAge, Pune, Maharashtra" }, "geometry": { "type": "Point", "coordinates": [ 73.8786239, 18.5246091 ] } },
{ "type": "Feature", "properties": { "ccd_name": "Cleaning / Overflowing choked drains or manholes", "com_location": "18 31'54.6\"N 73 56'29.2\"E\r\nSasane Colony Road Number 1, Shishak Society, Sasane Colony, Keshav Nagar, Mundhwa, Pune, Maharashtra 411036" }, "geometry": { "type": "Point", "coordinates": [ 73.9413994, 18.531314 ] } },
{ "type": "Feature", "properties": { "ccd_name": "Cleaning / Overflowing choked drains or manholes", "com_location": "kotharUDa mayUra ka lonI Mayur Colony Kothrud Pune Maharashtra India" }, "geometry": { "type": "Point", "coordinates": [ 73.8191664, 18.503337 ] } },
{ "type": "Feature", "properties": { "ccd_name": "Cleaning / Overflowing choked drains or manholes", "com_location": "navale ha spiTala samorIla vhI v pI hAiTsa yethe mukhya rastyAvarIla, Pune, Maharashtra" }, "geometry": { "type": "Point", "coordinates": [ 73.8786239, 18.5246091 ] } },
{ "type": "Feature", "properties": { "ccd_name": "Cleaning / Overflowing choked drains or manholes", "com_location": "Venutai, SN-42/2A/2, Late Narayanrao Kondiba Jagtap Path, Ganesh Colony, Tukai Nagar, Vadgaon Budruk, Pune, Maharashtra 411041, India" }, "geometry": { "type": "Point", "coordinates": [ 73.828231811522997, 18.47501373291 ] } },
{ "type": "Feature", "properties": { "ccd_name": "Cleaning / Overflowing choked drains or manholes", "com_location": "Shop No.4,Yashshree Complex, Bhagwan Tatyasaheb Kawade Rd, near Kawade Petrol Pump, Nigade Nagar, Ghorpadi, Pune, Maharashtra 411001, India" }, "geometry": { "type": "Point", "coordinates": [ 73.9059741, 18.5219398 ] } },
{ "type": "Feature", "properties": { "ccd_name": "Cleaning / Overflowing choked drains or manholes", "com_location": "Samarth nagar,hingne khurd,Kothawale Gitran Canal Road sinhgad road,pune 411051" }, "geometry": { "type": "Point", "coordinates": [ 73.8102853, 18.4596626 ] } },
{ "type": "Feature", "properties": { "ccd_name": "Repairing pothole around manhole", "com_location": "Shinde Pul te Barate banglow te wanjale bridge chowk, Pune, Maharashtra" }, "geometry": { "type": "Point", "coordinates": [ 73.787181, 18.46941 ] } },
{ "type": "Feature", "properties": { "ccd_name": "Cleaning / Overflowing choked drains or manholes", "com_location": "city point society near nobal hospital magarpatta hadapsar pune 411028 " }, "geometry": { "type": "Point", "coordinates": [ 73.9253381, 18.5066214 ] } },
{ "type": "Feature", "properties": { "ccd_name": "Cleaning / Overflowing choked drains or manholes", "com_location": " Location : Kharadi  Road-Shree Hosp. to end of Gulmohar Orchids., Pune, Maharashtra" }, "geometry": { "type": "Point", "coordinates": [ 73.9415406, 18.551713 ] } },
{ "type": "Feature", "properties": { "ccd_name": "Cleaning / Overflowing choked drains or manholes", "com_location": "Front side jasmine society,back side of shital petrol,42 kondhwa,pune 411048." }, "geometry": { "type": "Point", "coordinates": [ 73.888857, 18.469785 ] } },
{ "type": "Feature", "properties": { "ccd_name": "Cleaning / Overflowing choked drains or manholes", "com_location": "navaratna so lena 1 , Pune, Maharashtra" }, "geometry": { "type": "Point", "coordinates": [ 73.8786239, 18.5246091 ] } },
{ "type": "Feature", "properties": { "ccd_name": "Cleaning / Overflowing choked drains or manholes", "com_location": "Satyam Marg, Viman Nagar \r\nCorner of Lunakd Zodiac Society and Konark Nagar Society , Pune, Maharashtra" }, "geometry": { "type": "Point", "coordinates": [ 73.9132693, 18.5668702 ] } },
{ "type": "Feature", "properties": { "ccd_name": "Replacement of missing/damaged manholes/inspection", "com_location": "yeravaDA rAja chauka abhijIta meDikala samora puNe" }, "geometry": { "type": "Point", "coordinates": [ 73.8852638, 18.5477695 ] } },
{ "type": "Feature", "properties": { "ccd_name": "Cleaning / Overflowing choked drains or manholes", "com_location": "Bopodi Aadhrsh nagar bhau patil road Near Shankar mandir pune 411020 " }, "geometry": { "type": "Point", "coordinates": [ 73.8333189, 18.5723576 ] } },
{ "type": "Feature", "properties": { "ccd_name": "Cleaning / Overflowing choked drains or manholes", "com_location": "Chandan Nagar Pune Maharashtra India" }, "geometry": { "type": "Point", "coordinates": [ 73.9325552, 18.5635511 ] } },
{ "type": "Feature", "properties": { "ccd_name": "Repairing pothole around manhole", "com_location": "Near Sayali snacks center and bhaucha bhandars,Manaji Nagar, Narhe, Pune, Maharashtra 411041, India" }, "geometry": { "type": "Point", "coordinates": [ 73.8239226, 18.4527749 ] } },
{ "type": "Feature", "properties": { "ccd_name": "Replacement of missing/damaged manholes/inspection", "com_location": "917/19 F Shubhanan Apt Ganeshwadi Pune 411004" }, "geometry": { "type": "Point", "coordinates": [ 73.8404622, 18.5199316 ] } },
{ "type": "Feature", "properties": { "ccd_name": "Cleaning / Overflowing choked drains or manholes", "com_location": "Sai balaji tathastu society, Opposite to shree mangal pearl , near maruti mandir ,thite nagar , kharadi , pune 411014" }, "geometry": { "type": "Point", "coordinates": [ 73.9401777, 18.5457702 ] } },
{ "type": "Feature", "properties": { "ccd_name": "Cleaning / Overflowing choked drains or manholes", "com_location": "Manjari bk railway station javal front of hanuman mandir pune " }, "geometry": { "type": "Point", "coordinates": [ 73.8656914, 18.521881 ] } },
{ "type": "Feature", "properties": { "ccd_name": "Cleaning / Overflowing choked drains or manholes", "com_location": "Survey no. 35/8,mohan nagar,opposite chavan complex,mhasoba mandir chowk,dhankawadi,pune 411043." }, "geometry": { "type": "Point", "coordinates": [ 73.8460727, 18.4603768 ] } },
{ "type": "Feature", "properties": { "ccd_name": "Cleaning / Overflowing choked drains or manholes", "com_location": "GWXM+38F, Colonnade Rd, Tukaram Nagar, Kharadi, Pune, Maharashtra 411014, India" }, "geometry": { "type": "Point", "coordinates": [ 73.933240984945002, 18.547762683412 ] } },
{ "type": "Feature", "properties": { "ccd_name": "Cleaning / Overflowing choked drains or manholes", "com_location": "Sanket Park  Tarawade Vasti Undri Pune Maharashtra India" }, "geometry": { "type": "Point", "coordinates": [ 73.9265648, 18.4788229 ] } },
{ "type": "Feature", "properties": { "ccd_name": "Repairing pothole around manhole", "com_location": "Sayyedngr nagar lane no 24 to wadkarmalla , Pune, Maharashtra" }, "geometry": { "type": "Point", "coordinates": [ 73.8786239, 18.5246091 ] } },
{ "type": "Feature", "properties": { "ccd_name": "Cleaning / Overflowing choked drains or manholes", "com_location": "Malwadi Hadapsar Pune Maharashtra India" }, "geometry": { "type": "Point", "coordinates": [ 73.9389213, 18.5053012 ] } },
{ "type": "Feature", "properties": { "ccd_name": "Cleaning / Overflowing choked drains or manholes", "com_location": "shrIrAma chauka haMDevADI roDa nevase meDikalachyA mAge haDapasara va rDa  phisa, Pune, Maharashtra" }, "geometry": { "type": "Point", "coordinates": [ 73.9313774, 18.4795949 ] } },
{ "type": "Feature", "properties": { "ccd_name": "Cleaning / Overflowing choked drains or manholes", "com_location": "JSPM college,trupti orchid, narhe, gate no 1, swami narayan temple backside college, Pune - 411041." }, "geometry": { "type": "Point", "coordinates": [ 73.8386441, 18.441008 ] } },
{ "type": "Feature", "properties": { "ccd_name": "Stopping chamber overflow (HO)", "com_location": "BA Vermont Society, Baif Road, Wagholi, Pune-412207" }, "geometry": { "type": "Point", "coordinates": [ 73.9794906, 18.5731805 ] } },
{ "type": "Feature", "properties": { "ccd_name": "Cleaning / Overflowing choked drains or manholes", "com_location": "JP Nagar Society, Lohegaon Airport Road, 509 Area, Next to AJ motors, Pune 411032." }, "geometry": { "type": "Point", "coordinates": [ 73.8974018, 18.5733593 ] } },
{ "type": "Feature", "properties": { "ccd_name": "Raising of manhole(except in monsoon)", "com_location": "20, Yashwantrao Chavan Bridge, Joshi Wada, Sadashiv Peth, Pune, Maharashtra 411030, India" }, "geometry": { "type": "Point", "coordinates": [ 73.8428544, 18.5113521 ] } },
{ "type": "Feature", "properties": { "ccd_name": "Cleaning / Overflowing choked drains or manholes", "com_location": "Opposite Sansui electronics, Katraj Kondhwa Road Pune" }, "geometry": { "type": "Point", "coordinates": [ 73.8772485, 18.4487411 ] } },
{ "type": "Feature", "properties": { "ccd_name": "Cleaning / Overflowing choked drains or manholes", "com_location": "Swami Samarth math Road,Uday Apartment,Hingne Khurd,Pune 411051." }, "geometry": { "type": "Point", "coordinates": [ 73.8450996, 18.4612638 ] } },
{ "type": "Feature", "properties": { "ccd_name": "Replacement of missing/damaged manholes/inspection", "com_location": "amRRiteshvara gaNesha maMdirAchyA mAge,\r\njaya javAna nagara, yeravaDA, puNe   411006." }, "geometry": { "type": "Point", "coordinates": [ 73.8623613, 18.5959138 ] } },
{ "type": "Feature", "properties": { "ccd_name": "Cleaning / Overflowing choked drains or manholes", "com_location": "Green thing hotel front side,krishna wadi,near daji pan shop,vadgaon sheri,pune - 411014." }, "geometry": { "type": "Point", "coordinates": [ 73.9216212, 18.5465405 ] } },
{ "type": "Feature", "properties": { "ccd_name": "Cleaning / Overflowing choked drains or manholes", "com_location": "Santulan Bhavan,Tulja Bhawani Nagar, lane 7 Kharadi,Pune 411014 " }, "geometry": { "type": "Point", "coordinates": [ 73.9485364, 18.5645039 ] } },
{ "type": "Feature", "properties": { "ccd_name": "Cleaning / Overflowing choked drains or manholes", "com_location": "Near Kamal Vihar, Mohana Nagar, Dhankawadi, Pune 411043" }, "geometry": { "type": "Point", "coordinates": [ 73.8492117, 18.4608341 ] } },
{ "type": "Feature", "properties": { "ccd_name": "Cleaning / Overflowing choked drains or manholes", "com_location": "GW2R+P7V, Kubera Sankul Inner Rd, Shri Swami Samarth Nagar, Gadital, Hadapsar, Pune, Maharashtra 411028, India" }, "geometry": { "type": "Point", "coordinates": [ 73.940795898437997, 18.501859664916999 ] } },
{ "type": "Feature", "properties": { "ccd_name": "Cleaning / Overflowing choked drains or manholes", "com_location": "Near Vatal Buwa Temple Vetal Nagar Ambegaon Budruk Pune 411046" }, "geometry": { "type": "Point", "coordinates": [ 73.8411712, 18.4514511 ] } },
{ "type": "Feature", "properties": { "ccd_name": "Cleaning / Overflowing choked drains or manholes", "com_location": "Newton Homes Tupe Patil Road Malwadi Hadapsar Pune Maharashtra India" }, "geometry": { "type": "Point", "coordinates": [ 73.935064400000016, 18.5097998 ] } },
{ "type": "Feature", "properties": { "ccd_name": "Repairing pothole around manhole", "com_location": "Sus Pashan Bridge Pashan Pune Maharashtra India" }, "geometry": { "type": "Point", "coordinates": [ 73.7743393, 18.546595 ] } },
{ "type": "Feature", "properties": { "ccd_name": "Stopping chamber overflow (HO)", "com_location": "732, Mirza Galib Rd, Mankar Nagar, Ganesh Peth, Pune, Maharashtra 411002, India" }, "geometry": { "type": "Point", "coordinates": [ 73.862545, 18.512915 ] } },