{
"type": "FeatureCollection",
"name": "All_Years_Road",
"crs": { "type": "name", "properties": { "name": "urn:ogc:def:crs:OGC:1.3:CRS84" } },
"features": [
{ "type": "Feature", "properties": { "ccd_name": "Repairing potholes on Road", "com_location": "Koregaon park\r\nNorth main road, Pune, Maharashtra" }, "geometry": { "type": "Point", "coordinates": [ 73.8945668, 18.5394987 ] } },
{ "type": "Feature", "properties": { "ccd_name": "Repair/re-sufacing of roads/footpaths", "com_location": "Hotel Panchali Hotel JM Road Shivaji Nagar Pune 411005" }, "geometry": { "type": "Point", "coordinates": [ 73.8503717, 18.5258507 ] } },
{ "type": "Feature", "properties": { "ccd_name": "Repairing potholes on Road", "com_location": "kesnand road ,konark exotica chya opposite side la,relience mart point wagholi ,pune" }, "geometry": { "type": "Point", "coordinates": [ 73.9976696, 18.584357 ] } },
{ "type": "Feature", "properties": { "ccd_name": "Others road", "com_location": "rAmoDI jakAta nAkA, Pune, Maharashtra" }, "geometry": { "type": "Point", "coordinates": [ 73.9527066, 18.4835253 ] } },
{ "type": "Feature", "properties": { "ccd_name": "Others road", "com_location": "Aundh baner Link Road From Medipoint circle to Jupiter hospital, Pune, Maharashtra" }, "geometry": { "type": "Point", "coordinates": [ 73.785962, 18.5657127 ] } },
{ "type": "Feature", "properties": { "ccd_name": "Others road", "com_location": "khorADa vastIkaDe jANArA roDa mahAdeva nagara hiMgaNe., Pune, Maharashtra" }, "geometry": { "type": "Point", "coordinates": [ 73.845263, 18.6258765 ] } },
{ "type": "Feature", "properties": { "ccd_name": "Trimming of branches in Roadside trees", "com_location": "247-339, Vitthalrao Navale Rd, Porwal Metallica, Rasta Peth, Pune, Maharashtra 411002" }, "geometry": { "type": "Point", "coordinates": [ 73.8657984, 18.5186744 ] } },
{ "type": "Feature", "properties": { "ccd_name": "Repairing potholes on Road", "com_location": "magarapaTTA te muMDhavA chauka puNe " }, "geometry": { "type": "Point", "coordinates": [ 73.9328965, 18.5324891 ] } },
{ "type": "Feature", "properties": { "ccd_name": "Others road", "com_location": "mahalunge area., Pune, Maharashtra" }, "geometry": { "type": "Point", "coordinates": [ 73.7561594, 18.57382 ] } },
{ "type": "Feature", "properties": { "ccd_name": "Others road", "com_location": "34/A6, Kargil Vijay Nagar, Wadgaon Sheri, Pune, Maharashtra 411014, India" }, "geometry": { "type": "Point", "coordinates": [ 73.919479370117003, 18.560194015503001 ] } },
{ "type": "Feature", "properties": { "ccd_name": "Repair/re-sufacing of roads/footpaths", "com_location": "mitramandal signal to Parvati Darshan Signal , Pune, Maharashtra" }, "geometry": { "type": "Point", "coordinates": [ 73.849636, 18.485861 ] } },
{ "type": "Feature", "properties": { "ccd_name": "Fallen tree on road", "com_location": " Near green zone.  Opp mohannagar society. Sus road.  Baner sus road link., Pune, Maharashtra" }, "geometry": { "type": "Point", "coordinates": [ 73.7777885, 18.5454191 ] } },
{ "type": "Feature", "properties": { "ccd_name": "Others road", "com_location": " lane no.9 of Tulja Bhavani nagar , Pune, Maharashtra" }, "geometry": { "type": "Point", "coordinates": [ 73.9485018, 18.5639908 ] } },
{ "type": "Feature", "properties": { "ccd_name": "Sweeping /cleaning the road", "com_location": "majhadA phAma mena roDa niva karve  roDa vAraje tapodAma sosAyaTI samora, Pune, Maharashtra" }, "geometry": { "type": "Point", "coordinates": [ 73.8119667, 18.4902327 ] } },
{ "type": "Feature", "properties": { "ccd_name": "Repair/re-sufacing of roads/footpaths", "com_location": "Dattwadi, from Rakshalekha society to Lions club, Dattwadi, Pune, Maharashtra" }, "geometry": { "type": "Point", "coordinates": [ 73.8401251, 18.4995146 ] } },
{ "type": "Feature", "properties": { "ccd_name": "Others road", "com_location": "Bhosale nagar hadapsar \r\n , Pune, Maharashtra" }, "geometry": { "type": "Point", "coordinates": [ 73.931139, 18.5060533 ] } },
{ "type": "Feature", "properties": { "ccd_name": "Repairing potholes on Road", "com_location": "service road from Pan Card club road to Sus Pashan bridge, Pune, Maharashtra" }, "geometry": { "type": "Point", "coordinates": [ 73.7722954, 18.5475402 ] } },
{ "type": "Feature", "properties": { "ccd_name": "Repair/re-sufacing of roads/footpaths", "com_location": "Skyways Sereno Road Lohegaon Pune 411047" }, "geometry": { "type": "Point", "coordinates": [ 73.9089744, 18.6126515 ] } },
{ "type": "Feature", "properties": { "ccd_name": "Others road", "com_location": "lokamAnyanagara imArata 35 va 'varada' imAratIchyA madhIla rastyAvarache, Pune, Maharashtra" }, "geometry": { "type": "Point", "coordinates": [ 73.850462, 18.493906 ] } },
{ "type": "Feature", "properties": { "ccd_name": "Others road", "com_location": "salunke vihar rd in front of Kamela and next to SK Wadewala , Pune, Maharashtra" }, "geometry": { "type": "Point", "coordinates": [ 73.8915249, 18.4827734 ] } },
{ "type": "Feature", "properties": { "ccd_name": "Sweeping /cleaning the road", "com_location": "GWWF+9FG, Ganesh Nagar Rd, opposite Stella Maria School, Survey Number 2, Mahaveer Nagar, Wadgaon Sheri, Pune, Maharashtra 411014, India" }, "geometry": { "type": "Point", "coordinates": [ 73.9237447, 18.5459028 ] } },
{ "type": "Feature", "properties": { "ccd_name": "Repairing potholes on Road", "com_location": "VIT collge pUnama gArDana mena roDa vara appara IMdirAnagara puNe 411037" }, "geometry": { "type": "Point", "coordinates": [ 73.8644644, 18.4638133 ] } },
{ "type": "Feature", "properties": { "ccd_name": "Others road", "com_location": "Location dhawade wadewale chya mage aalo ki pahilya choukat ugwikade jatana\r\nGanpati matha warje malwadi, Pune, Maharashtra" }, "geometry": { "type": "Point", "coordinates": [ 73.7960218, 18.4761634 ] } },
{ "type": "Feature", "properties": { "ccd_name": "Trimming of branches in government / public place / road", "com_location": "31 ba maMgaLavAra peTha, shAradA svITa home shejArI, gavaLI vADA, puNe-11" }, "geometry": { "type": "Point", "coordinates": [ 73.9853931, 18.5234479 ] } },
{ "type": "Feature", "properties": { "ccd_name": "Repair/re-sufacing of roads/footpaths", "com_location": "Aundh samshan bhumi road  The Siddharth Nagar phase 3, Pune, Maharashtra" }, "geometry": { "type": "Point", "coordinates": [ 73.8141571, 18.5675713 ] } },
{ "type": "Feature", "properties": { "ccd_name": "Repairing potholes on Road", "com_location": "Yashwantrao chavan natyagruha front side,supekar mashshewale lane,kothrud,pune 411038" }, "geometry": { "type": "Point", "coordinates": [ 73.8124388, 18.5028189 ] } },
{ "type": "Feature", "properties": { "ccd_name": "Fallen tree on road", "com_location": "Indraraj Apartment C wing F C Road Dynaneshwar Paduka Chowk Pune 411005" }, "geometry": { "type": "Point", "coordinates": [ 73.8429401, 18.5271772 ] } },
{ "type": "Feature", "properties": { "ccd_name": "Others road", "com_location": "Govinda garden mangal karyalay to Hotel Green Park ,Someshwarwadi,pune." }, "geometry": { "type": "Point", "coordinates": [ 73.8041072, 18.5511696 ] } },
{ "type": "Feature", "properties": { "ccd_name": "Trimming of branches in government / public place / road", "com_location": " 32/B/121, Varkhade Nagar, Gijar Vasti, Katraj, Pune, Maharashtra 411046, India " }, "geometry": { "type": "Point", "coordinates": [ 73.8645725, 18.4434631 ] } },
{ "type": "Feature", "properties": { "ccd_name": "Sweeping /cleaning the road", "com_location": "Sr.no.19,ghar no. 688,siddhanath Niwas,Shani mandir road,gondhalenagar,hadapsar pune 2" }, "geometry": { "type": "Point", "coordinates": [ 73.9501339, 18.4937646 ] } },
{ "type": "Feature", "properties": { "ccd_name": "Others road", "com_location": "Bopodi - Aundh road, Pune, Maharashtra" }, "geometry": { "type": "Point", "coordinates": [ 73.8337563, 18.5623815 ] } },
{ "type": "Feature", "properties": { "ccd_name": "Others road", "com_location": "flame ring road in bavdhan budruk,pune." }, "geometry": { "type": "Point", "coordinates": [ 73.7658714, 18.5183521 ] } },
{ "type": "Feature", "properties": { "ccd_name": "Others road", "com_location": "tiranga bhuvan , Pune, Maharashtra" }, "geometry": { "type": "Point", "coordinates": [ 73.8235065, 18.5069379 ] } },
{ "type": "Feature", "properties": { "ccd_name": "Repair/re-sufacing of roads/footpaths", "com_location": "Magarpatta bridge to mundwa signal, Pune, Maharashtra" }, "geometry": { "type": "Point", "coordinates": [ 73.9271644, 18.5158057 ] } },
{ "type": "Feature", "properties": { "ccd_name": "Repairing potholes on Road", "com_location": "Lunkad Queensland, Mhada colony, viman nagar, Pune, Maharashtra" }, "geometry": { "type": "Point", "coordinates": [ 73.9104465, 18.5689134 ] } },
{ "type": "Feature", "properties": { "ccd_name": "Repairing potholes on Road", "com_location": "vAya ema sI e shALA ka Tara geTa shALechyA, Pune, Maharashtra" }, "geometry": { "type": "Point", "coordinates": [ 73.8786239, 18.5246091 ] } },
{ "type": "Feature", "properties": { "ccd_name": "Repair/re-sufacing of roads/footpaths", "com_location": "SH-44 Bramha Majestic BL, B-6-SN-15/1/1, Kondhwa Kadinibm Road, Bramha Avenue Society, Shreehans Nagar, Kondhwa, Pune, Maharashtra 411048, India" }, "geometry": { "type": "Point", "coordinates": [ 73.886098994898987, 18.478208604020185 ] } },
{ "type": "Feature", "properties": { "ccd_name": "Vehicles of showroom on road/footpath", "com_location": "vadgaon sheri , Pune, Maharashtra" }, "geometry": { "type": "Point", "coordinates": [ 73.918503, 18.5491477 ] } },
{ "type": "Feature", "properties": { "ccd_name": "Development of Bridge , Sub-ways & Pedestrian", "com_location": "vAkaDevADI St  navIna basa AgAra va AgArAchyA samora palIkaDIla bAjUsa asaNArA siTI basa sTa pa ( sArvajAnika shauchAlaya shejArI) yAMchyA madhye skAya va ka (lokhaMDI pUla), Pune, Maharashtra" }, "geometry": { "type": "Point", "coordinates": [ 73.8786239, 18.5246091 ] } },
{ "type": "Feature", "properties": { "ccd_name": "Repair/re-sufacing of roads/footpaths", "com_location": "No 13530, Ganga Mahal Society, Samarth Rd, near Pratidnya Hall, Mahadeo Sadan, Raghukul Society, Ganesh Nagar, Karve Nagar, Pune, Maharashtra 411052" }, "geometry": { "type": "Point", "coordinates": [ 73.8255647, 18.4943 ] } },
{ "type": "Feature", "properties": { "ccd_name": "Others road", "com_location": " VTP Solitaire, Baner Pashan Link Road, Someshwar temple road., Pune, Maharashtra" }, "geometry": { "type": "Point", "coordinates": [ 73.7974345, 18.5487164 ] } },
{ "type": "Feature", "properties": { "ccd_name": "Repair/re-sufacing of roads/footpaths", "com_location": "Uttam Townscapes, Near to Savanth Petrol Pump, Vishrantwadi -411006, Pune, Maharashtra" }, "geometry": { "type": "Point", "coordinates": [ 73.8834376, 18.5714214 ] } },
{ "type": "Feature", "properties": { "ccd_name": "Repair/re-sufacing of roads/footpaths", "com_location": "Mitra housing society \r\nModel colony \r\nShivaji nagar\r\n411016, Pune, Maharashtra" }, "geometry": { "type": "Point", "coordinates": [ 73.8374954, 18.5324846 ] } },
{ "type": "Feature", "properties": { "ccd_name": "Others road", "com_location": "Pune University main chuk Ganeshkhind Rd, Pune, Maharashtra 411007" }, "geometry": { "type": "Point", "coordinates": [ 73.8245935, 18.5530759 ] } },
{ "type": "Feature", "properties": { "ccd_name": "Others road", "com_location": "Near Sahajivan society ICS Colony Ganeshkhind Road Pune 7,Near Kasturkunj society." }, "geometry": { "type": "Point", "coordinates": [ 73.8299011, 18.5412325 ] } },
{ "type": "Feature", "properties": { "ccd_name": "Repair/re-sufacing of roads/footpaths", "com_location": "janasevA ba.Nka samora, sasANe nagara , Pune, Maharashtra" }, "geometry": { "type": "Point", "coordinates": [ 73.9321918, 18.4914555 ] } },
{ "type": "Feature", "properties": { "ccd_name": "Repair/re-sufacing of roads/footpaths", "com_location": "sahajAnaMda sosAyaTI kotharUDamadhye gAMdhI bhavanachyA mAge Ahe. sahajAnaMda sosAyaTItIla Cosmos  Bank chyA samorIla sahajAnaMda sosAyaTI bhAga - 1 madhye mahAtmA sosAyaTIkaDuna pravesha karatAMnA rastyAvarIla, Pune, Maharashtra" }, "geometry": { "type": "Point", "coordinates": [ 73.9531189, 18.5646495 ] } },
{ "type": "Feature", "properties": { "ccd_name": "Repairing potholes on Road", "com_location": " bhairavanAtha nagara koMdhave dhAvaDe \r\nsarvha na.  412/2 jitiShA hAITsa, Pune, Maharashtra" }, "geometry": { "type": "Point", "coordinates": [ 73.8786239, 18.5246091 ] } },
{ "type": "Feature", "properties": { "ccd_name": "Others road", "com_location": "outside Casa Familia, Sr. No 36/1, Opposite Raheja Vista Phase 3, Mohammadwadi , Pune, Maharashtra" }, "geometry": { "type": "Point", "coordinates": [ 73.9130186, 18.4726292 ] } },
{ "type": "Feature", "properties": { "ccd_name": "Repairing potholes on Road", "com_location": "SR No 53/1/2, Pathare Mala, Dholepatil Farms Rd, nr. Darga, Ashoka Nagar, Kharadi, Pune, Maharashtra 411014" }, "geometry": { "type": "Point", "coordinates": [ 73.9494854, 18.5568571 ] } },
{ "type": "Feature", "properties": { "ccd_name": "Repair/re-sufacing of roads/footpaths", "com_location": "Swami Samrtha Math Front of  WSb Bakers Uttareshwar Nagar Lohgaon Pune 411047" }, "geometry": { "type": "Point", "coordinates": [ 73.924319, 18.5992531 ] } },
{ "type": "Feature", "properties": { "ccd_name": "Parking policy", "com_location": "bavdhan LMD Chowk to high way service road ( Opp Sanjay Ghodawat Toyota Show Room) , Pune, Maharashtra" }, "geometry": { "type": "Point", "coordinates": [ 73.8472626, 18.4521349 ] } },
{ "type": "Feature", "properties": { "ccd_name": "Repairing potholes on Road", "com_location": "prabhAga kramAMka 28 sa.clisabarI pArka yethIla  mahAvIra pratiShThAna shALechyA geTachyA bAhera roDavara chaukAta, Pune, Maharashtra" }, "geometry": { "type": "Point", "coordinates": [ 73.8317554, 18.5293091 ] } },
{ "type": "Feature", "properties": { "ccd_name": "Repair/re-sufacing of roads/footpaths", "com_location": "ma Dela ka lanI paMkuMvara pArka. gaNeshakhiMDa , Pune, Maharashtra" }, "geometry": { "type": "Point", "coordinates": [ 73.8786239, 18.5246091 ] } },
{ "type": "Feature", "properties": { "ccd_name": "Repairing potholes on Road", "com_location": "Juna Fursungi Road shivshkati chouk, Pune, Maharashtra" }, "geometry": { "type": "Point", "coordinates": [ 73.9587208, 18.4823192 ] } },
{ "type": "Feature", "properties": { "ccd_name": "Sweeping /cleaning the road", "com_location": "Riddhi Enclave 2 Ananda Vidya Niketan High School Road Viman Nagar Pune 411014" }, "geometry": { "type": "Point", "coordinates": [ 73.9170374, 18.5678889 ] } },
{ "type": "Feature", "properties": { "ccd_name": "Others road", "com_location": "rAyakara maLA roDa dhAyarI , Pune, Maharashtra" }, "geometry": { "type": "Point", "coordinates": [ 73.8101999, 18.4471444 ] } },
{ "type": "Feature", "properties": { "ccd_name": "Repair/re-sufacing of roads/footpaths", "com_location": "Renuka Mata Mandir Road Mhasoba Nagar Keshav Nagar Mundhwa Pune Maharashtra India" }, "geometry": { "type": "Point", "coordinates": [ 73.9455336, 18.5323786 ] } },
{ "type": "Feature", "properties": { "ccd_name": "Repairing potholes on Road", "com_location": "Sopa nagar len no1 wadgaon shri pune 14" }, "geometry": { "type": "Point", "coordinates": [ 73.9119182, 18.5595501 ] } },
{ "type": "Feature", "properties": { "ccd_name": "Others road", "com_location": "Porwal DP road , Pune, Maharashtra" }, "geometry": { "type": "Point", "coordinates": [ 73.8034923, 18.5021136 ] } },
{ "type": "Feature", "properties": { "ccd_name": "Others road", "com_location": "mhasobA ka lanI kALepadala haDapasara puNe 28" }, "geometry": { "type": "Point", "coordinates": [ 73.9449972, 18.4876627 ] } },
{ "type": "Feature", "properties": { "ccd_name": "Others road", "com_location": "Bibwewadi Kondhwa Rd, Ramyanagari Housing Society, Gultekadi, Pune, Maharashtra 411037" }, "geometry": { "type": "Point", "coordinates": [ 73.8690417, 18.4805806 ] } },
{ "type": "Feature", "properties": { "ccd_name": "Trimming of branches in Roadside trees", "com_location": "haDapasara relve sTeshana mahArANA pratApa ha Tela samora, Pune, Maharashtra" }, "geometry": { "type": "Point", "coordinates": [ 73.8786239, 18.5246091 ] } },
{ "type": "Feature", "properties": { "ccd_name": "Repair/re-sufacing of roads/footpaths", "com_location": "This is between kondhwa Dmart and Punnyadham Ashram, Pune, Maharashtra" }, "geometry": { "type": "Point", "coordinates": [ 73.9005099, 18.4600957 ] } },
{ "type": "Feature", "properties": { "ccd_name": "Others road", "com_location": "Police Commissioner office, Pune." }, "geometry": { "type": "Point", "coordinates": [ 73.8757651, 18.5219542 ] } },
{ "type": "Feature", "properties": { "ccd_name": "Others road", "com_location": "Mental  corner and Post office ( Jail Road ) ,Yerwada ,, Pune, Maharashtra" }, "geometry": { "type": "Point", "coordinates": [ 73.8852597, 18.5638985 ] } },
{ "type": "Feature", "properties": { "ccd_name": "Others road", "com_location": "vAraje, rAjayoga sosAyaTI, Pune, Maharashtra" }, "geometry": { "type": "Point", "coordinates": [ 73.9531189, 18.5646495 ] } },
{ "type": "Feature", "properties": { "ccd_name": "Other (Traffic-Planning)", "com_location": " plot no 5 sant tukaram hausing society ashirwad sant nagar aryaneshwar pune 411009" }, "geometry": { "type": "Point", "coordinates": [ 73.8535968, 18.4859312 ] } },
{ "type": "Feature", "properties": { "ccd_name": "Repairing potholes on Road", "com_location": "Wagheshwar temple Wagholi , Pune, Maharashtra" }, "geometry": { "type": "Point", "coordinates": [ 73.9777212, 18.5817586 ] } },
{ "type": "Feature", "properties": { "ccd_name": "Repair/re-sufacing of roads/footpaths", "com_location": "Map :- 18 35'07.8\"N 73 56'13.7\"E\r\nPune International Airport Area\r\npuNe iMTarana.cshanala vimAnataLa eriyA\r\nLohegaon\r\nPune, Maharashtra\r\n" }, "geometry": { "type": "Point", "coordinates": [ 73.9418603, 18.5775893 ] } },
{ "type": "Feature", "properties": { "ccd_name": "Trimming of branches in Roadside trees", "com_location": "puNe- koregAva pArka daphanabhUmI/smashAnabhUmI te lena naMbara DI  mArgAta" }, "geometry": { "type": "Point", "coordinates": [ 73.8939748, 18.5362084 ] } },
{ "type": "Feature", "properties": { "ccd_name": "Repairing potholes on Road", "com_location": "1272  Thorat Estates\r\nopp Deccan Gymkhana post office\r\nnear Garware circal\r\nat \r\nout side of Mayoor Dresses shop, Pune, Maharashtra" }, "geometry": { "type": "Point", "coordinates": [ 73.8424082, 18.5149726 ] } },
{ "type": "Feature", "properties": { "ccd_name": "Others road", "com_location": "D P FARMS ROAD, opp to Shubh Mio Palazzo Kharadi, Pune, Maharashtra" }, "geometry": { "type": "Point", "coordinates": [ 73.948449, 18.56023 ] } },
{ "type": "Feature", "properties": { "ccd_name": "Others road", "com_location": " dArUvAlA pUla maMDaLa samora ANi maMDaLa puDhe shejArI sarakArI naLA shejArI , Pune, Maharashtra" }, "geometry": { "type": "Point", "coordinates": [ 73.8786239, 18.5246091 ] } },
{ "type": "Feature", "properties": { "ccd_name": "Repair/re-sufacing of roads/footpaths", "com_location": "dAMgaTa iMDasTriyala isTeTa dusarI kamAna, shivaNe puNe 23 ," }, "geometry": { "type": "Point", "coordinates": [ 73.7786684, 18.4670703 ] } },
{ "type": "Feature", "properties": { "ccd_name": "Lifiting of debris on road and footpath", "com_location": "Corner of Prabhat road n Income tax lane near the fruit wala, Pune, Maharashtra" }, "geometry": { "type": "Point", "coordinates": [ 73.8324375, 18.5097564 ] } },
{ "type": "Feature", "properties": { "ccd_name": "Sweeping /cleaning the road", "com_location": "Shinde ali  bhati chat shukrawar peth pune 2" }, "geometry": { "type": "Point", "coordinates": [ 73.8591012, 18.5109167 ] } },
{ "type": "Feature", "properties": { "ccd_name": "Others road", "com_location": "Sutarwadi-Pashan lake side road , Pune, Maharashtra" }, "geometry": { "type": "Point", "coordinates": [ 73.7816571, 18.5362763 ] } },
{ "type": "Feature", "properties": { "ccd_name": "Repair/re-sufacing of roads/footpaths", "com_location": "Vedswara Apartment, Vimal industries lane, Narhe, Pune " }, "geometry": { "type": "Point", "coordinates": [ 73.8227103, 18.4473503 ] } },
{ "type": "Feature", "properties": { "ccd_name": "Repairing / Beautification of Chowk (HO)", "com_location": "Katraj Chowk, Next to Rajeev Gandhi National Zoo., Pune, Maharashtra" }, "geometry": { "type": "Point", "coordinates": [ 73.865238, 18.4529322 ] } },
{ "type": "Feature", "properties": { "ccd_name": "Repairing potholes on Road", "com_location": "phaDake hauda chauka te kasabA peTha, kishora giraNe borDa, datta kRRipA imAratI samora, Pune, Maharashtra" }, "geometry": { "type": "Point", "coordinates": [ 73.8786239, 18.5246091 ] } },
{ "type": "Feature", "properties": { "ccd_name": "Others road", "com_location": "eTaraniTI apArTameMTa, lakShmI mAtA maMdirAjavaLa hA DIpI ba ksa,pune." }, "geometry": { "type": "Point", "coordinates": [ 73.9693376, 18.4923007 ] } },
{ "type": "Feature", "properties": { "ccd_name": "Others road", "com_location": "Moledina Rd, Camp, Pune, Maharashtra 411001" }, "geometry": { "type": "Point", "coordinates": [ 73.8754939, 18.5196214 ] } },
{ "type": "Feature", "properties": { "ccd_name": "Others road", "com_location": " pArkalena lAIpha sijhana sosAyaTI \r\nDI ena parAMDe pArka, ginI belAvistA sosAyaTI javaLa dhAnorI puNe 411015" }, "geometry": { "type": "Point", "coordinates": [ 73.9029613, 18.6131656 ] } },
{ "type": "Feature", "properties": { "ccd_name": "Repair/re-sufacing of roads/footpaths", "com_location": "4/1 pArijAta apArTameMTa niyara sTeTa ba.Nka  pha iMDiyA S N D T ka leja eraMDavaNe puNe 411004" }, "geometry": { "type": "Point", "coordinates": [ 73.8286257, 18.5088833 ] } },
{ "type": "Feature", "properties": { "ccd_name": "Repair/re-sufacing of roads/footpaths", "com_location": "1454, Sadashiv Peth Rd, Perugate, Sadashiv Peth, Pune, Maharashtra 411030, India" }, "geometry": { "type": "Point", "coordinates": [ 73.849829073342889, 18.50988773277501 ] } },
{ "type": "Feature", "properties": { "ccd_name": "Others road", "com_location": "sthaLa : Dr bAbAsAheba AMbeDakara chauka, #vAraje, Pune, Maharashtra" }, "geometry": { "type": "Point", "coordinates": [ 73.796834, 18.4864727 ] } },
{ "type": "Feature", "properties": { "ccd_name": "Trimming of branches in Roadside trees", "com_location": "Indrayani Society,Near Zakoba Mandir,New D P Road,near Shantiban,Kothrud,Pne-411038, Pune, Maharashtra" }, "geometry": { "type": "Point", "coordinates": [ 73.8021023, 18.4992609 ] } },
{ "type": "Feature", "properties": { "ccd_name": "Others road", "com_location": "Kharadi Parmar Square, Pune, Maharashtra" }, "geometry": { "type": "Point", "coordinates": [ 73.9390361, 18.5503972 ] } },
{ "type": "Feature", "properties": { "ccd_name": "Sweeping /cleaning the road", "com_location": "prasAda resiDesI somanAtha nagara vaDagAva sherI , Pune, Maharashtra" }, "geometry": { "type": "Point", "coordinates": [ 73.8786239, 18.5246091 ] } },
{ "type": "Feature", "properties": { "ccd_name": "Development of Bridge , Sub-ways & Pedestrian", "com_location": "SIILC Media Center 82/1A & 83, 1A, Baner Rd, Sakal Nagar, Aundh, Pune, Maharashtra 411007, India" }, "geometry": { "type": "Point", "coordinates": [ 73.8204554, 18.5480132 ] } },
{ "type": "Feature", "properties": { "ccd_name": "Repair/re-sufacing of roads/footpaths", "com_location": " porwal road,, Pune, Maharashtra" }, "geometry": { "type": "Point", "coordinates": [ 73.9100642, 18.6059895 ] } },
{ "type": "Feature", "properties": { "ccd_name": "Repair/re-sufacing of roads/footpaths", "com_location": "18/2/11/12, Sukhsagar Nagar, Katraj, Pune, Maharashtra 411046, India" }, "geometry": { "type": "Point", "coordinates": [ 73.8732466, 18.4569765 ] } },
{ "type": "Feature", "properties": { "ccd_name": "Repairing potholes on Road", "com_location": " 427, Indira Nagar, Gultekdi, Pune,opp khadda" }, "geometry": { "type": "Point", "coordinates": [ 73.8691622, 18.4941245 ] } },
{ "type": "Feature", "properties": { "ccd_name": "Others road", "com_location": "nagara roDa kharADI jakAta nAkA te dargA yethIla sarvisa roDa, Pune, Maharashtra" }, "geometry": { "type": "Point", "coordinates": [ 73.9509595, 18.5694327 ] } },
{ "type": "Feature", "properties": { "ccd_name": "Others road", "com_location": " lane 13 E Tingre nagar, Pune, Maharashtra" }, "geometry": { "type": "Point", "coordinates": [ 73.8952483, 18.5761707 ] } },
{ "type": "Feature", "properties": { "ccd_name": "Repair/re-sufacing of roads/footpaths", "com_location": "Upper Indira Nagar Corner From Mango Mata Mandirakade Road, Pune, Maharashtra" }, "geometry": { "type": "Point", "coordinates": [ 73.9570345, 18.5212272 ] } },
{ "type": "Feature", "properties": { "ccd_name": "Repair/re-sufacing of roads/footpaths", "com_location": "Road no. 9\r\nKalyaninagar,\r\nPune 411006." }, "geometry": { "type": "Point", "coordinates": [ 73.9041988, 18.548574 ] } },
{ "type": "Feature", "properties": { "ccd_name": "Other (Traffic-Planning)", "com_location": "SUS Gaon, Pune, Maharashtra" }, "geometry": { "type": "Point", "coordinates": [ 73.7777885, 18.5454191 ] } },
{ "type": "Feature", "properties": { "ccd_name": "Trimming of branches in Roadside trees", "com_location": ".s.no.24.plot no 241 sahwas Road  opposite Bhujabal banglo karvenagar\r\nMy contact number is 9850297323, Pune, Maharashtra" }, "geometry": { "type": "Point", "coordinates": [ 73.8193613, 18.4882564 ] } },
{ "type": "Feature", "properties": { "ccd_name": "Others road", "com_location": "S. N. 33/1, rojyog society road, lagadmala, near laigude hospital, wadgaon khurd, sinhgad road, pune - 411041" }, "geometry": { "type": "Point", "coordinates": [ 73.8067826, 18.4631793 ] } },
{ "type": "Feature", "properties": { "ccd_name": "Repairing potholes on Road", "com_location": "Maruti ranaware chowk to Pashan road  services road mumbai Satara road, Pune, Maharashtra" }, "geometry": { "type": "Point", "coordinates": [ 73.8615463, 18.4256171 ] } },
{ "type": "Feature", "properties": { "ccd_name": "Others road", "com_location": "BEKRAI NAGAR PHURSUNGI IN FORONT OF POLICE STATION ROAD , Pune, Maharashtra" }, "geometry": { "type": "Point", "coordinates": [ 73.9521468, 18.4819581 ] } },
{ "type": "Feature", "properties": { "ccd_name": "Repair/re-sufacing of roads/footpaths", "com_location": "373/2 agaravAla DipArTameMnTa samora pATe hAITasa samora  shanivAra peTha rAmashAstrI prabhuNe patha shanivAra peTha puNe 411030" }, "geometry": { "type": "Point", "coordinates": [ 73.8420093, 18.5071149 ] } },
{ "type": "Feature", "properties": { "ccd_name": "Others road", "com_location": "150, Dhayari Phata Rd, Wadgaon Budruk, Narhe, Pune, Maharashtra 411041" }, "geometry": { "type": "Point", "coordinates": [ 73.8120487, 18.4594217 ] } },
{ "type": "Feature", "properties": { "ccd_name": "Repairing potholes on Road", "com_location": "Lane no 04 Doctor Rana hospital, hingne Khurd ainh road, Pune, Maharashtra" }, "geometry": { "type": "Point", "coordinates": [ 73.8990983, 18.5444526 ] } },
{ "type": "Feature", "properties": { "ccd_name": "Sweeping /cleaning the road", "com_location": "Shreeyash garden, mohannagar http://sr.no.35, dhankawadi, , Pune, Maharashtra" }, "geometry": { "type": "Point", "coordinates": [ 73.8484306, 18.4611711 ] } },
{ "type": "Feature", "properties": { "ccd_name": "Fallen tree on road", "com_location": "lane no 13 e akshat classic society pragati chouk front of jay vaishnavi computer institute tingare nagar pune " }, "geometry": { "type": "Point", "coordinates": [ 73.8930827, 18.575865 ] } },
{ "type": "Feature", "properties": { "ccd_name": "Repair/re-sufacing of roads/footpaths", "com_location": "668A, Perugate, Sadashiv Peth, Pune, Maharashtra 411030, India" }, "geometry": { "type": "Point", "coordinates": [ 73.852259, 18.513259 ] } },
{ "type": "Feature", "properties": { "ccd_name": "Others road", "com_location": " pAMDavadaMDa phurasuMgI rastA vara,pune" }, "geometry": { "type": "Point", "coordinates": [ 73.7865743, 18.5613061 ] } },
{ "type": "Feature", "properties": { "ccd_name": "Repair/re-sufacing of roads/footpaths", "com_location": "in front of snbp school bavdhan, Pune, Maharashtra" }, "geometry": { "type": "Point", "coordinates": [ 73.7634113, 18.5085884 ] } },
{ "type": "Feature", "properties": { "ccd_name": "Others road", "com_location": "Panchawati, Gokhalenagar, Pune, Maharashtra 411008" }, "geometry": { "type": "Point", "coordinates": [ 73.8117632, 18.5309553 ] } },
{ "type": "Feature", "properties": { "ccd_name": "Repairing potholes on Road", "com_location": "opp Sanman Car Decor # Ambegaon -katraj Road , Pune. 03. " }, "geometry": { "type": "Point", "coordinates": [ 73.8484528, 18.4492369 ] } },
{ "type": "Feature", "properties": { "ccd_name": "Repairing potholes on Road", "com_location": "sujAtA mastAnI chovakAta niMbALakara tAlamIchyA samora 411030, Pune, Maharashtra" }, "geometry": { "type": "Point", "coordinates": [ 73.8520311, 18.511755 ] } },
{ "type": "Feature", "properties": { "ccd_name": "Others road", "com_location": "Pashan Sus road adjacent to Mont vert Merc and Chidanand society, Pune, Maharashtra" }, "geometry": { "type": "Point", "coordinates": [ 73.782098, 18.5458428 ] } },
{ "type": "Feature", "properties": { "ccd_name": "Lifiting of debris on road and footpath (HO)", "com_location": "pune" }, "geometry": { "type": "Point", "coordinates": [ 73.844688953289008, 18.4618719935212 ] } },
{ "type": "Feature", "properties": { "ccd_name": "Others road", "com_location": "pune" }, "geometry": { "type": "Point", "coordinates": [ 73.93347, 18.5231 ] } },
{ "type": "Feature", "properties": { "ccd_name": "Trimming of branches in Roadside trees", "com_location": "Range hill road \r\nOpposite to daulata baMgalA near bank of Baroda branch Ashok nagar, Pune, Maharashtra" }, "geometry": { "type": "Point", "coordinates": [ 73.8382025, 18.5426299 ] } },
{ "type": "Feature", "properties": { "ccd_name": "Others road", "com_location": "15/1/2, Tilekar Nagar, Hadapsar, Pune, Maharashtra 411028, India" }, "geometry": { "type": "Point", "coordinates": [ 73.9248443, 18.5075682 ] } },
{ "type": "Feature", "properties": { "ccd_name": "Trimming of branches in government / public place / road", "com_location": "Silver leaf apt,flat no.402,opposite span hotel,revenue colony,shivajinagar,pune 5,M-9422987570." }, "geometry": { "type": "Point", "coordinates": [ 73.8482239, 18.5274583 ] } },
{ "type": "Feature", "properties": { "ccd_name": "Others road", "com_location": "dhAyarI phATA yethe shrImAna yogIrAja sosAyaTI, bhAratI ba.Nke samora, harioma pharnichara ANi \r\nkAnhA la ja , Pune, Maharashtra" }, "geometry": { "type": "Point", "coordinates": [ 73.8122457, 18.4592571 ] } },
{ "type": "Feature", "properties": { "ccd_name": "Others road", "com_location": "at near Veritas baner , Pune, Maharashtra" }, "geometry": { "type": "Point", "coordinates": [ 73.7740708, 18.5716625 ] } },
{ "type": "Feature", "properties": { "ccd_name": "Others road", "com_location": "'Swargate Chowk' of Pune" }, "geometry": { "type": "Point", "coordinates": [ 73.8581559, 18.4987196 ] } },
{ "type": "Feature", "properties": { "ccd_name": "Others road", "com_location": "Address : Canopy society,Gokul nagar chowk,katraj-46 Road Direction starts with the ekadashi hotel and touches us with main highway.\"\t, Pune, Maharashtra" }, "geometry": { "type": "Point", "coordinates": [ 73.873515, 18.4470625 ] } },
{ "type": "Feature", "properties": { "ccd_name": "Others road", "com_location": "Indus planet Near Spicer senior secondary school Pune Maharashtra 411067 IN, Rohan Nilay, Aundh, Pune, Maharashtra 411067, India" }, "geometry": { "type": "Point", "coordinates": [ 73.817251658563734, 18.564279291623706 ] } },
{ "type": "Feature", "properties": { "ccd_name": "Repair/re-sufacing of roads/footpaths", "com_location": "Sr no. 5, Shivaji Chowk, opposit Hanuman Temple Keshavnagar, Mundhwa, Pune, Maharashtra" }, "geometry": { "type": "Point", "coordinates": [ 73.9425951, 18.536592 ] } },
{ "type": "Feature", "properties": { "ccd_name": "Trimming of branches in Roadside trees", "com_location": ". Sumeet Plaza Society Opposite Bank of Baroda Near Badhai Sweets Kondhwa Mithanagar Kondhwa khurd Pune 411048..\r\n" }, "geometry": { "type": "Point", "coordinates": [ 73.8886024, 18.4703075 ] } },
{ "type": "Feature", "properties": { "ccd_name": "Repairing potholes on Road", "com_location": "girIdhara bhavana chauka paMDita javAralAla neharu rAstA madhye puNe 411037." }, "geometry": { "type": "Point", "coordinates": [ 73.8697459, 18.4909414 ] } },
{ "type": "Feature", "properties": { "ccd_name": "Trimming of branches in Roadside trees", "com_location": "TilsTana TAUna (svAmI vivekAnaMda keMdrAchI lAIna) te vij~nAna nagara  bAvadhana, khurda, puNe 411021" }, "geometry": { "type": "Point", "coordinates": [ 73.7915426, 18.4424492 ] } },
{ "type": "Feature", "properties": { "ccd_name": "Repairing potholes on Road", "com_location": "Manaji baug near kirloskar company elphinstone road khadki pune 411003" }, "geometry": { "type": "Point", "coordinates": [ 73.8417708, 18.5696756 ] } },
{ "type": "Feature", "properties": { "ccd_name": "Others road", "com_location": "Unnati avenue Samruddhi jeevan Undri Pisoli road, Pune, Maharashtra" }, "geometry": { "type": "Point", "coordinates": [ 73.8952281, 18.4503755 ] } },
{ "type": "Feature", "properties": { "ccd_name": "Repair/re-sufacing of roads/footpaths", "com_location": "kAtraja te bhilAravADI\r\nThikANa 1- svAgata ha Tela samorIla rastA, Pune, Maharashtra" }, "geometry": { "type": "Point", "coordinates": [ 73.8416424, 18.5248325 ] } },
{ "type": "Feature", "properties": { "ccd_name": "Others road", "com_location": " shivaji nagar near Modi baug., Pune, Maharashtra" }, "geometry": { "type": "Point", "coordinates": [ 73.8420901, 18.5327058 ] } },
{ "type": "Feature", "properties": { "ccd_name": "Others road", "com_location": "Shop no 12,13,14,HM Royal, Kondhwa, Pune, Maharashtra 411048, India" }, "geometry": { "type": "Point", "coordinates": [ 73.8904907, 18.4621651 ] } },
{ "type": "Feature", "properties": { "ccd_name": "Sweeping /cleaning the road", "com_location": "Lane No. 1, Sneha society, Lokmanya colony, Paramhans nagar, Near Vanaz company, Pune - 411038. " }, "geometry": { "type": "Point", "coordinates": [ 73.8131291, 18.4953011 ] } },
{ "type": "Feature", "properties": { "ccd_name": "Repair/re-sufacing of roads/footpaths", "com_location": "Kumar Princetown near Sanskriti school leading towards Bajirao Road, Pune, Maharashtra" }, "geometry": { "type": "Point", "coordinates": [ 73.9041164, 18.4602509 ] } },
{ "type": "Feature", "properties": { "ccd_name": "Repair/re-sufacing of roads/footpaths", "com_location": "201 rupayan apartments ,  Oriental  punjab bank lane,   opposite    I T I  main gate,   Aundh , Pune, Maharashtra" }, "geometry": { "type": "Point", "coordinates": [ 73.8085513, 18.5599404 ] } },
{ "type": "Feature", "properties": { "ccd_name": "Others road", "com_location": "Sai nagari lane no 1 chandan nagar nagar road pune " }, "geometry": { "type": "Point", "coordinates": [ 73.9297326, 18.5622184 ] } },
{ "type": "Feature", "properties": { "ccd_name": "Others road", "com_location": "pune" }, "geometry": { "type": "Point", "coordinates": [ 73.7706752, 18.5055226 ] } },
{ "type": "Feature", "properties": { "ccd_name": "Sweeping /cleaning the road", "com_location": "puNe nagara roDa ( khAMdave nagara ) " }, "geometry": { "type": "Point", "coordinates": [ 73.9579995, 18.5738101 ] } },
{ "type": "Feature", "properties": { "ccd_name": "PMC Parking Related Complaint", "com_location": "he mahAtmA phule maMDaI vAhanataLa, Pune, Maharashtra" }, "geometry": { "type": "Point", "coordinates": [ 73.8562871, 18.512928 ] } },
{ "type": "Feature", "properties": { "ccd_name": "Repair/re-sufacing of roads/footpaths", "com_location": " bAgula udyAna, parvatI pAyathA, shivadarshana yethe udyApAsUna te puDhe lakShmI mAtA maMdira paryaMtachA rastA, Pune, Maharashtra" }, "geometry": { "type": "Point", "coordinates": [ 73.850896, 18.4910317 ] } },
{ "type": "Feature", "properties": { "ccd_name": "Others road", "com_location": "dattanagara chauka AMbegAva bu puNe sidhdIvinAyaka maMdirA samora\r\n" }, "geometry": { "type": "Point", "coordinates": [ 73.8483676, 18.4474077 ] } },
{ "type": "Feature", "properties": { "ccd_name": "Repairing potholes on Road", "com_location": "Kesnand Rd, Wagholi, Pune, Maharashtra 412207, India" }, "geometry": { "type": "Point", "coordinates": [ 73.9969703, 18.5778896 ] } },
{ "type": "Feature", "properties": { "ccd_name": "Repair/re-sufacing of roads/footpaths", "com_location": " prabhAga kramAMka 27 va navIna 41 madhIla koMDhavA khurda shrIjI lovaMsa shejArIla rastA .. achalanagara sosAyaTI kumAra pRRithvI pheja 2 kaDe jANArA mArga , Pune, Maharashtra" }, "geometry": { "type": "Point", "coordinates": [ 73.876455, 18.4804369 ] } },
{ "type": "Feature", "properties": { "ccd_name": "Others road", "com_location": " parla sosAyaTI  bAlevADI , Pune, Maharashtra" }, "geometry": { "type": "Point", "coordinates": [ 73.7706807, 18.5788913 ] } },
{ "type": "Feature", "properties": { "ccd_name": "Others road", "com_location": "Navi Peth near Sachin Tendulkar Garden., Pune, Maharashtra" }, "geometry": { "type": "Point", "coordinates": [ 73.840436, 18.506821 ] } },
{ "type": "Feature", "properties": { "ccd_name": "Trimming of branches in government / public place / road", "com_location": "Bang garden burning ghat road\" Near gera society, Pune, Maharashtra" }, "geometry": { "type": "Point", "coordinates": [ 73.8892521, 18.542204 ] } },
{ "type": "Feature", "properties": { "ccd_name": "Others (Road Project(H.O))", "com_location": "hevana pArka mukhya rastA |mahamavAdI saLUke vihAra roDa, Pune, Maharashtra" }, "geometry": { "type": "Point", "coordinates": [ 73.8786239, 18.5246091 ] } },
{ "type": "Feature", "properties": { "ccd_name": "Others road", "com_location": "Katraj bypass road near podar School,, Pune, Maharashtra" }, "geometry": { "type": "Point", "coordinates": [ 73.9153391, 18.4505754 ] } },
{ "type": "Feature", "properties": { "ccd_name": "Repair/re-sufacing of roads/footpaths", "com_location": "ashima pArka bibevADI mArutI maMdira pAThImAge , Pune, Maharashtra" }, "geometry": { "type": "Point", "coordinates": [ 73.8640944, 18.4690213 ] } },
{ "type": "Feature", "properties": { "ccd_name": "Repairing potholes on Road", "com_location": "  Millennium school Karvenagar, Pune, Maharashtra" }, "geometry": { "type": "Point", "coordinates": [ 73.8109092, 18.4913583 ] } },
{ "type": "Feature", "properties": { "ccd_name": "Others road", "com_location": "Audi Showroom 53/12/1 Regency Orion Society Baner 411045, Pune, Maharashtra" }, "geometry": { "type": "Point", "coordinates": [ 73.773364, 18.5478 ] } },
{ "type": "Feature", "properties": { "ccd_name": "Others road", "com_location": "swami samrth nagar sathe vasti lohgaon\r\n, Pune, Maharashtra" }, "geometry": { "type": "Point", "coordinates": [ 73.9231738, 18.5981819 ] } },
{ "type": "Feature", "properties": { "ccd_name": "Others road", "com_location": "parvatI pAyathA te janatA vasAhata, Pune, Maharashtra" }, "geometry": { "type": "Point", "coordinates": [ 73.849636, 18.485861 ] } },
{ "type": "Feature", "properties": { "ccd_name": "Others road", "com_location": " Kapil Tranquil Greens Rd, Baner, Pune, Maharashtra 411045" }, "geometry": { "type": "Point", "coordinates": [ 73.7951502, 18.5601913 ] } },
{ "type": "Feature", "properties": { "ccd_name": "Repair/re-sufacing of roads/footpaths", "com_location": "puNe sAtArA roDa bhApakara peTrola paMpa samora chATe kochiMga klAsesa samora bIAraTI mArgAmadhye puNe " }, "geometry": { "type": "Point", "coordinates": [ 73.8711168, 18.548662 ] } },
{ "type": "Feature", "properties": { "ccd_name": "Fallen tree on road", "com_location": "Navi Peth Near HDFC Bank \r\n, Pune, Maharashtra" }, "geometry": { "type": "Point", "coordinates": [ 73.840436, 18.506821 ] } },
{ "type": "Feature", "properties": { "ccd_name": "Others road", "com_location": "from hotel Mahabaleshwar to National society , Pune, Maharashtra" }, "geometry": { "type": "Point", "coordinates": [ 73.8106603, 18.5513782 ] } },
{ "type": "Feature", "properties": { "ccd_name": "Trimming of branches in Roadside trees", "com_location": "397, Radha vallabh society, Munjabacha bol Narayan peth, Pune - 411030" }, "geometry": { "type": "Point", "coordinates": [ 73.8491957, 18.5148025 ] } },
{ "type": "Feature", "properties": { "ccd_name": "Others road", "com_location": "pUrNa  saMvidhAna chauka  vAnavaDI 40, Pune, Maharashtra" }, "geometry": { "type": "Point", "coordinates": [ 73.9000204, 18.4922285 ] } },
{ "type": "Feature", "properties": { "ccd_name": "Lifiting of debris on road and footpath (HO)", "com_location": "pune" }, "geometry": { "type": "Point", "coordinates": [ 73.895942687988281, 18.481985092163089 ] } },
{ "type": "Feature", "properties": { "ccd_name": "Fallen tree on road", "com_location": " 1/7, bsnl staff quarters, guktekdi, pune-411037" }, "geometry": { "type": "Point", "coordinates": [ 73.8698758, 18.494766 ] } },
{ "type": "Feature", "properties": { "ccd_name": "Repair/re-sufacing of roads/footpaths", "com_location": "Elite dreams Papdewasti kalepadal dp road, Pune, Maharashtra" }, "geometry": { "type": "Point", "coordinates": [ 73.941631500000014, 18.4808873 ] } },
{ "type": "Feature", "properties": { "ccd_name": "Repair/re-sufacing of roads/footpaths", "com_location": "navIpeTha lakShmIpArka rAjeMdra nagara, Pune, Maharashtra" }, "geometry": { "type": "Point", "coordinates": [ 73.8403511, 18.5059151 ] } },
{ "type": "Feature", "properties": { "ccd_name": "Repairing potholes on Road", "com_location": "sadAshiva peTha, mADIvAle ka lanI,\r\nsvAmI samartha maTha rastA, Pune, Maharashtra" }, "geometry": { "type": "Point", "coordinates": [ 73.8090532, 18.4435365 ] } },
{ "type": "Feature", "properties": { "ccd_name": "Trimming of branches in Roadside trees", "com_location": "karve putal to dahanukar colony , Pune, Maharashtra" }, "geometry": { "type": "Point", "coordinates": [ 73.8110279, 18.4956151 ] } },
{ "type": "Feature", "properties": { "ccd_name": "Development of Bridge , Sub-ways & Pedestrian", "com_location": "pashan-sus bridge, Pune, Maharashtra" }, "geometry": { "type": "Point", "coordinates": [ 73.7722954, 18.5475402 ] } },
{ "type": "Feature", "properties": { "ccd_name": "Others road", "com_location": " Bankar Vidyalay, Sukhsagar Nagar - Dolphin Chowk Road., Pune, Maharashtra" }, "geometry": { "type": "Point", "coordinates": [ 73.86515, 18.459931 ] } },
{ "type": "Feature", "properties": { "ccd_name": "Repairing potholes on Road", "com_location": "Khadki Railway Station to Bopodi Chowk., Pune, Maharashtra" }, "geometry": { "type": "Point", "coordinates": [ 73.8406198, 18.5631806 ] } },
{ "type": "Feature", "properties": { "ccd_name": "Repairing potholes on Road", "com_location": "Gultekdi chowk., Pune, Maharashtra" }, "geometry": { "type": "Point", "coordinates": [ 73.8692824, 18.4930151 ] } },
{ "type": "Feature", "properties": { "ccd_name": "Trimming of branches in Roadside trees", "com_location": "Balewadi High Street Laxman Nagar Baner Pune Maharashtra India" }, "geometry": { "type": "Point", "coordinates": [ 73.774896, 18.5706298 ] } },
{ "type": "Feature", "properties": { "ccd_name": "Others road", "com_location": "Laxminarayan chowk te mukundnagar road near comet book 432/2 mukundnagar lagane chowk pune. 37." }, "geometry": { "type": "Point", "coordinates": [ 73.8580491, 18.4966636 ] } },
{ "type": "Feature", "properties": { "ccd_name": "Repairing potholes on Road", "com_location": "Park Ridge road, New baner pashan link road, pashan., Pune, Maharashtra" }, "geometry": { "type": "Point", "coordinates": [ 73.7911009, 18.5480592 ] } },
{ "type": "Feature", "properties": { "ccd_name": "Sweeping /cleaning the road", "com_location": "prabhAga na.29 shanI maMdira mAge, bAuddha vihAra lena, dattavADI oTA kramAMka 71 yethe rastyAvarIla , Pune, Maharashtra" }, "geometry": { "type": "Point", "coordinates": [ 73.8384476, 18.4961383 ] } },
{ "type": "Feature", "properties": { "ccd_name": "Sweeping /cleaning the road", "com_location": "Ambedkar chowk, Pune, Maharashtra" }, "geometry": { "type": "Point", "coordinates": [ 73.830673, 18.5628 ] } },
{ "type": "Feature", "properties": { "ccd_name": "Others road", "com_location": "Mundhwa Brige mein signal , and meain chowk , Pune, Maharashtra" }, "geometry": { "type": "Point", "coordinates": [ 73.8535649, 18.443699 ] } },
{ "type": "Feature", "properties": { "ccd_name": "Repair/re-sufacing of roads/footpaths", "com_location": "Sr no 28/25/1 back side chintamani garden ambegoan pathar  pune 411046" }, "geometry": { "type": "Point", "coordinates": [ 73.8435078, 18.4544442 ] } },
{ "type": "Feature", "properties": { "ccd_name": "Repair/re-sufacing of roads/footpaths", "com_location": "neat Fab India Sassoon road Pune 1" }, "geometry": { "type": "Point", "coordinates": [ 73.8758858, 18.5314761 ] } },
{ "type": "Feature", "properties": { "ccd_name": "Repair/re-sufacing of roads/footpaths", "com_location": " JM road opposite of puma showroom, before z bridge.\r\n, Pune, Maharashtra" }, "geometry": { "type": "Point", "coordinates": [ 73.8443499, 18.5179166 ] } },
{ "type": "Feature", "properties": { "ccd_name": "Repairing potholes on Road", "com_location": "pa.cna kArDa roDa niyara vespoTa ma.ckaDonAlDa, Pune, Maharashtra" }, "geometry": { "type": "Point", "coordinates": [ 73.8786239, 18.5246091 ] } },
{ "type": "Feature", "properties": { "ccd_name": "Others road", "com_location": "neharU TeDIyama somorI puThpAta dAdAvADI yethIla Ahe, Pune, Maharashtra" }, "geometry": { "type": "Point", "coordinates": [ 73.85587360000001, 18.5016866 ] } },
{ "type": "Feature", "properties": { "ccd_name": "Repairing potholes on Road", "com_location": "26.2, Tukaram Nagar, Kharadi, Pune, Maharashtra 411014" }, "geometry": { "type": "Point", "coordinates": [ 73.9315733, 18.5493214 ] } },
{ "type": "Feature", "properties": { "ccd_name": "Others road", "com_location": "svArageTa yethIla lakShmInArAyaNa chitrapaTa gRRihAsamora vholagA chauka, Pune, Maharashtra" }, "geometry": { "type": "Point", "coordinates": [ 73.8786239, 18.5246091 ] } },
{ "type": "Feature", "properties": { "ccd_name": "Others road", "com_location": " Location: old Pune Mumbai highway, Wakdewadi, opp L&T Infotech office, in front of Godrej Eternia building Pune" }, "geometry": { "type": "Point", "coordinates": [ 73.8521062, 18.5343901 ] } },
{ "type": "Feature", "properties": { "ccd_name": "Sweeping /cleaning the road", "com_location": "Near savta mali temple,Mystique wonders,bhumkar nagar,highway bridge,pune 411041. " }, "geometry": { "type": "Point", "coordinates": [ 73.8324411, 18.4466425 ] } },
{ "type": "Feature", "properties": { "ccd_name": "Repairing potholes on Road", "com_location": "opp amruteshwar society 53, shaniwarpet, pune 30" }, "geometry": { "type": "Point", "coordinates": [ 73.8538176, 18.5207345 ] } },
{ "type": "Feature", "properties": { "ccd_name": "Repair/re-sufacing of roads/footpaths", "com_location": "DIpI roDa karvenagara nArAyaNI la nsa geTa javaLa , Pune, Maharashtra" }, "geometry": { "type": "Point", "coordinates": [ 73.8786239, 18.5246091 ] } },
{ "type": "Feature", "properties": { "ccd_name": "Repair/re-sufacing of roads/footpaths", "com_location": "Shri Home Housing Society, Wadgaon Sheri, Pune, Maharashtra 411014" }, "geometry": { "type": "Point", "coordinates": [ 73.9234903, 18.5565424 ] } },
{ "type": "Feature", "properties": { "ccd_name": "Others road", "com_location": "phAIvha nAina chauka te vishrAMtavADI chauka eara porTa roDa puNe" }, "geometry": { "type": "Point", "coordinates": [ 73.8119094, 18.4929707 ] } },
{ "type": "Feature", "properties": { "ccd_name": "Others road", "com_location": "Road from kondhwa NIBM sunshrer kangan leading to Anandvan,\r\nSainik vihar bunglowd, Pune, Maharashtra" }, "geometry": { "type": "Point", "coordinates": [ 73.9085296, 18.4770651 ] } },
{ "type": "Feature", "properties": { "ccd_name": "Repair/re-sufacing of roads/footpaths", "com_location": "Wagholi, Pune, Maharashtra" }, "geometry": { "type": "Point", "coordinates": [ 73.9787063, 18.5807719 ] } },
{ "type": "Feature", "properties": { "ccd_name": "Repair/re-sufacing of roads/footpaths", "com_location": "svAmI samartha maMdira goMdhaLe nagara haDapasara puNe 411028 " }, "geometry": { "type": "Point", "coordinates": [ 73.9709232, 18.5019983 ] } },
{ "type": "Feature", "properties": { "ccd_name": "Other (Traffic-Planning)", "com_location": "Aundh Mandai, Aundh Gaon, Aundh, Pune, Maharashtra" }, "geometry": { "type": "Point", "coordinates": [ 73.8078341, 18.5646533 ] } },
{ "type": "Feature", "properties": { "ccd_name": "Sweeping /cleaning the road", "com_location": "Opposite Chaitanya platinum , Pune, Maharashtra" }, "geometry": { "type": "Point", "coordinates": [ 73.775667, 18.5747084 ] } },
{ "type": "Feature", "properties": { "ccd_name": "Repair/re-sufacing of roads/footpaths", "com_location": "Dr Mar Theophilus School DN Parande Park Madhav Nagar Dhanori Pune Maharashtra India" }, "geometry": { "type": "Point", "coordinates": [ 73.9062502, 18.6012605 ] } },
{ "type": "Feature", "properties": { "ccd_name": "Repairing potholes on Road", "com_location": "Somji Dmart to Punyadham ashram pune 411048" }, "geometry": { "type": "Point", "coordinates": [ 73.9005099, 18.4600957 ] } },
{ "type": "Feature", "properties": { "ccd_name": "Repairing potholes on Road", "com_location": "mA. bAburAvajI saNasa yAMchyA putaLyAsamora ,saNasa sporTsa grAuMDa javaLa puNe. " }, "geometry": { "type": "Point", "coordinates": [ 73.864625, 18.5234985 ] } },
{ "type": "Feature", "properties": { "ccd_name": "Repair/re-sufacing of roads/footpaths", "com_location": "rAjasa sosAyaTI kAtraja gallI kramAMka 16, Pune, Maharashtra" }, "geometry": { "type": "Point", "coordinates": [ 73.9531189, 18.5646495 ] } },
{ "type": "Feature", "properties": { "ccd_name": "Repair and maintenance of Bridge ,Sub-ways & Pedestrian", "com_location": " svArageTa sAtArA roDa geTa samora. \r\n, Pune, Maharashtra" }, "geometry": { "type": "Point", "coordinates": [ 73.8590132, 18.5000482 ] } },
{ "type": "Feature", "properties": { "ccd_name": "Others road", "com_location": "Arihant Avenue Divya Nagar Wanwadi Gaon near shivaji maharaj Statue Pune" }, "geometry": { "type": "Point", "coordinates": [ 73.8972194, 18.4959176 ] } },
{ "type": "Feature", "properties": { "ccd_name": "Others road", "com_location": "sr no 16 Ashok Bhoite Nagar, Manaji Bagh Bopodi, Pune, Maharashtra 411003 Manaji Bagh ." }, "geometry": { "type": "Point", "coordinates": [ 73.841405, 18.569895 ] } },
{ "type": "Feature", "properties": { "ccd_name": "Repair/re-sufacing of roads/footpaths", "com_location": "garavAre ka leja rikShA sTa.cnDa geTachyAsamora, Pune, Maharashtra" }, "geometry": { "type": "Point", "coordinates": [ 73.8472321, 18.4946136 ] } },
{ "type": "Feature", "properties": { "ccd_name": "Fallen tree on road", "com_location": "Tree fallen on hill between Fergusson college-BMCC. This request is for trying to save the tree., Pune, Maharashtra" }, "geometry": { "type": "Point", "coordinates": [ 73.8389678, 18.5228446 ] } },
{ "type": "Feature", "properties": { "ccd_name": "Repairing potholes on Road", "com_location": "katra road Datt nagar, agam mandir paytha , Pune, Maharashtra" }, "geometry": { "type": "Point", "coordinates": [ 73.8043264, 18.4768041 ] } },
{ "type": "Feature", "properties": { "ccd_name": "Sweeping /cleaning the road", "com_location": "sTeTa ba.Nka ka lanI akShara sosAyaTI, Pune, Maharashtra" }, "geometry": { "type": "Point", "coordinates": [ 73.9531189, 18.5646495 ] } },
{ "type": "Feature", "properties": { "ccd_name": "Trimming of branches in Roadside trees", "com_location": "premanagara sosAyaTI bibavevADI, Pune, Maharashtra" }, "geometry": { "type": "Point", "coordinates": [ 73.8640944, 18.4690213 ] } },
{ "type": "Feature", "properties": { "ccd_name": "Others road", "com_location": "Viman nagar chowk , opposite LIC office , viman nagar , opposite maruti showroom pune 411014" }, "geometry": { "type": "Point", "coordinates": [ 73.9179049, 18.5611107 ] } },
{ "type": "Feature", "properties": { "ccd_name": "Repair/re-sufacing of roads/footpaths", "com_location": "Mangaldas Road outside WADIA College, Pune, Maharashtra" }, "geometry": { "type": "Point", "coordinates": [ 73.8806824, 18.5333787 ] } },
{ "type": "Feature", "properties": { "ccd_name": "Repair/re-sufacing of roads/footpaths", "com_location": "Surajnagar road, Guruganeshnagar and paud road., Pune, Maharashtra" }, "geometry": { "type": "Point", "coordinates": [ 73.7977863, 18.5052748 ] } },
{ "type": "Feature", "properties": { "ccd_name": "Others road", "com_location": "This is Park Ridge road towards Someshwar wadi temple, Pune, Maharashtra" }, "geometry": { "type": "Point", "coordinates": [ 73.7968961, 18.546332 ] } },
{ "type": "Feature", "properties": { "ccd_name": "Repairing potholes on Road", "com_location": "Kesnand Road Wagholi yethe.\r\n412207 Balaji park lane no 4 , Pune, Maharashtra" }, "geometry": { "type": "Point", "coordinates": [ 73.9968544, 18.5789258 ] } },
{ "type": "Feature", "properties": { "ccd_name": "Repair/re-sufacing of roads/footpaths", "com_location": "Survey no. 80, Adarsh nagar, wagholi road, dadachi wasti, behind Karmbhumi Nagar, Lohegaon Pune 411047." }, "geometry": { "type": "Point", "coordinates": [ 73.941185, 18.593263 ] } },
{ "type": "Feature", "properties": { "ccd_name": "Repair/re-sufacing of roads/footpaths", "com_location": "Urban space society towards sangria society , NIBM road , undri , pune 411060" }, "geometry": { "type": "Point", "coordinates": [ 73.9100427, 18.4687949 ] } },
{ "type": "Feature", "properties": { "ccd_name": "Shopkeeper s material on road/footpath", "com_location": "Sivtirth Nagar Kothrud, Pune, Maharashtra" }, "geometry": { "type": "Point", "coordinates": [ 73.8084545, 18.5101479 ] } },
{ "type": "Feature", "properties": { "ccd_name": "Repair/re-sufacing of roads/footpaths", "com_location": "Shubh evan, Keshavnagar Pune - 411036" }, "geometry": { "type": "Point", "coordinates": [ 73.9461402, 18.5389093 ] } },
{ "type": "Feature", "properties": { "ccd_name": "Repair and maintenance of Bridge ,Sub-ways & Pedestrian", "com_location": "haDapasara gADItaLa pulAvaratI, Pune, Maharashtra" }, "geometry": { "type": "Point", "coordinates": [ 73.8786239, 18.5246091 ] } },
{ "type": "Feature", "properties": { "ccd_name": "Others road", "com_location": "pattA: rAjeMdranagara, anaMta kAnhere patha, navI peTha, puNe 30" }, "geometry": { "type": "Point", "coordinates": [ 73.842892, 18.5048641 ] } },
{ "type": "Feature", "properties": { "ccd_name": "Repairing potholes on Road", "com_location": "TiLekara nagara koMDhavA te pAnasare nagara mashida, Pune, Maharashtra" }, "geometry": { "type": "Point", "coordinates": [ 73.8786239, 18.5246091 ] } },
{ "type": "Feature", "properties": { "ccd_name": "Repairing potholes on Road", "com_location": "73/234, Udyog Nagar Rd, Ganga Village, Sai Colony, Hadapsar, Pune, Autadwadi Handewadi, Maharashtra 411028, India" }, "geometry": { "type": "Point", "coordinates": [ 73.9308231, 18.4814276 ] } },
{ "type": "Feature", "properties": { "ccd_name": "Repairing potholes on Road", "com_location": "APARTMENT BLOCK-B, SARITA VAIBHAV SWETAMBARI, Sarita Vihar Phase 2, Dattawadi, Pune, Maharashtra 411030\r\n" }, "geometry": { "type": "Point", "coordinates": [ 73.8342331, 18.4944457 ] } },
{ "type": "Feature", "properties": { "ccd_name": "Repair/re-sufacing of roads/footpaths", "com_location": "prabhAga na 14 bhAMDArakara roDa , bAlashikShaNa  maMdira shALA, Pune, Maharashtra" }, "geometry": { "type": "Point", "coordinates": [ 73.9258785, 18.5039906 ] } },
{ "type": "Feature", "properties": { "ccd_name": "Others road", "com_location": "this is wadachi wadi Undri road. , Pune, Maharashtra" }, "geometry": { "type": "Point", "coordinates": [ 73.9207521, 18.45835 ] } },
{ "type": "Feature", "properties": { "ccd_name": "Sweeping /cleaning the road", "com_location": "Shivshahi Socity, karve Nagar Pune, FRP7+WF5, Warje Jakat Naka, Karve Nagar, Pune, Maharashtra 411052, India" }, "geometry": { "type": "Point", "coordinates": [ 73.8136976, 18.4873354 ] } },
{ "type": "Feature", "properties": { "ccd_name": "Repairing potholes on Road", "com_location": "Perugate polic chowki te hatti ganapati, Pune, Maharashtra" }, "geometry": { "type": "Point", "coordinates": [ 73.8487835, 18.5114632 ] } },
{ "type": "Feature", "properties": { "ccd_name": "Fallen tree on road", "com_location": "parvati gaon in front of purohit hospital pune 411009" }, "geometry": { "type": "Point", "coordinates": [ 73.8514974, 18.4976041 ] } },
{ "type": "Feature", "properties": { "ccd_name": "Others road", "com_location": "Shantinagar chowk...Vishrantwadi..., Pune, Maharashtra" }, "geometry": { "type": "Point", "coordinates": [ 73.8786076, 18.5723961 ] } },
{ "type": "Feature", "properties": { "ccd_name": "Repairing potholes on Road (HO)", "com_location": "ka.cla-sa phTa kaMpanI chA AtalA rastA, athashrI pebalsa sosAyaTI, bAvadhana., Pune, Maharashtra" }, "geometry": { "type": "Point", "coordinates": [ 73.7670914, 18.5218234 ] } },
{ "type": "Feature", "properties": { "ccd_name": "Repairing potholes on Road", "com_location": "on university road near Mafatlal bungalow , Pune, Maharashtra" }, "geometry": { "type": "Point", "coordinates": [ 73.8416287, 18.5330098 ] } },
{ "type": "Feature", "properties": { "ccd_name": "Painting of Footpath / Divider / Beautification of Chowk etc", "com_location": "koregAva pArka va muMDhavA tADIguttA chauka paryanta hyA mukhya na rtha mena roDa varIla sarva dubhAjaka, Pune, Maharashtra" }, "geometry": { "type": "Point", "coordinates": [ 73.9522653, 18.4835762 ] } },
{ "type": "Feature", "properties": { "ccd_name": "Trimming of branches in Roadside trees", "com_location": "Gulab Pushpa, 20/3/2, Katraj Kondhwa Road, Near Paramount Garden, Katraj, Pune" }, "geometry": { "type": "Point", "coordinates": [ 73.872305, 18.4508274 ] } },
{ "type": "Feature", "properties": { "ccd_name": "Sweeping /cleaning the road", "com_location": "Navsahyadri society plot no 59/14 cha road aahe, Pune, Maharashtra" }, "geometry": { "type": "Point", "coordinates": [ 73.8291458, 18.4954489 ] } },
{ "type": "Feature", "properties": { "ccd_name": "Repair/re-sufacing of roads/footpaths", "com_location": "SR NO 4,BANTAR SCHOOL BACK SIDE,GADITAL,HADAPSAR,PUNE 411028." }, "geometry": { "type": "Point", "coordinates": [ 73.9429625, 18.5009698 ] } },
{ "type": "Feature", "properties": { "ccd_name": "Repair/re-sufacing of roads/footpaths", "com_location": "At Amrapali apartments near IDBI bank opp Pantry Baner Main road, Pune, Maharashtra" }, "geometry": { "type": "Point", "coordinates": [ 73.7934436, 18.557362 ] } },
{ "type": "Feature", "properties": { "ccd_name": "Others road", "com_location": "katraj kondhwa road, Pune, Maharashtra" }, "geometry": { "type": "Point", "coordinates": [ 73.8747982, 18.4498089 ] } },
{ "type": "Feature", "properties": { "ccd_name": "Others road", "com_location": "at internal road beside Kalyan Bhel at bhosale nagar Hadapsar  , Pune, Maharashtra" }, "geometry": { "type": "Point", "coordinates": [ 73.931139, 18.5060533 ] } },
{ "type": "Feature", "properties": { "ccd_name": "Trimming of branches in Roadside trees", "com_location": "479 ghorapaDe peTha, jhagaDevADI pAyaguDe nivAsa , Pune, Maharashtra" }, "geometry": { "type": "Point", "coordinates": [ 73.8630475, 18.50135 ] } },
{ "type": "Feature", "properties": { "ccd_name": "Fallen tree on road", "com_location": "pattA. shrIdhara nagara, dhanakavaDI bhAratI hospital samora, Pune, Maharashtra" }, "geometry": { "type": "Point", "coordinates": [ 73.8580541, 18.4606988 ] } },
{ "type": "Feature", "properties": { "ccd_name": "Repair and maintenance of Bridge ,Sub-ways & Pedestrian", "com_location": "sthaLa-svArageTa bhuyArI mArga apaghAta pravesha kShetra., Pune, Maharashtra" }, "geometry": { "type": "Point", "coordinates": [ 73.8786239, 18.5246091 ] } },
{ "type": "Feature", "properties": { "ccd_name": "Others road", "com_location": "Location - Tapkir Galli   mobAila mArkeTa geTa samora , Pune, Maharashtra" }, "geometry": { "type": "Point", "coordinates": [ 73.8578405, 18.5178221 ] } },
{ "type": "Feature", "properties": { "ccd_name": "Others (Road Project(H.O))", "com_location": "Khese Park, Lane no 21K, Lohegaon , Pune 411032" }, "geometry": { "type": "Point", "coordinates": [ 73.9089634, 18.5939557 ] } },
{ "type": "Feature", "properties": { "ccd_name": "Fallen tree on road", "com_location": "Shivaji nagar  Railway Station  Near Hotel Swagat, Pune, Maharashtra" }, "geometry": { "type": "Point", "coordinates": [ 73.8516629, 18.532217 ] } },
{ "type": "Feature", "properties": { "ccd_name": "Others road", "com_location": "Lane no -23 B Ganesh nagar , opposite more Banglow, dhayari, Pune-411041" }, "geometry": { "type": "Point", "coordinates": [ 73.8131332, 18.4521426 ] } },
{ "type": "Feature", "properties": { "ccd_name": "Others road", "com_location": "mAUlI bihAra mahAtmA sosAyaTI javaLa kRRiShNa lIlA Teresa sosAyaTI kotharUDalA puNe 411038" }, "geometry": { "type": "Point", "coordinates": [ 73.8786239, 18.5246091 ] } },
{ "type": "Feature", "properties": { "ccd_name": "Others road", "com_location": "Baner Pashan Link Road , next to Lane 4 on the Padma Villas boundary , Pune, Maharashtra" }, "geometry": { "type": "Point", "coordinates": [ 73.7912895, 18.5491346 ] } },
{ "type": "Feature", "properties": { "ccd_name": "Repairing potholes on Road", "com_location": "Sau Complex, Sau Complex, Sr. no 15, Ambegaon Pathar, Katraj, Pune, Maharashtra 411046" }, "geometry": { "type": "Point", "coordinates": [ 73.8407652, 18.4582993 ] } },
{ "type": "Feature", "properties": { "ccd_name": "Repairing potholes on Road", "com_location": "UBS road  medical mission sister near    bibvewadi pune 411037" }, "geometry": { "type": "Point", "coordinates": [ 73.8677627, 18.4768768 ] } },
{ "type": "Feature", "properties": { "ccd_name": "Repair/re-sufacing of roads/footpaths", "com_location": " in Savali Society near MIT College. , Pune, Maharashtra" }, "geometry": { "type": "Point", "coordinates": [ 73.8153727, 18.5152734 ] } },
{ "type": "Feature", "properties": { "ccd_name": "Repair/re-sufacing of roads/footpaths", "com_location": "kRRiShNAnagara mahammada vADI, Pune, Maharashtra" }, "geometry": { "type": "Point", "coordinates": [ 73.9198161, 18.4762787 ] } },
{ "type": "Feature", "properties": { "ccd_name": "Repairing potholes on Road (HO)", "com_location": "tarava~NI phurasuMgI jilhA pariShada shALA  tarava~NI-sAyakaravA~NI rastyAvara , Pune, Maharashtra" }, "geometry": { "type": "Point", "coordinates": [ 73.8786239, 18.5246091 ] } },
{ "type": "Feature", "properties": { "ccd_name": "Repair/re-sufacing of roads/footpaths", "com_location": "ceratec city , kamthe patil nagar , yewalewadi katraj kondhwa to yewalewadii, Pune, Maharashtra" }, "geometry": { "type": "Point", "coordinates": [ 73.8889152, 18.4401543 ] } },
{ "type": "Feature", "properties": { "ccd_name": "Repairing potholes on Road", "com_location": "puNe 37, mukuMda nagara, lakShmInArAyaNa chaukAmadhye naMdakumAra phla vara marchaMTa samora " }, "geometry": { "type": "Point", "coordinates": [ 73.7341246, 18.6018197 ] } },
{ "type": "Feature", "properties": { "ccd_name": "Repair/re-sufacing of roads/footpaths", "com_location": "svAmI samartha maMdira goMdhaLe nagara haDapasara puNe 411028 " }, "geometry": { "type": "Point", "coordinates": [ 73.9709232, 18.5019983 ] } },
{ "type": "Feature", "properties": { "ccd_name": "Repair/re-sufacing of roads/footpaths", "com_location": "Kumar sublime entrance road\t Kondhwa, Pune, Maharashtra 411048" }, "geometry": { "type": "Point", "coordinates": [ 73.8935756, 18.4661298 ] } },
{ "type": "Feature", "properties": { "ccd_name": "Other (Traffic-Planning)", "com_location": "Dhayari Phata to Dhayari Gaon, Pune, Maharashtra" }, "geometry": { "type": "Point", "coordinates": [ 73.81031, 18.447772 ] } },
{ "type": "Feature", "properties": { "ccd_name": "Repairing potholes on Road", "com_location": " 427 pAvara hAUsa  iMdirA nagara gulaTekaDi puNe 411037" }, "geometry": { "type": "Point", "coordinates": [ 73.867634700000011, 18.4940703 ] } },
{ "type": "Feature", "properties": { "ccd_name": "Others road", "com_location": "at Entrance of Celestino Building in Dhanori,PUNE" }, "geometry": { "type": "Point", "coordinates": [ 73.9029936, 18.5978952 ] } },
{ "type": "Feature", "properties": { "ccd_name": "Others road", "com_location": "Sarswati Vidyalay  dahanukar colony  gali no 8 , kothrud , pune 411038" }, "geometry": { "type": "Point", "coordinates": [ 73.8066753, 18.5106558 ] } },
{ "type": "Feature", "properties": { "ccd_name": "Trimming of branches in Roadside trees", "com_location": "Tokana kramAMka W84794 saMdarbha pAhaNe, Pune, Maharashtra" }, "geometry": { "type": "Point", "coordinates": [ 73.859406, 18.4659585 ] } },
{ "type": "Feature", "properties": { "ccd_name": "Trimming of branches in Roadside trees", "com_location": " near \"Baithi Chawl M H board Yerwada Pune 411006 Near Building No M4\"" }, "geometry": { "type": "Point", "coordinates": [ 73.8950422, 18.5602811 ] } },
{ "type": "Feature", "properties": { "ccd_name": "Repair/re-sufacing of roads/footpaths", "com_location": "datt nagar teleco colony galli no. 3 , Pune, Maharashtra" }, "geometry": { "type": "Point", "coordinates": [ 73.8444793, 18.4441804 ] } },
{ "type": "Feature", "properties": { "ccd_name": "Repair/re-sufacing of roads/footpaths", "com_location": "haDapasara madhe solApUra rastyAvarIla, Pune, Maharashtra" }, "geometry": { "type": "Point", "coordinates": [ 73.8786239, 18.5246091 ] } },
{ "type": "Feature", "properties": { "ccd_name": "Sweeping /cleaning the road", "com_location": "susa roDa sAI AshirvAda kaDe yeNArA lena naMbara 4 , Pune, Maharashtra" }, "geometry": { "type": "Point", "coordinates": [ 73.9352572, 18.6090253 ] } },
{ "type": "Feature", "properties": { "ccd_name": "Others (Road Project(H.O))", "com_location": "Swaminarayan mandir jambhulwadi road dari pula jambhulwadi pune 411046" }, "geometry": { "type": "Point", "coordinates": [ 73.8383523, 18.4290588 ] } },
{ "type": "Feature", "properties": { "ccd_name": "Others road", "com_location": "khaDUMjIbAbA/Dekkana chaukAta rastA, Pune, Maharashtra" }, "geometry": { "type": "Point", "coordinates": [ 73.8786239, 18.5246091 ] } },
{ "type": "Feature", "properties": { "ccd_name": "Others road", "com_location": "biTavAIja  bANera pUla  sarvisa roDa te sutAravADI , Pune, Maharashtra" }, "geometry": { "type": "Point", "coordinates": [ 73.8786239, 18.5246091 ] } },
{ "type": "Feature", "properties": { "ccd_name": "Lifiting of debris on road and footpath", "com_location": "Late Laxmibai Shetiba, 101/23, Dhotre Path, Janwadi, Gokhalenagar, Pune, Maharashtra 411016" }, "geometry": { "type": "Point", "coordinates": [ 73.8339797, 18.5328218 ] } },
{ "type": "Feature", "properties": { "ccd_name": "Others road", "com_location": " in front of MJM Hospital, FC Road , Pune, Maharashtra" }, "geometry": { "type": "Point", "coordinates": [ 73.8438811, 18.5245717 ] } },
{ "type": "Feature", "properties": { "ccd_name": "Repair and maintenance of Bridge ,Sub-ways & Pedestrian", "com_location": "state of Mudhwa bridge,pune." }, "geometry": { "type": "Point", "coordinates": [ 73.9339752, 18.5363337 ] } },
{ "type": "Feature", "properties": { "ccd_name": "Others road", "com_location": "Location - Rahul East view Society, Kale Padal, Hadapsar. , Pune, Maharashtra" }, "geometry": { "type": "Point", "coordinates": [ 73.9446846, 18.4863343 ] } },
{ "type": "Feature", "properties": { "ccd_name": "Repairing potholes on Road", "com_location": "kailAsa jIvana kArakhAnA samora, dhAyarI narhe roDa dhAyarI \r\n, Pune, Maharashtra" }, "geometry": { "type": "Point", "coordinates": [ 73.8223717, 18.4461631 ] } },
{ "type": "Feature", "properties": { "ccd_name": "Repair/re-sufacing of roads/footpaths", "com_location": "63/2A, Janardan Nagar, Lane-4D,Lohgaon, Vadgaon Shinde Road,Pune-411047" }, "geometry": { "type": "Point", "coordinates": [ 73.9458177, 18.6083681 ] } },
{ "type": "Feature", "properties": { "ccd_name": "Repairing potholes on Road", "com_location": "1132 ravivAra peTha goviMda halavAI chauka yamunA 1132ravivAra peTha mahArANA pratApasiha rastA, Pune, Maharashtra" }, "geometry": { "type": "Point", "coordinates": [ 73.8786239, 18.5246091 ] } },
{ "type": "Feature", "properties": { "ccd_name": "Others road", "com_location": "Rohan Mithila 1 Society 228 and Survey number 229 of Lohegaon Viman Nagar, Pune, Maharashtra" }, "geometry": { "type": "Point", "coordinates": [ 73.9092009, 18.5725817 ] } },
{ "type": "Feature", "properties": { "ccd_name": "Repair/re-sufacing of roads/footpaths", "com_location": "swaroop colony plot no 15 anand nagar Sinhgad Road pune 51" }, "geometry": { "type": "Point", "coordinates": [ 73.8244939, 18.4718677 ] } },
{ "type": "Feature", "properties": { "ccd_name": "Others (Road Project(H.O))", "com_location": "NEAR JESTHA NAGARIK SANGH KENDRA - GANPATI MANDIR, GANESH CHOWK, AMBEGAON PATHAR, , Pune, Maharashtra" }, "geometry": { "type": "Point", "coordinates": [ 73.8426415, 18.4587777 ] } },
{ "type": "Feature", "properties": { "ccd_name": "Repair/re-sufacing of roads/footpaths", "com_location": " pAnasarenagara, lena naMbara 3, koMDhavA bu. yevalevADI, puNe - 411048.  " }, "geometry": { "type": "Point", "coordinates": [ 73.8963496, 18.4363212 ] } },
{ "type": "Feature", "properties": { "ccd_name": "Others road", "com_location": "sarvha 78, pla Ta 153, DAvI bhusArI ka lanI, pauDa roDa, kotharUDa, puNe 411038" }, "geometry": { "type": "Point", "coordinates": [ 73.7904396, 18.5082124 ] } },
{ "type": "Feature", "properties": { "ccd_name": "Repairing potholes on Road", "com_location": "yeravaDA parNakuTI chauka, Pune, Maharashtra" }, "geometry": { "type": "Point", "coordinates": [ 73.879711, 18.5529226 ] } },
{ "type": "Feature", "properties": { "ccd_name": "Trimming of branches in Roadside trees", "com_location": "FLAT NO 1 AND 2 SUNDAR SAHVAS  PHASE 1, VADGAO BK SUN CITY ROAD, Pune, Maharashtra" }, "geometry": { "type": "Point", "coordinates": [ 73.8179984, 18.4765535 ] } },
{ "type": "Feature", "properties": { "ccd_name": "Repairing potholes on Road", "com_location": "Old sai baba mandir Sr no 36/3/1 kharadi pune 14." }, "geometry": { "type": "Point", "coordinates": [ 73.9341573, 18.5552251 ] } },
{ "type": "Feature", "properties": { "ccd_name": "Others road", "com_location": "715 guruwar peth khadak mal ali near st teresa church pune 411042" }, "geometry": { "type": "Point", "coordinates": [ 73.8595401, 18.5039821 ] } },
{ "type": "Feature", "properties": { "ccd_name": "Others road", "com_location": "shilpA sosAyaTI samora, emaAyaTI ka lejachyA mAge, kotharUDa , Pune, Maharashtra" }, "geometry": { "type": "Point", "coordinates": [ 73.8076543, 18.5073514 ] } },
{ "type": "Feature", "properties": { "ccd_name": "Fallen tree on road", "com_location": "crystal avenue society shejari kapil malhar society samor Shinde parkhe mala baner , Pune, Maharashtra" }, "geometry": { "type": "Point", "coordinates": [ 73.7915403, 18.5597926 ] } },
{ "type": "Feature", "properties": { "ccd_name": "Others road", "com_location": "Nirvana Life city DN Parande Park , Dhanori, Near Nyati Evita, Pune 411047" }, "geometry": { "type": "Point", "coordinates": [ 73.9069038, 18.6119488 ] } },
{ "type": "Feature", "properties": { "ccd_name": "Repairing potholes on Road", "com_location": " 427iMdirA nagara gulaTekaDI puNe 411037" }, "geometry": { "type": "Point", "coordinates": [ 73.8691622, 18.4941245 ] } },
{ "type": "Feature", "properties": { "ccd_name": "Repair/re-sufacing of roads/footpaths", "com_location": "Shanti nagar chowk to PGKM school kondhwa bk near appar depo pune 411048" }, "geometry": { "type": "Point", "coordinates": [ 73.8778193, 18.4640864 ] } },
{ "type": "Feature", "properties": { "ccd_name": "Sweeping /cleaning the road", "com_location": "DANGAT  Industrial Estate Agrawal godown near Bhosle building Rohan packaging, Pune, Maharashtra" }, "geometry": { "type": "Point", "coordinates": [ 73.7909207, 18.4697988 ] } },
{ "type": "Feature", "properties": { "ccd_name": "Sweeping /cleaning the road", "com_location": "sunItA sosAyaTI bAMbU gallI, Pune, Maharashtra" }, "geometry": { "type": "Point", "coordinates": [ 73.8273721, 18.5006754 ] } },
{ "type": "Feature", "properties": { "ccd_name": "Others road", "com_location": "Address - \r\n1333 Shukrawar Peth, Parshwanath Residency, Opp. Prestige Point, Near Chinchechi Talim, Bajirao Road, Pune 411002" }, "geometry": { "type": "Point", "coordinates": [ 73.8555575, 18.5085826 ] } },
{ "type": "Feature", "properties": { "ccd_name": "Repair/re-sufacing of roads/footpaths", "com_location": "SR no -53/1A, Jogeshwari colony, kalepadal Hadapsar,pune-411028" }, "geometry": { "type": "Point", "coordinates": [ 73.941631500000014, 18.4808873 ] } },
{ "type": "Feature", "properties": { "ccd_name": "Repairing potholes on Road", "com_location": "taniShka kasiTA sahakArI gRRihanirmANa saMsthA AMbegAva budruka puNe " }, "geometry": { "type": "Point", "coordinates": [ 73.8306278, 18.456677 ] } },
{ "type": "Feature", "properties": { "ccd_name": "Others road", "com_location": " Karve statue chowk., Pune, Maharashtra" }, "geometry": { "type": "Point", "coordinates": [ 73.816393, 18.502507 ] } },
{ "type": "Feature", "properties": { "ccd_name": "Trimming of branches in Roadside trees", "com_location": " kindly remove branches ., Pune, Maharashtra" }, "geometry": { "type": "Point", "coordinates": [ 73.8786239, 18.5246091 ] } },
{ "type": "Feature", "properties": { "ccd_name": "Repair/re-sufacing of roads/footpaths", "com_location": "Ram Indu Park, Baner, Pune, Maharashtra" }, "geometry": { "type": "Point", "coordinates": [ 73.7801709, 18.5654759 ] } },
{ "type": "Feature", "properties": { "ccd_name": "Repair/re-sufacing of roads/footpaths", "com_location": "DSK road, near Savitri mangal karyalay, opp Classic car, Dhayari Pune 41" }, "geometry": { "type": "Point", "coordinates": [ 73.8071875, 18.4471875 ] } },
{ "type": "Feature", "properties": { "ccd_name": "Repair/re-sufacing of roads/footpaths", "com_location": "Ashanagar vaiduwadi \r\nNear hanuman temple , Pune, Maharashtra" }, "geometry": { "type": "Point", "coordinates": [ 73.8250553, 18.5335122 ] } },
{ "type": "Feature", "properties": { "ccd_name": "Sweeping /cleaning the road", "com_location": "Adarsha nagara , Pune, Maharashtra" }, "geometry": { "type": "Point", "coordinates": [ 73.8491871, 18.4677507 ] } },
{ "type": "Feature", "properties": { "ccd_name": "Repairing potholes on Road", "com_location": "khuTavaDa chauka te bhekarAInagara yA rastyAvara , Pune, Maharashtra" }, "geometry": { "type": "Point", "coordinates": [ 73.8786239, 18.5246091 ] } },
{ "type": "Feature", "properties": { "ccd_name": "Others road", "com_location": "oma sAI rasavaMtI gRRiha, muktAMgaNa shALejavaLa, araNeshvara roDa, puNe 09 " }, "geometry": { "type": "Point", "coordinates": [ 73.8518184, 18.4855607 ] } },
{ "type": "Feature", "properties": { "ccd_name": "Development of Bridge , Sub-ways & Pedestrian", "com_location": "kAtraja mukhya chaukAmadhye bAyapAsa uDDANa pUla, Pune, Maharashtra" }, "geometry": { "type": "Point", "coordinates": [ 73.865238, 18.4529322 ] } },
{ "type": "Feature", "properties": { "ccd_name": "Repair/re-sufacing of roads/footpaths", "com_location": "crossing of Wadia College in front of petrol pump Pune 1" }, "geometry": { "type": "Point", "coordinates": [ 73.8806824, 18.5333787 ] } },
{ "type": "Feature", "properties": { "ccd_name": "Others road", "com_location": "at Nirmala Convent School, Kharadi \r\n, Pune, Maharashtra" }, "geometry": { "type": "Point", "coordinates": [ 73.9448195, 18.5540072 ] } },
{ "type": "Feature", "properties": { "ccd_name": "Repairing potholes on Road", "com_location": "Punyadham Ashram Rd, Near D-mart, Tyni Audyogic Wasahat, Kondhwa Budruk, Pune, Maharashtra 411048" }, "geometry": { "type": "Point", "coordinates": [ 73.8954548, 18.4584583 ] } },
{ "type": "Feature", "properties": { "ccd_name": "Repairing potholes on Road", "com_location": "Skyway Sarno Road Near DY Patil College Lohgaon Pune 411047" }, "geometry": { "type": "Point", "coordinates": [ 73.9174847, 18.6094908 ] } },
{ "type": "Feature", "properties": { "ccd_name": "Repair/re-sufacing of roads/footpaths", "com_location": "Baner road turning to pan card, Pune, Maharashtra" }, "geometry": { "type": "Point", "coordinates": [ 73.7925792, 18.5581625 ] } },
{ "type": "Feature", "properties": { "ccd_name": "Others road", "com_location": "S.NO.56, HISSA NO.8, WING G, 11TH FLR, FLAT NO.1102, MARVEL IDEAL SPECIO, JAGDAMBA BHAVAN ROAD, UNDRI, PUNE 411 060" }, "geometry": { "type": "Point", "coordinates": [ 73.9135697, 18.4465743 ] } },
{ "type": "Feature", "properties": { "ccd_name": "Sweeping /cleaning the road", "com_location": "Block-A, GULMOHAR PRIMROSE, Wagholi, Maharashtra 412207, India, Pune, Maharashtra" }, "geometry": { "type": "Point", "coordinates": [ 73.9964349, 18.5848387 ] } },
{ "type": "Feature", "properties": { "ccd_name": "Marking of Parking Line (HO)", "com_location": "dhayeri main road near solapure dress shop pune" }, "geometry": { "type": "Point", "coordinates": [ 73.8117835, 18.4541643 ] } },
{ "type": "Feature", "properties": { "ccd_name": "Repair/re-sufacing of roads/footpaths", "com_location": "Empress Towers, S No 65, Empress County Behind, Empress Garden, Dobarwadi, Ghorpadi, Pune, Maharashtra 411001" }, "geometry": { "type": "Point", "coordinates": [ 73.8968152, 18.51327 ] } },
{ "type": "Feature", "properties": { "ccd_name": "Repairing potholes on Road", "com_location": "hAMDevADI roDalA DI mArTa reDI parisarAmadhye hAyave pAsUna haDapasara paryaMta\r\n, Pune, Maharashtra" }, "geometry": { "type": "Point", "coordinates": [ 73.8786239, 18.5246091 ] } },
{ "type": "Feature", "properties": { "ccd_name": "Repair/re-sufacing of roads/footpaths", "com_location": "opposite Reliance Centro till 1 Modibaug on Ganeshkhind Road, Shivajinagar, , Pune, Maharashtra" }, "geometry": { "type": "Point", "coordinates": [ 73.8424892, 18.5337925 ] } },
{ "type": "Feature", "properties": { "ccd_name": "Sweeping /cleaning the road", "com_location": "Besides navin hind school kundi is not cleaned on regular basis.\r\nPlease visit the location\r\n411002, Pune, Maharashtra" }, "geometry": { "type": "Point", "coordinates": [ 73.8758349, 18.5082174 ] } },
{ "type": "Feature", "properties": { "ccd_name": "Others road", "com_location": "nagar road, aaple ghar brt bus stop, tr kharadi jakat naka, Pune, Maharashtra" }, "geometry": { "type": "Point", "coordinates": [ 73.9494014, 18.5682667 ] } },
{ "type": "Feature", "properties": { "ccd_name": "Repair/re-sufacing of roads/footpaths", "com_location": "Baner Pune Maharashtra India" }, "geometry": { "type": "Point", "coordinates": [ 73.7768511, 18.5642452 ] } },
{ "type": "Feature", "properties": { "ccd_name": "Others road", "com_location": "chALa 57 parvatI darshana polIsa chaukI javaLa, Pune, Maharashtra" }, "geometry": { "type": "Point", "coordinates": [ 73.8550849, 18.4947486 ] } },
{ "type": "Feature", "properties": { "ccd_name": "Repairing potholes on Road", "com_location": "Katraj chowk to Khadi Machine Chowk, Pisoli road, Pune." }, "geometry": { "type": "Point", "coordinates": [ 73.8930396, 18.452004 ] } },
{ "type": "Feature", "properties": { "ccd_name": "Sweeping /cleaning the road", "com_location": "sarve naMbara 17 lena naMbara chAra guDavila shALe shejArI ,PUNE" }, "geometry": { "type": "Point", "coordinates": [ 73.8494578, 18.5179323 ] } },
{ "type": "Feature", "properties": { "ccd_name": "Fallen tree on road", "com_location": "Ivory Estates Baner  Opp Tiara soc, Pune, Maharashtra" }, "geometry": { "type": "Point", "coordinates": [ 73.8014545, 18.5517644 ] } },
{ "type": "Feature", "properties": { "ccd_name": "Trimming of branches in Roadside trees", "com_location": "janta sahkari bank,happy colony kothrud, Pune, Maharashtra" }, "geometry": { "type": "Point", "coordinates": [ 73.8135772, 18.4950297 ] } },
{ "type": "Feature", "properties": { "ccd_name": "Repair/re-sufacing of roads/footpaths", "com_location": "Near hotel rana, Pune, Maharashtra" }, "geometry": { "type": "Point", "coordinates": [ 73.7399835, 18.4323292 ] } },
{ "type": "Feature", "properties": { "ccd_name": "Development of Bridge , Sub-ways & Pedestrian", "com_location": "piMgaLe vastI muMDhavA, Pune, Maharashtra" }, "geometry": { "type": "Point", "coordinates": [ 73.8505741, 18.6303827 ] } },
{ "type": "Feature", "properties": { "ccd_name": "Repairing potholes on Road", "com_location": "komal park ,dhanori , Pune, Maharashtra" }, "geometry": { "type": "Point", "coordinates": [ 73.896851, 18.5967587 ] } },
{ "type": "Feature", "properties": { "ccd_name": "Repairing potholes on Road", "com_location": "Balaji stone koMDhavA vAhatUka vibhAga khaDI mashIna chauka te TiLekara nagara smashAnabhUmI , Pune, Maharashtra" }, "geometry": { "type": "Point", "coordinates": [ 73.8874389, 18.4534974 ] } },
{ "type": "Feature", "properties": { "ccd_name": "Repair/re-sufacing of roads/footpaths", "com_location": "GOLD FINCH, NIGHTINGALE APARTMENT, nyAtI kAuMTI, mohammada vADI, autAMDavADI hAMDevADI, puNe, mahArAShTra 411060, India" }, "geometry": { "type": "Point", "coordinates": [ 73.9228011, 18.4628116 ] } },
{ "type": "Feature", "properties": { "ccd_name": "Others road", "com_location": "pavaLe chauka te kamalA neharU ha spiTala roDa, Pune, Maharashtra" }, "geometry": { "type": "Point", "coordinates": [ 73.8622102, 18.5227057 ] } },
{ "type": "Feature", "properties": { "ccd_name": "Repair/re-sufacing of roads/footpaths", "com_location": "sthaLa - jupiTara ha spiTala bANera puNe. \r\n" }, "geometry": { "type": "Point", "coordinates": [ 73.8786239, 18.5246091 ] } },
{ "type": "Feature", "properties": { "ccd_name": "Others road", "com_location": "Area: Rakshaknagar Gold Society Road, Kharadi, Pune-14" }, "geometry": { "type": "Point", "coordinates": [ 73.9411813, 18.5511703 ] } },
{ "type": "Feature", "properties": { "ccd_name": "Others road", "com_location": "shivanerI pArka, bANera bAlevADI roDa. bAlevADI, Pune, Maharashtra" }, "geometry": { "type": "Point", "coordinates": [ 73.7807736, 18.5729999 ] } },
{ "type": "Feature", "properties": { "ccd_name": "Repair/re-sufacing of roads/footpaths", "com_location": "Location - Khadi Machine Chowk, Handewadi\r\nPincode 412308\r\n, Pune, Maharashtra" }, "geometry": { "type": "Point", "coordinates": [ 73.8913365, 18.4522979 ] } },
{ "type": "Feature", "properties": { "ccd_name": "Others road", "com_location": "Golf club yerwada Pune 6" }, "geometry": { "type": "Point", "coordinates": [ 73.8817264, 18.5528728 ] } },
{ "type": "Feature", "properties": { "ccd_name": "Parking policy", "com_location": "Shree Building, 1207 Sadashiv Peth, Limaye Wadi, Tilak Road, Pune - 411030\r\n" }, "geometry": { "type": "Point", "coordinates": [ 73.8485175, 18.5090075 ] } },
{ "type": "Feature", "properties": { "ccd_name": "Lifiting of debris on road and footpath (HO)", "com_location": "No. 418, C/o Dr. M N Natu, Omkareshwar Path, Shaniwar Peth, Pune, Maharashtra 411030, India" }, "geometry": { "type": "Point", "coordinates": [ 73.8499823, 18.5195964 ] } },
{ "type": "Feature", "properties": { "ccd_name": "Repair/re-sufacing of roads/footpaths", "com_location": "Baner near Pancard club road, Pune, Maharashtra" }, "geometry": { "type": "Point", "coordinates": [ 73.7781704, 18.5589916 ] } },
{ "type": "Feature", "properties": { "ccd_name": "Others road", "com_location": "In front of 269A, Ganesh Peth Laxmi Road Near Bhairoba Mandir Pune -2" }, "geometry": { "type": "Point", "coordinates": [ 73.8633526, 18.5160487 ] } },
{ "type": "Feature", "properties": { "ccd_name": "Trimming of branches in Roadside trees", "com_location": "Add - Canara Bank Lane, Opp Pushpam Gas Agency, Treehouse Preschool javal, Pune, Maharashtra" }, "geometry": { "type": "Point", "coordinates": [ 73.8640787, 18.4714157 ] } },
{ "type": "Feature", "properties": { "ccd_name": "Fallen tree on road", "com_location": "Outside Silver Breeze Apartment and Kadunimb tree inside Bapuji Krupa Apartment in Bhonde Colony\r\n , Pune, Maharashtra" }, "geometry": { "type": "Point", "coordinates": [ 73.8344341, 18.512322 ] } },
{ "type": "Feature", "properties": { "ccd_name": "Repair/re-sufacing of roads/footpaths", "com_location": "pune" }, "geometry": { "type": "Point", "coordinates": [ 73.8641631, 18.5156938 ] } },
{ "type": "Feature", "properties": { "ccd_name": "Repairing potholes on Road", "com_location": "near Padmavati Mandir Pisoli,\r\nCWX5+M4Q Pune, Maharashtra" }, "geometry": { "type": "Point", "coordinates": [ 73.908139300000016, 18.4492837 ] } },
{ "type": "Feature", "properties": { "ccd_name": "Others road", "com_location": "serve no 44, kirtane baug, mudhwa railway flyover khali aadarsh mitra mandal pune " }, "geometry": { "type": "Point", "coordinates": [ 73.9321803, 18.5293339 ] } },
{ "type": "Feature", "properties": { "ccd_name": "Repair/re-sufacing of roads/footpaths", "com_location": "vaDAchyA basa sTa pa javaLa, vanadevI maMdirAchyA aposiTa, karvenagara puNe 411052. " }, "geometry": { "type": "Point", "coordinates": [ 73.814997, 18.4925912 ] } },
{ "type": "Feature", "properties": { "ccd_name": "Repair/re-sufacing of roads/footpaths", "com_location": " Athashri/Ojas road square at Baner Pashan Link road, Pune, Maharashtra" }, "geometry": { "type": "Point", "coordinates": [ 73.7904731, 18.548687 ] } },
{ "type": "Feature", "properties": { "ccd_name": "Repairing potholes on Road", "com_location": " infront of Shinde Nagar or near Maratha Mandir..., Pune, Maharashtra" }, "geometry": { "type": "Point", "coordinates": [ 73.7814985, 18.5117709 ] } },
{ "type": "Feature", "properties": { "ccd_name": "Sweeping /cleaning the road", "com_location": " Netaji chowk on the arm going towards Gunjan chowk, , Pune, Maharashtra" }, "geometry": { "type": "Point", "coordinates": [ 73.8903509, 18.5478739 ] } },
{ "type": "Feature", "properties": { "ccd_name": "Others road", "com_location": "Near Muktangan School..Arunoday Society to Trazer park road , Pune, Maharashtra" }, "geometry": { "type": "Point", "coordinates": [ 73.8337213, 18.5576133 ] } },
{ "type": "Feature", "properties": { "ccd_name": "Others road", "com_location": "United Arise Lohegaon Pune 411047" }, "geometry": { "type": "Point", "coordinates": [ 73.9074533, 18.6085624 ] } },
{ "type": "Feature", "properties": { "ccd_name": "Repair/re-sufacing of roads/footpaths", "com_location": "from p. l. deshpande garden to rohan kritika, sinhagad road., Pune, Maharashtra" }, "geometry": { "type": "Point", "coordinates": [ 73.8340091, 18.4905923 ] } },
{ "type": "Feature", "properties": { "ccd_name": "Repair and maintenance of Bridge ,Sub-ways & Pedestrian", "com_location": "manjri railway, Pune, Maharashtra" }, "geometry": { "type": "Point", "coordinates": [ 73.9709781, 18.5127993 ] } },
{ "type": "Feature", "properties": { "ccd_name": "Repairing potholes on Road", "com_location": "prabhAga 21 ghorapaDI gAva jahAMgIra nagara \r\n, Pune, Maharashtra" }, "geometry": { "type": "Point", "coordinates": [ 73.9045991, 18.5283451 ] } },
{ "type": "Feature", "properties": { "ccd_name": "Repair/re-sufacing of roads/footpaths", "com_location": "Neetal Residency\r\nSr No 35/1, KHEDEKAR INDUSTRIAL ESTATE, Dhayari Narhe Rd, Narhe, Pune, Maharashtra 411041 " }, "geometry": { "type": "Point", "coordinates": [ 73.8236337, 18.447825 ] } },
{ "type": "Feature", "properties": { "ccd_name": "Repairing potholes on Road", "com_location": "BHUSARI COLONY SAGAR COLONY SHANTI BAN, Pune, Maharashtra" }, "geometry": { "type": "Point", "coordinates": [ 73.8012855, 18.5032222 ] } },
{ "type": "Feature", "properties": { "ccd_name": "Other (Traffic-Planning)", "com_location": "Bmcc college road, Pune, Maharashtra" }, "geometry": { "type": "Point", "coordinates": [ 73.8351389, 18.5214097 ] } },
{ "type": "Feature", "properties": { "ccd_name": "Repairing potholes on Road", "com_location": "ghole roDa niyara yuniyana ba.Nka, Pune, Maharashtra" }, "geometry": { "type": "Point", "coordinates": [ 73.8447579, 18.5240989 ] } },
{ "type": "Feature", "properties": { "ccd_name": "Repair/re-sufacing of roads/footpaths", "com_location": "kotharUDa madhIla rAhula nagara madhIla paMDita jiteMdra abhiShekI udyAna te karve putaLA chauka, Pune, Maharashtra" }, "geometry": { "type": "Point", "coordinates": [ 73.8163585, 18.4980603 ] } },
{ "type": "Feature", "properties": { "ccd_name": "Repairing potholes on Road", "com_location": "Near Pryega City gate towards Dhayari., Pune, Maharashtra" }, "geometry": { "type": "Point", "coordinates": [ 73.8101999, 18.4471444 ] } },
{ "type": "Feature", "properties": { "ccd_name": "Repairing potholes on Road", "com_location": "elphisTana roDa ashoka bhoITe nagara , relve kra siMga lAgata bopoDIhUna khaDakI lA jANARyA mArgAvara, Pune, Maharashtra" }, "geometry": { "type": "Point", "coordinates": [ 73.8523582, 18.5625986 ] } },
{ "type": "Feature", "properties": { "ccd_name": "Others road", "com_location": "Papde Wasti Phursungi, Pune, Maharashtra" }, "geometry": { "type": "Point", "coordinates": [ 73.9470036, 18.4822335 ] } },
{ "type": "Feature", "properties": { "ccd_name": "Others road", "com_location": "1444-1434, Thorale Madhavarao Peshve Path, Police Colony, Guruwar Peth, Pune, Maharashtra 411042" }, "geometry": { "type": "Point", "coordinates": [ 73.8606909, 18.5037008 ] } },
{ "type": "Feature", "properties": { "ccd_name": "Repairing potholes on Road", "com_location": "kotharUDa madhIla rAhUna nagara chyA samorIla ka.cna la roDa , Pune, Maharashtra" }, "geometry": { "type": "Point", "coordinates": [ 73.8786239, 18.5246091 ] } },
{ "type": "Feature", "properties": { "ccd_name": "Repair/re-sufacing of roads/footpaths", "com_location": "Balaji Chowk  Pashan Sus Road, Pune, Maharashtra" }, "geometry": { "type": "Point", "coordinates": [ 73.7648982, 18.5492124 ] } },
{ "type": "Feature", "properties": { "ccd_name": "Repairing potholes on Road", "com_location": "Rohan Abhilasha Wagholi Road Wagholi Pune 412207" }, "geometry": { "type": "Point", "coordinates": [ 73.9686644, 18.5956017 ] } },
{ "type": "Feature", "properties": { "ccd_name": "Trimming of branches in Roadside trees", "com_location": "kotharuDamadhIla sahajAnaMda sosAyaTItIla bhAga -2 madhIla\r\nplA.cTa kra. 37 yA baMgalyAjavaLa, Pune, Maharashtra" }, "geometry": { "type": "Point", "coordinates": [ 73.850462, 18.493906 ] } },
{ "type": "Feature", "properties": { "ccd_name": "Others road", "com_location": "Athashri/Ojas road square at Baner Pashan Link road, Pune, Maharashtra" }, "geometry": { "type": "Point", "coordinates": [ 73.7904731, 18.548687 ] } },
{ "type": "Feature", "properties": { "ccd_name": "Others road", "com_location": "Location: pUrvA hAITsa sosAyaTI,  susa roDa pAShANa. , Pune, Maharashtra" }, "geometry": { "type": "Point", "coordinates": [ 73.7923957, 18.5414267 ] } },
{ "type": "Feature", "properties": { "ccd_name": "Sweeping /cleaning the road", "com_location": "gulaTekaDI bhAgA madhye,pune " }, "geometry": { "type": "Point", "coordinates": [ 73.8704877, 18.4877372 ] } },
{ "type": "Feature", "properties": { "ccd_name": "Repair/re-sufacing of roads/footpaths", "com_location": "Wadachiwadi undri Wadachi Wadi Road Wadachi Wadi Undri Pune Maharashtra India" }, "geometry": { "type": "Point", "coordinates": [ 73.9244921, 18.4366692 ] } },
{ "type": "Feature", "properties": { "ccd_name": "Others road", "com_location": "between BJS Chowk and Wagheshwar Temple in Wagholi even in front of Lexicon International School., Pune, Maharashtra" }, "geometry": { "type": "Point", "coordinates": [ 73.9777212, 18.5817586 ] } },
{ "type": "Feature", "properties": { "ccd_name": "Repair/re-sufacing of roads/footpaths", "com_location": "Near Unique Academic, Adjacent to Shivaji Housing society, Behind JWMARRIOT Hotel, S.B.Road, Pune, Maharashtra" }, "geometry": { "type": "Point", "coordinates": [ 73.829592300000016, 18.5323341 ] } },
{ "type": "Feature", "properties": { "ccd_name": "Others road", "com_location": " yunivharsiTI te bremena chauka, Pune, Maharashtra" }, "geometry": { "type": "Point", "coordinates": [ 73.8786239, 18.5246091 ] } },
{ "type": "Feature", "properties": { "ccd_name": "Others road", "com_location": "siMhagaDa roDa mANikabAga goyala gaMgA roDa \r\n, Pune, Maharashtra" }, "geometry": { "type": "Point", "coordinates": [ 73.8646518, 18.5138753 ] } },
{ "type": "Feature", "properties": { "ccd_name": "Others road", "com_location": "svAmI vivekAnaMda rastyAvarIla dugaDa chauka sAtArA rastA, siTI prAiDa thieTarachyAM puDhachyA chaukAtIla bhuyArI mArga 411037, Pune, Maharashtra" }, "geometry": { "type": "Point", "coordinates": [ 73.8786239, 18.5246091 ] } },
{ "type": "Feature", "properties": { "ccd_name": "Repair and maintenance of Bridge ,Sub-ways & Pedestrian", "com_location": "mAya varlDa sosAyaTI bANera, Pune, Maharashtra" }, "geometry": { "type": "Point", "coordinates": [ 73.9531189, 18.5646495 ] } },
{ "type": "Feature", "properties": { "ccd_name": "Others road", "com_location": "Baner Pashan Link Road; Ayurvedgram Chowk; behind Camellia Apartments, Pune, Maharashtra" }, "geometry": { "type": "Point", "coordinates": [ 73.7916886, 18.5523798 ] } },
{ "type": "Feature", "properties": { "ccd_name": "Sweeping /cleaning the road", "com_location": "Sankalp Bunglow, Siddhivinayak Soc, Jambhulwadi road, Off viva sarovar bus stop. Ambegaon -46, Pune, Maharashtra" }, "geometry": { "type": "Point", "coordinates": [ 73.8449388, 18.4315096 ] } },
{ "type": "Feature", "properties": { "ccd_name": "Repairing potholes on Road", "com_location": "Kharadi and Mundhwa routes. Any solution please? Pin code 411014, Pune, Maharashtra" }, "geometry": { "type": "Point", "coordinates": [ 73.9341218, 18.5376845 ] } },
{ "type": "Feature", "properties": { "ccd_name": "Trimming of branches in Roadside trees", "com_location": "kalpavRRikSha apArTameMTsa, amRRita kalasha nagarI lena, AMbegAva budruka, puNe 411046" }, "geometry": { "type": "Point", "coordinates": [ 73.8754258, 18.4504283 ] } },
{ "type": "Feature", "properties": { "ccd_name": "Others road", "com_location": "LANE 5 SR NO 62/6 KEDARI NAGAR WANWADI PUNE 40 " }, "geometry": { "type": "Point", "coordinates": [ 73.9011125, 18.4816632 ] } },
{ "type": "Feature", "properties": { "ccd_name": "Repairing potholes on Road", "com_location": "Address:  in front of The Laurels society,DP road Malawadi hadapsar Pune 411028" }, "geometry": { "type": "Point", "coordinates": [ 73.9416834, 18.505384 ] } },
{ "type": "Feature", "properties": { "ccd_name": "Repair/re-sufacing of roads/footpaths", "com_location": "Sr No 39 Aundh Road Ambedkar Chauk Chawan Wasti Pune 411020" }, "geometry": { "type": "Point", "coordinates": [ 73.8308329, 18.5628196 ] } },
{ "type": "Feature", "properties": { "ccd_name": "Repair/re-sufacing of roads/footpaths", "com_location": "jAMbhULavADI roDa, AMbegAva khurda yethIla hanumAnanagara parisarAtIla mukhya rastA, sAI maMdIrachyA, Pune, Maharashtra" }, "geometry": { "type": "Point", "coordinates": [ 73.8786239, 18.5246091 ] } },
{ "type": "Feature", "properties": { "ccd_name": "Repairing potholes on Road", "com_location": "opp booker satnam gate towards sooamji kondhwa BK talab, Pune, Maharashtra" }, "geometry": { "type": "Point", "coordinates": [ 73.8913421, 18.4606399 ] } },
{ "type": "Feature", "properties": { "ccd_name": "Vehicles of showroom on road/footpath", "com_location": "Wakeshwar Road New Baner  Pashan Link Rd Pashan Pune Maharashtra  India" }, "geometry": { "type": "Point", "coordinates": [ 73.7932013, 18.5446384 ] } },
{ "type": "Feature", "properties": { "ccd_name": "Repair/re-sufacing of roads/footpaths", "com_location": "dhanakavaDI, mohana nagara , Pune, Maharashtra" }, "geometry": { "type": "Point", "coordinates": [ 73.8496252, 18.4597452 ] } },
{ "type": "Feature", "properties": { "ccd_name": "Others road", "com_location": "prabhAga kramAMka 36(ba) loara iMdirAnagara bibavevADI chALa kramAMka bI 41 , Pune, Maharashtra" }, "geometry": { "type": "Point", "coordinates": [ 73.8640944, 18.4690213 ] } },
{ "type": "Feature", "properties": { "ccd_name": "Repair/re-sufacing of roads/footpaths", "com_location": "HW3G+93G, Sri Nagar Society, Anand Park, Wadgaon Sheri, Pune, Maharashtra 411014, India" }, "geometry": { "type": "Point", "coordinates": [ 73.925261, 18.553487 ] } },
{ "type": "Feature", "properties": { "ccd_name": "Repairing potholes on Road", "com_location": "kAtraja chaukAchyA puDhe, mArutI sujhukI chaugule iMDasTrIta, Pune, Maharashtra" }, "geometry": { "type": "Point", "coordinates": [ 73.8607492, 18.4428033 ] } },
{ "type": "Feature", "properties": { "ccd_name": "Sweeping /cleaning the road", "com_location": "pmc colony back side of police chowki, Pune, Maharashtra" }, "geometry": { "type": "Point", "coordinates": [ 73.8356575, 18.5262039 ] } },
{ "type": "Feature", "properties": { "ccd_name": "Repair/re-sufacing of roads/footpaths", "com_location": "rAjagaDa chALa gallI sukhasAgara nagarakaDe, Pune, Maharashtra" }, "geometry": { "type": "Point", "coordinates": [ 73.7746273, 18.5543432 ] } },
{ "type": "Feature", "properties": { "ccd_name": "Others road", "com_location": "Bella Casa to Vibgyor School, Sus , Pune, Maharashtra" }, "geometry": { "type": "Point", "coordinates": [ 73.7532189, 18.5534027 ] } },
{ "type": "Feature", "properties": { "ccd_name": "Others (Road Project(H.O))", "com_location": "https://maps.app.goo.gl/zxbKppuD1ZqXzTS18 pla.cTinama 9 sha piMga ma lachyA AdhI, mAuMTa yunika resiDensa naMtara, Pune, Maharashtra" }, "geometry": { "type": "Point", "coordinates": [ 73.827727, 18.5241651 ] } },
{ "type": "Feature", "properties": { "ccd_name": "Fallen tree on road", "com_location": "BUILDING NUMBER 1P&T COLONY GULTEKADI., Pune, Maharashtra" }, "geometry": { "type": "Point", "coordinates": [ 73.8704877, 18.4877372 ] } },
{ "type": "Feature", "properties": { "ccd_name": "Repair/re-sufacing of roads/footpaths", "com_location": "Aundh road . Siddharthnagar housing society phase 2 ., Pune, Maharashtra" }, "geometry": { "type": "Point", "coordinates": [ 73.8117579, 18.5669787 ] } },
{ "type": "Feature", "properties": { "ccd_name": "Repairing potholes on Road", "com_location": "puNe manapA haddItIla nAMdoshI-kirakaTavADI " }, "geometry": { "type": "Point", "coordinates": [ 73.7957514, 18.4332515 ] } },
{ "type": "Feature", "properties": { "ccd_name": "Repair/re-sufacing of roads/footpaths", "com_location": "sind toors & travels opp lemon tree hotel sadhu vasvani road 411001\r\n, Pune, Maharashtra" }, "geometry": { "type": "Point", "coordinates": [ 73.8761278, 18.5276869 ] } },
{ "type": "Feature", "properties": { "ccd_name": "Fallen tree on road", "com_location": "434 shukrawar peth behind pramod mahajan vyayam shala subhash nagar Vanje wada samor pune 411002" }, "geometry": { "type": "Point", "coordinates": [ 73.8587027, 18.5053954 ] } },
{ "type": "Feature", "properties": { "ccd_name": "Repair/re-sufacing of roads/footpaths", "com_location": "koMDhavA bu, PGKM shALepuDhe, jaya gurudeva mArbalsa samora, heriTeja sosAyaTI javaLa, sAvakAshanagarache puDhe, puNe-48" }, "geometry": { "type": "Point", "coordinates": [ 73.9531189, 18.5646495 ] } },
{ "type": "Feature", "properties": { "ccd_name": "Repair/re-sufacing of roads/footpaths", "com_location": "Everglade Society , kharadi bypass road. Near accolade society. Kharadi 14, Pune, Maharashtra" }, "geometry": { "type": "Point", "coordinates": [ 73.9339596, 18.5458805 ] } },